Session Time,GPS Fix Quality,Number of Satellites,GPS Date & Time,Latitude (deg),Longitude (deg),GPS Altitude (feet),Ground Speed (knots),Ground Track (deg),Mag Var (deg),Cross Track Error (NM),Destination Waypoint ID,Range to Destination (NM),Bearing to Destination (deg),System Time,Pitch (deg),Roll (deg),Magnetic Heading (deg),Indicated Airspeed (knots),Pressure Altitude (ft),Turn Rate (deg/s),Lateral Accel (g),Vertical Accel(g),Angle of Attack (%),Vertical Speed (ft/min),OAT (deg C),True Airspeed (knots),Barometer Setting (inHg),Density Altitude (ft),Wind Direction (deg),Wind Speed (knots),Heading Bug (deg),Altitude Bug (ft),Airspeed Bug (knots),Vertical Speed Bug (ft/min),Course (deg),CDI Source Type,CDI Source Port,CDI Scale (NM),CDI Deflection (%),Glideslope (%),AP Engaged,AP Roll Mode,AP Roll Force,AP Roll Position (steps),AP Roll Slip (bool),AP Pitch Force,AP Pitch Position (steps),AP Pitch Slip (bool),AP Yaw Force,AP Yaw Position,AP Yaw Slip (bool),Transponder Status,Transponder Reply (bool),Transponder Identing (bool),Transponder Code (octal),Oil Pressure (PSI),Oil Temp (deg C),RPM L,RPM R,Manifold Pressure (inHg),Fuel Flow 1 (gal/hr),Fuel Flow 2 (gal/hr),Total Fuel Flow (gal/hr),Fuel Pressure (PSI),Fuel Level L (gal),Fuel Level R (gal),Fuel Remaining (gal),Volts 1,Volts 2,Amps,Hobbs Time,Tach Time,Thermocouple 1 (deg C),Thermocouple 2 (deg C),Thermocouple 3 (deg C),Thermocouple 4 (deg C),CHT 4 (deg C),EGT 4 (deg C),CHT 3 (deg C),EGT 3 (deg C),CHT 2 (deg C),EGT 2 (deg C),CHT 1 (deg C),EGT 1 (deg C),Thermocouple 13 (deg C),Thermocouple 14 (deg C),ELEV POSITION (%),CO PPM PRESSURE (PSI),GP Input 3,FUEL PRESSURE (PSI),AILERN POSITION (%),CANOPY CONTACT (V),GP Input 7,GP Input 8,LEFT LEVEL (Sensor V),RIGHT LEVEL (Sensor V),OIL PRESSURE (PSI),OIL TEMPERATURE (deg C),GP Input 13,Contacts,Percent Power,EGT Leaning State,Unnamed: 103,source_file,Unnamed: 0,press_alt,ias,hdg,gps_gs,gps_trk,OAT (deg F),Oil Temp (deg F),Thermocouple 1 (deg F),Thermocouple 2 (deg F),Thermocouple 3 (deg F),Thermocouple 4 (deg F),CHT 4 (deg F),EGT 4 (deg F),CHT 3 (deg F),EGT 3 (deg F),CHT 2 (deg F),EGT 2 (deg F),CHT 1 (deg F),EGT 1 (deg F),Thermocouple 13 (deg F),Thermocouple 14 (deg F),OIL TEMPERATURE (deg F),RPM,AVG_CHT,CHT_OAT_Ratio,OIL_OAT_Ratio,Fuel Flow Integral,Distance Traveled,Max CHT,Engine Run,Flight ID,efficiency
5.06,1.0,5.0,2025-11-22 21:05:14,37.08154,-121.59951,342.0,0.0,136.4,-12.6,,,,,0.0,10.8,-0.7,49.7,0.0,198.0,0.0,-0.01,1.0,,-66.0,19.0,0.0,30.07,747.0,,,323.0,,,,,0.0,0.0,,,,,,,,,,,,,,,,,,,0.0,15.0,0.0,0.0,30.1,0.0,,0.0,0.7,,,40.0,0.0,0.0,-0.6,0.1,0.0,,,,,16.0,18.0,16.0,22.0,16.0,18.0,17.0,21.0,,,-28.0,254.4,,0.7,1.0,4.998,,,0.653,0.817,0.0,14.8,,,,,,2025-11-22-N890GF-SN35347-17.3.0.19825-USER_LOG_DATA.csv,,,,,,,66.2,59.0,,,,,60.8,64.4,60.8,71.6,60.8,64.4,62.6,69.8,,,58.64,0.0,61.25,0.925226586102719,0.891238670694864,0.0,0.0,350.6,True,2025-11-22 21:05:14 - Flight 8,
5.31,1.0,10.0,2025-11-22 21:05:14,37.08157,-121.59958,347.0,0.0,136.4,-12.6,,,,,0.0,10.8,-0.7,49.7,0.0,198.0,0.0,-0.01,1.0,,-85.0,19.0,0.0,30.07,747.0,,,323.0,,,,,0.0,0.0,,,,,,,,,,,,,,,,,,,0.0,15.0,0.0,0.0,30.1,0.0,,0.0,0.7,,,40.0,0.0,0.0,-0.6,0.1,0.0,,,,,16.0,18.0,16.0,22.0,16.0,18.0,17.0,21.0,,,-28.0,254.4,,0.7,1.0,4.998,,,0.653,0.817,0.0,14.8,,,,,,2025-11-22-N890GF-SN35347-17.3.0.19825-USER_LOG_DATA.csv,,,,,,,66.2,59.0,,,,,60.8,64.4,60.8,71.6,60.8,64.4,62.6,69.8,,,58.64,0.0,61.25,0.925226586102719,0.891238670694864,0.0,0.0,350.6,True,2025-11-22 21:05:14 - Flight 8,
5.56,1.0,10.0,2025-11-22 21:05:14,37.08154,-121.5996,358.0,0.0,136.4,-12.6,,,,,0.0,10.8,-0.7,49.7,0.0,198.0,0.0,-0.01,1.0,,-74.0,19.0,0.0,30.07,747.0,,,323.0,,,,,0.0,0.0,,,,,,,,,,,,,,,,,,,0.0,15.0,0.0,0.0,30.1,0.0,,0.0,0.7,,,40.0,0.0,0.0,-0.6,0.1,0.0,,,,,16.0,18.0,16.0,22.0,16.0,18.0,17.0,21.0,,,-29.0,254.4,,0.7,1.0,4.998,,,0.653,0.817,0.0,14.8,,,,,,2025-11-22-N890GF-SN35347-17.3.0.19825-USER_LOG_DATA.csv,,,,,,,66.2,59.0,,,,,60.8,64.4,60.8,71.6,60.8,64.4,62.6,69.8,,,58.64,0.0,61.25,0.925226586102719,0.891238670694864,0.0,0.0,350.6,True,2025-11-22 21:05:14 - Flight 8,
5.81,1.0,10.0,2025-11-22 21:05:15,37.08154,-121.5996,358.0,0.0,136.4,-12.6,,,,,0.0,10.8,-0.7,49.7,0.0,198.0,0.0,-0.01,1.0,,-54.0,19.0,0.0,30.07,747.0,,,323.0,,,,,0.0,0.0,,,,,,,,,,,,,,,,,,,0.0,15.0,0.0,0.0,30.1,0.0,,0.0,0.7,,,40.0,0.0,0.0,-0.6,0.1,0.0,,,,,16.0,18.0,16.0,22.0,16.0,18.0,16.0,21.0,,,-28.0,254.4,,0.7,1.0,4.998,,,0.653,0.817,0.0,14.8,,,,,,2025-11-22-N890GF-SN35347-17.3.0.19825-USER_LOG_DATA.csv,,,,,,,66.2,59.0,,,,,60.8,64.4,60.8,71.6,60.8,64.4,60.8,69.8,,,58.64,0.0,60.8,0.9184290030211479,0.891238670694864,0.0,0.0,350.6,True,2025-11-22 21:05:14 - Flight 8,
6.06,1.0,10.0,2025-11-22 21:05:15,37.08154,-121.5996,358.0,0.0,136.4,-12.6,,,,,0.0,10.8,-0.7,49.7,0.0,198.0,0.0,-0.01,1.0,,-62.0,19.0,0.0,30.07,747.0,,,323.0,,,,,0.0,0.0,,,,,,,,,,,,,,,,,,,0.0,15.0,0.0,0.0,30.1,0.0,,0.0,0.7,,,40.0,0.0,0.0,-0.6,0.1,0.0,,,,,16.0,18.0,16.0,22.0,16.0,18.0,17.0,21.0,,,-28.0,254.4,,0.7,1.0,4.998,,,0.653,0.817,0.0,14.8,,,,,,2025-11-22-N890GF-SN35347-17.3.0.19825-USER_LOG_DATA.csv,,,,,,,66.2,59.0,,,,,60.8,64.4,60.8,71.6,60.8,64.4,62.6,69.8,,,58.64,0.0,61.25,0.925226586102719,0.891238670694864,0.0,0.0,350.6,True,2025-11-22 21:05:14 - Flight 8,
6.31,1.0,10.0,2025-11-22 21:05:15,37.08155,-121.5996,328.0,0.0,136.4,-12.6,,,,,0.0,10.9,-0.8,49.7,0.0,198.0,0.0,-0.01,1.0,,-62.0,19.0,0.0,30.07,747.0,,,323.0,,,,,0.0,0.0,,,,,,,,,,,,,,,,,,,0.0,15.0,0.0,0.0,30.1,0.0,,0.0,0.7,,,40.0,0.0,0.0,-0.6,0.1,0.0,,,,,16.0,18.0,16.0,22.0,16.0,18.0,16.0,21.0,,,-28.0,254.4,,0.7,1.0,4.998,,,0.653,0.817,0.0,14.8,,,,,,2025-11-22-N890GF-SN35347-17.3.0.19825-USER_LOG_DATA.csv,,,,,,,66.2,59.0,,,,,60.8,64.4,60.8,71.6,60.8,64.4,60.8,69.8,,,58.64,0.0,60.8,0.9184290030211479,0.891238670694864,0.0,0.0,350.6,True,2025-11-22 21:05:14 - Flight 8,
6.56,1.0,10.0,2025-11-22 21:05:15,37.08155,-121.5996,328.0,0.0,136.4,-12.6,,,,,0.0,10.9,-0.8,49.7,0.0,197.0,0.1,-0.01,1.0,,-60.0,19.0,0.0,30.07,745.0,,,323.0,,,,,0.0,0.0,,,,,,,,,,,,,,,,,,,0.0,15.0,0.0,0.0,30.1,0.0,,0.0,0.7,,,40.0,0.0,0.0,-0.6,0.1,0.0,,,,,16.0,18.0,16.0,22.0,16.0,18.0,17.0,21.0,,,-29.0,254.4,,0.7,1.0,4.998,,,0.653,0.817,0.0,14.8,,,,,,2025-11-22-N890GF-SN35347-17.3.0.19825-USER_LOG_DATA.csv,,,,,,,66.2,59.0,,,,,60.8,64.4,60.8,71.6,60.8,64.4,62.6,69.8,,,58.64,0.0,61.25,0.925226586102719,0.891238670694864,0.0,0.0,350.6,True,2025-11-22 21:05:14 - Flight 8,
6.81,1.0,10.0,2025-11-22 21:05:16,37.08155,-121.5996,328.0,0.0,136.4,-12.6,,,,,0.0,10.9,-0.8,49.7,0.0,197.0,0.1,-0.01,1.0,,-77.0,19.0,0.0,30.07,745.0,,,323.0,,,,,0.0,0.0,,,,,,,,,,,,,,,,,,,0.0,15.0,0.0,0.0,30.1,0.0,,0.0,0.7,,,40.0,0.0,0.0,-0.6,0.1,0.0,,,,,16.0,18.0,16.0,22.0,16.0,18.0,17.0,21.0,,,-28.0,254.4,,0.7,1.0,4.998,,,0.653,0.817,0.0,14.8,,,,,,2025-11-22-N890GF-SN35347-17.3.0.19825-USER_LOG_DATA.csv,,,,,,,66.2,59.0,,,,,60.8,64.4,60.8,71.6,60.8,64.4,62.6,69.8,,,58.64,0.0,61.25,0.925226586102719,0.891238670694864,0.0,0.0,350.6,True,2025-11-22 21:05:14 - Flight 8,
7.06,1.0,10.0,2025-11-22 21:05:16,37.08155,-121.5996,327.0,0.0,136.4,-12.6,,,,,0.0,10.9,-0.8,49.7,0.0,196.0,0.1,-0.01,1.0,,-82.0,19.0,0.0,30.07,745.0,,,323.0,,,,,0.0,0.0,,,,,,,,,,,,,,,,,,,0.0,15.0,0.0,0.0,30.1,0.0,,0.0,0.7,,,40.0,0.0,0.0,-0.6,0.1,0.0,,,,,16.0,18.0,16.0,22.0,16.0,18.0,17.0,21.0,,,-28.0,254.4,,0.7,1.0,4.998,,,0.653,0.817,0.0,14.8,,,,,,2025-11-22-N890GF-SN35347-17.3.0.19825-USER_LOG_DATA.csv,,,,,,,66.2,59.0,,,,,60.8,64.4,60.8,71.6,60.8,64.4,62.6,69.8,,,58.64,0.0,61.25,0.925226586102719,0.891238670694864,0.0,0.0,350.6,True,2025-11-22 21:05:14 - Flight 8,
7.31,1.0,10.0,2025-11-22 21:05:16,37.08155,-121.5996,327.0,0.0,136.4,-12.6,,,,,0.0,10.9,-0.8,49.6,0.0,194.0,0.0,-0.01,1.0,,-113.0,19.0,0.0,30.07,745.0,,,323.0,,,,,0.0,0.0,,,,,,,,,,,,,,,,,,,0.0,15.0,0.0,0.0,30.1,0.0,,0.0,0.7,,,40.0,0.0,0.0,-0.6,0.1,0.0,,,,,16.0,18.0,16.0,22.0,16.0,18.0,17.0,21.0,,,-28.0,254.4,,0.7,1.0,4.998,,,0.653,0.817,0.0,14.8,,,,,,2025-11-22-N890GF-SN35347-17.3.0.19825-USER_LOG_DATA.csv,,,,,,,66.2,59.0,,,,,60.8,64.4,60.8,71.6,60.8,64.4,62.6,69.8,,,58.64,0.0,61.25,0.925226586102719,0.891238670694864,0.0,0.0,350.6,True,2025-11-22 21:05:14 - Flight 8,
7.56,1.0,10.0,2025-11-22 21:05:16,37.08155,-121.5996,327.0,0.0,136.4,-12.6,,,,,0.0,10.9,-0.8,49.6,0.0,194.0,0.0,-0.01,1.0,,-105.0,19.0,0.0,30.07,745.0,,,323.0,,,,,0.0,0.0,,,,,,,,,,,,,,,,,,,0.0,15.0,0.0,0.0,30.1,0.0,,0.0,0.7,,,40.0,0.0,0.0,-0.6,0.1,0.0,,,,,16.0,18.0,16.0,22.0,16.0,18.0,17.0,21.0,,,-29.0,254.4,,0.7,1.0,4.998,,,0.653,0.815,0.0,14.8,,,,,,2025-11-22-N890GF-SN35347-17.3.0.19825-USER_LOG_DATA.csv,,,,,,,66.2,59.0,,,,,60.8,64.4,60.8,71.6,60.8,64.4,62.6,69.8,,,58.64,0.0,61.25,0.925226586102719,0.891238670694864,0.0,0.0,350.6,True,2025-11-22 21:05:14 - Flight 8,
7.81,1.0,10.0,2025-11-22 21:05:17,37.08155,-121.5996,327.0,0.0,136.4,-12.6,,,,,0.0,10.9,-0.8,49.6,0.0,194.0,0.0,-0.01,1.0,,-117.0,19.0,0.0,30.07,745.0,,,323.0,,,,,0.0,0.0,,,,,,,,,,,,,,,,,,,0.0,15.0,0.0,0.0,30.1,0.0,,0.0,0.7,,,40.0,0.0,0.0,-0.6,0.1,0.0,,,,,16.0,18.0,16.0,22.0,16.0,18.0,17.0,21.0,,,-29.0,254.4,,0.7,1.0,4.998,,,0.653,0.815,0.0,14.8,,,,,,2025-11-22-N890GF-SN35347-17.3.0.19825-USER_LOG_DATA.csv,,,,,,,66.2,59.0,,,,,60.8,64.4,60.8,71.6,60.8,64.4,62.6,69.8,,,58.64,0.0,61.25,0.925226586102719,0.891238670694864,0.0,0.0,350.6,True,2025-11-22 21:05:14 - Flight 8,
8.06,1.0,10.0,2025-11-22 21:05:17,37.08155,-121.5996,327.0,0.0,136.4,-12.6,,,,,0.0,10.9,-0.8,49.6,0.0,193.0,0.0,-0.01,1.0,,-101.0,19.0,0.0,30.07,745.0,,,323.0,,,,,0.0,0.0,,,,,,,,,,,,,,,,,,,0.0,15.0,0.0,0.0,30.1,0.0,,0.0,0.7,,,40.0,0.0,0.0,-0.6,0.1,0.0,,,,,16.0,18.0,16.0,22.0,16.0,18.0,17.0,21.0,,,-29.0,254.4,,0.7,1.0,4.998,,,0.653,0.817,0.0,14.8,,,,,,2025-11-22-N890GF-SN35347-17.3.0.19825-USER_LOG_DATA.csv,,,,,,,66.2,59.0,,,,,60.8,64.4,60.8,71.6,60.8,64.4,62.6,69.8,,,58.64,0.0,61.25,0.925226586102719,0.891238670694864,0.0,0.0,350.6,True,2025-11-22 21:05:14 - Flight 8,
8.31,1.0,10.0,2025-11-22 21:05:17,37.08155,-121.5996,327.0,0.0,136.4,-12.6,,,,,0.0,10.9,-0.8,49.6,0.0,193.0,0.0,-0.01,1.0,,-111.0,19.0,0.0,30.07,745.0,,,323.0,,,,,0.0,0.0,,,,,,,,,,,,,,,,,,,0.0,15.0,0.0,0.0,30.1,0.0,,0.0,0.7,,,40.0,0.0,0.0,-0.6,0.1,0.0,,,,,16.0,18.0,16.0,22.0,16.0,18.0,17.0,21.0,,,-29.0,254.4,,0.7,1.0,4.998,,,0.653,0.817,0.0,14.8,,,,,,2025-11-22-N890GF-SN35347-17.3.0.19825-USER_LOG_DATA.csv,,,,,,,66.2,59.0,,,,,60.8,64.4,60.8,71.6,60.8,64.4,62.6,69.8,,,58.64,0.0,61.25,0.925226586102719,0.891238670694864,0.0,0.0,350.6,True,2025-11-22 21:05:14 - Flight 8,
8.56,1.0,10.0,2025-11-22 21:05:17,37.08155,-121.5996,327.0,0.0,136.4,-12.6,,,,,0.0,10.9,-0.8,49.6,0.0,192.0,0.0,-0.01,1.0,,-105.0,19.0,0.0,30.07,745.0,,,323.0,,,,,0.0,0.0,,,,,,,,,,,,,,,,,,,0.0,15.0,0.0,0.0,30.1,0.0,,0.0,0.7,,,40.0,0.0,0.0,-0.6,0.1,0.0,,,,,16.0,18.0,16.0,22.0,16.0,18.0,17.0,21.0,,,-29.0,254.4,,0.7,1.0,4.998,,,0.653,0.817,0.0,14.8,,,,,,2025-11-22-N890GF-SN35347-17.3.0.19825-USER_LOG_DATA.csv,,,,,,,66.2,59.0,,,,,60.8,64.4,60.8,71.6,60.8,64.4,62.6,69.8,,,58.64,0.0,61.25,0.925226586102719,0.891238670694864,0.0,0.0,350.6,True,2025-11-22 21:05:14 - Flight 8,
8.81,1.0,10.0,2025-11-22 21:05:18,37.08155,-121.5996,327.0,0.0,136.4,-12.6,,,,,0.0,10.9,-0.8,49.6,0.0,192.0,0.0,-0.01,1.0,,-88.0,19.0,0.0,30.07,745.0,,,323.0,,,,,0.0,0.0,,,,,,,,,,,,,,,,,,,0.0,15.0,0.0,0.0,30.1,0.0,,0.0,0.7,,,40.0,0.0,0.0,-0.6,0.1,0.0,,,,,16.0,18.0,16.0,22.0,16.0,18.0,17.0,21.0,,,-27.0,254.4,,0.7,1.0,4.998,,,0.653,0.817,0.0,14.8,,,,,,2025-11-22-N890GF-SN35347-17.3.0.19825-USER_LOG_DATA.csv,,,,,,,66.2,59.0,,,,,60.8,64.4,60.8,71.6,60.8,64.4,62.6,69.8,,,58.64,0.0,61.25,0.925226586102719,0.891238670694864,0.0,0.0,350.6,True,2025-11-22 21:05:14 - Flight 8,
9.06,1.0,10.0,2025-11-22 21:05:18,37.08155,-121.5996,327.0,0.0,136.4,-12.6,,,,,0.0,10.9,-0.8,49.6,0.0,192.0,0.0,-0.01,1.0,,-93.0,19.0,0.0,30.07,745.0,,,323.0,,,,,0.0,0.0,,,,,,,,,,,,,,,,,,,0.0,15.0,0.0,0.0,30.1,0.0,,0.0,0.7,,,40.0,0.0,0.0,-0.6,0.1,0.0,,,,,16.0,18.0,16.0,22.0,16.0,18.0,17.0,21.0,,,-27.0,254.4,,0.7,1.0,4.998,,,0.653,0.817,0.0,14.8,,,,,,2025-11-22-N890GF-SN35347-17.3.0.19825-USER_LOG_DATA.csv,,,,,,,66.2,59.0,,,,,60.8,64.4,60.8,71.6,60.8,64.4,62.6,69.8,,,58.64,0.0,61.25,0.925226586102719,0.891238670694864,0.0,0.0,350.6,True,2025-11-22 21:05:14 - Flight 8,
9.31,1.0,10.0,2025-11-22 21:05:18,37.08155,-121.5996,326.0,0.0,136.4,-12.6,,,,,0.0,10.9,-0.8,49.6,0.0,192.0,0.0,-0.01,1.0,,-86.0,19.0,0.0,30.07,745.0,,,323.0,,,,,0.0,0.0,,,,,,,,,,,,,,,,,,,0.0,15.0,0.0,0.0,30.1,0.0,,0.0,0.7,,,40.0,0.0,0.0,-0.6,0.1,0.0,,,,,16.0,18.0,16.0,22.0,16.0,18.0,17.0,21.0,,,-27.0,254.4,,0.7,1.0,4.998,,,0.653,0.817,0.0,14.8,,,,,,2025-11-22-N890GF-SN35347-17.3.0.19825-USER_LOG_DATA.csv,,,,,,,66.2,59.0,,,,,60.8,64.4,60.8,71.6,60.8,64.4,62.6,69.8,,,58.64,0.0,61.25,0.925226586102719,0.891238670694864,0.0,0.0,350.6,True,2025-11-22 21:05:14 - Flight 8,
9.56,1.0,10.0,2025-11-22 21:05:18,37.08155,-121.5996,326.0,0.0,136.4,-12.6,,,,,0.0,10.9,-0.8,49.6,0.0,191.0,0.0,-0.01,1.0,,-71.0,19.0,0.0,30.07,738.0,,,323.0,,,,,0.0,0.0,,,,,,,,,,,,,,,,,,,0.0,15.0,0.0,0.0,30.1,0.0,,0.0,0.7,,,40.0,0.0,0.0,-0.6,0.1,0.0,,,,,16.0,18.0,16.0,22.0,16.0,18.0,17.0,21.0,,,-27.0,254.4,,0.7,1.0,4.998,,,0.653,0.817,0.0,14.8,,,,,,2025-11-22-N890GF-SN35347-17.3.0.19825-USER_LOG_DATA.csv,,,,,,,66.2,59.0,,,,,60.8,64.4,60.8,71.6,60.8,64.4,62.6,69.8,,,58.64,0.0,61.25,0.925226586102719,0.891238670694864,0.0,0.0,350.6,True,2025-11-22 21:05:14 - Flight 8,
9.81,1.0,10.0,2025-11-22 21:05:19,37.08155,-121.5996,326.0,0.0,136.4,-12.6,,,,,0.0,10.9,-0.7,49.6,0.0,191.0,0.0,-0.01,1.0,,-83.0,19.0,0.0,30.07,738.0,,,323.0,,,,,0.0,0.0,,,,,,,,,,,,,,,,,,,0.0,15.0,0.0,0.0,30.1,0.0,,0.0,0.7,,,40.0,0.0,0.0,-0.6,0.1,0.0,,,,,16.0,18.0,16.0,22.0,16.0,18.0,17.0,21.0,,,-27.0,254.4,,0.7,1.0,4.998,,,0.653,0.817,0.0,14.8,,,,,,2025-11-22-N890GF-SN35347-17.3.0.19825-USER_LOG_DATA.csv,,,,,,,66.2,59.0,,,,,60.8,64.4,60.8,71.6,60.8,64.4,62.6,69.8,,,58.64,0.0,61.25,0.925226586102719,0.891238670694864,0.0,0.0,350.6,True,2025-11-22 21:05:14 - Flight 8,
10.06,1.0,10.0,2025-11-22 21:05:19,37.08154,-121.5996,326.0,0.0,136.4,-12.6,,,,,0.0,10.9,-0.7,49.6,0.0,191.0,0.0,-0.01,1.0,,-86.0,19.0,0.0,30.07,739.0,,,323.0,,,,,0.0,0.0,,,,,,,,,,,,,,,,,,,0.0,15.0,0.0,0.0,30.1,0.0,,0.0,0.7,,,40.0,0.0,0.0,-0.6,0.1,0.0,,,,,16.0,18.0,16.0,22.0,16.0,18.0,17.0,21.0,,,-27.0,254.4,,0.7,1.0,4.998,,,0.653,0.817,0.0,14.8,,,,,,2025-11-22-N890GF-SN35347-17.3.0.19825-USER_LOG_DATA.csv,,,,,,,66.2,59.0,,,,,60.8,64.4,60.8,71.6,60.8,64.4,62.6,69.8,,,58.64,0.0,61.25,0.925226586102719,0.891238670694864,0.0,0.0,350.6,True,2025-11-22 21:05:14 - Flight 8,
10.31,1.0,10.0,2025-11-22 21:05:19,37.08154,-121.5996,325.0,0.0,136.4,-12.6,,,,,0.0,10.9,-0.7,49.6,0.0,190.0,0.0,-0.01,1.0,,-84.0,19.0,0.0,30.07,739.0,,,323.0,,,,,0.0,0.0,,,,,,,,,,,,,,,,,,,0.0,15.0,0.0,0.0,30.1,0.0,,0.0,0.7,,,40.0,0.0,0.0,-0.6,0.1,0.0,,,,,16.0,18.0,16.0,22.0,16.0,18.0,17.0,21.0,,,-27.0,254.4,,0.7,1.0,4.998,,,0.653,0.815,0.0,14.8,,,,,,2025-11-22-N890GF-SN35347-17.3.0.19825-USER_LOG_DATA.csv,,,,,,,66.2,59.0,,,,,60.8,64.4,60.8,71.6,60.8,64.4,62.6,69.8,,,58.64,0.0,61.25,0.925226586102719,0.891238670694864,0.0,0.0,350.6,True,2025-11-22 21:05:14 - Flight 8,
10.56,1.0,10.0,2025-11-22 21:05:19,37.08154,-121.5996,325.0,0.0,136.4,-12.6,,,,,0.0,10.9,-0.7,49.5,0.0,190.0,0.0,-0.01,1.0,,-90.0,19.0,0.0,30.07,739.0,,,323.0,,,,,0.0,0.0,,,,,,,,,,,,,,,,,,,0.0,15.0,0.0,0.0,30.1,0.0,,0.0,0.7,,,40.0,0.0,0.0,-0.6,0.1,0.0,,,,,16.0,18.0,16.0,22.0,16.0,18.0,17.0,21.0,,,-26.0,254.4,,0.7,1.0,4.998,,,0.653,0.817,0.0,14.8,,,,,,2025-11-22-N890GF-SN35347-17.3.0.19825-USER_LOG_DATA.csv,,,,,,,66.2,59.0,,,,,60.8,64.4,60.8,71.6,60.8,64.4,62.6,69.8,,,58.64,0.0,61.25,0.925226586102719,0.891238670694864,0.0,0.0,350.6,True,2025-11-22 21:05:14 - Flight 8,
10.81,1.0,10.0,2025-11-22 21:05:20,37.08154,-121.5996,325.0,0.0,136.4,-12.6,,,,,0.0,10.9,-0.8,49.5,0.0,189.0,0.0,-0.01,1.0,,-104.0,19.0,0.0,30.07,739.0,,,323.0,,,,,0.0,0.0,,,,,,,,,,,,,,,,,,,0.0,15.0,0.0,0.0,30.1,0.0,,0.0,0.7,,,40.0,0.0,0.0,-0.6,0.1,0.0,,,,,16.0,18.0,16.0,22.0,16.0,18.0,17.0,21.0,,,-26.0,254.4,,0.7,1.0,4.998,,,0.653,0.817,0.0,14.8,,,,,,2025-11-22-N890GF-SN35347-17.3.0.19825-USER_LOG_DATA.csv,,,,,,,66.2,59.0,,,,,60.8,64.4,60.8,71.6,60.8,64.4,62.6,69.8,,,58.64,0.0,61.25,0.925226586102719,0.891238670694864,0.0,0.0,350.6,True,2025-11-22 21:05:14 - Flight 8,
11.06,1.0,10.0,2025-11-22 21:05:20,37.08154,-121.5996,325.0,0.0,136.4,-12.6,,,,,0.0,10.9,-0.8,49.5,0.0,189.0,0.0,-0.01,1.0,,-99.0,19.0,0.0,30.07,739.0,,,323.0,,,,,0.0,0.0,,,,,,,,,,,,,,,,,,,0.0,15.0,0.0,0.0,30.1,0.0,,0.0,0.7,,,40.0,0.0,0.0,-0.6,0.1,0.0,,,,,16.0,18.0,16.0,22.0,16.0,18.0,17.0,21.0,,,-26.0,254.4,,0.7,1.0,4.998,,,0.653,0.817,0.0,14.8,,,,,,2025-11-22-N890GF-SN35347-17.3.0.19825-USER_LOG_DATA.csv,,,,,,,66.2,59.0,,,,,60.8,64.4,60.8,71.6,60.8,64.4,62.6,69.8,,,58.64,0.0,61.25,0.925226586102719,0.891238670694864,0.0,0.0,350.6,True,2025-11-22 21:05:14 - Flight 8,
11.31,1.0,10.0,2025-11-22 21:05:20,37.08154,-121.5996,325.0,0.0,136.4,-12.6,,,,,0.0,10.9,-0.8,49.5,0.0,188.0,0.0,-0.01,1.0,,-118.0,19.0,0.0,30.07,739.0,,,323.0,,,,,0.0,0.0,,,,,,,,,,,,,,,,,,,0.0,15.0,0.0,0.0,30.1,0.0,,0.0,0.7,,,40.0,0.0,0.0,-0.6,0.1,0.0,,,,,16.0,18.0,16.0,22.0,16.0,18.0,17.0,21.0,,,-26.0,254.4,,0.7,1.0,4.998,,,0.653,0.817,0.0,14.8,,,,,,2025-11-22-N890GF-SN35347-17.3.0.19825-USER_LOG_DATA.csv,,,,,,,66.2,59.0,,,,,60.8,64.4,60.8,71.6,60.8,64.4,62.6,69.8,,,58.64,0.0,61.25,0.925226586102719,0.891238670694864,0.0,0.0,350.6,True,2025-11-22 21:05:14 - Flight 8,
11.56,1.0,10.0,2025-11-22 21:05:20,37.08154,-121.5996,324.0,0.0,136.4,-12.6,,,,,0.0,10.9,-0.8,49.5,0.0,188.0,0.0,-0.01,1.0,,-98.0,19.0,0.0,30.07,739.0,,,323.0,,,,,0.0,0.0,,,,,,,,,,,,,,,,,,,0.0,15.0,0.0,0.0,30.1,0.0,,0.0,0.7,,,40.0,0.0,0.0,-0.6,0.1,0.0,,,,,16.0,18.0,16.0,22.0,16.0,18.0,17.0,21.0,,,-26.0,254.4,,0.7,1.0,4.998,,,0.653,0.817,0.0,14.8,,,,,,2025-11-22-N890GF-SN35347-17.3.0.19825-USER_LOG_DATA.csv,,,,,,,66.2,59.0,,,,,60.8,64.4,60.8,71.6,60.8,64.4,62.6,69.8,,,58.64,0.0,61.25,0.925226586102719,0.891238670694864,0.0,0.0,350.6,True,2025-11-22 21:05:14 - Flight 8,
11.81,1.0,10.0,2025-11-22 21:05:21,37.08154,-121.5996,324.0,0.0,136.4,-12.6,,,,,0.0,10.9,-0.8,49.5,0.0,187.0,0.0,-0.01,1.0,,-114.0,19.0,0.0,30.07,739.0,,,323.0,,,,,0.0,0.0,,,,,,,,,,,,,,,,,,,0.0,15.0,0.0,0.0,30.1,0.0,,0.0,0.7,,,40.0,0.0,0.0,-0.6,0.1,0.0,,,,,16.0,18.0,16.0,22.0,16.0,18.0,17.0,21.0,,,-26.0,254.4,,0.7,1.0,4.998,,,0.653,0.817,0.0,14.8,,,,,,2025-11-22-N890GF-SN35347-17.3.0.19825-USER_LOG_DATA.csv,,,,,,,66.2,59.0,,,,,60.8,64.4,60.8,71.6,60.8,64.4,62.6,69.8,,,58.64,0.0,61.25,0.925226586102719,0.891238670694864,0.0,0.0,350.6,True,2025-11-22 21:05:14 - Flight 8,
12.06,1.0,10.0,2025-11-22 21:05:21,37.08154,-121.5996,324.0,0.0,136.4,-12.6,,,,,0.0,10.9,-0.8,49.5,0.0,186.0,0.0,-0.01,1.0,,-117.0,19.0,0.0,30.07,739.0,,,323.0,,,,,0.0,0.0,,,,,,,,,,,,,,,,,,,0.0,15.0,0.0,0.0,30.1,0.0,,0.0,0.7,,,40.0,0.0,0.0,-0.6,0.1,0.0,,,,,16.0,18.0,16.0,22.0,16.0,18.0,17.0,21.0,,,-26.0,254.4,,0.7,1.0,4.998,,,0.653,0.817,0.0,14.8,,,,,,2025-11-22-N890GF-SN35347-17.3.0.19825-USER_LOG_DATA.csv,,,,,,,66.2,59.0,,,,,60.8,64.4,60.8,71.6,60.8,64.4,62.6,69.8,,,58.64,0.0,61.25,0.925226586102719,0.891238670694864,0.0,0.0,350.6,True,2025-11-22 21:05:14 - Flight 8,
12.31,1.0,10.0,2025-11-22 21:05:21,37.08154,-121.5996,324.0,0.0,136.4,-12.6,,,,,0.0,10.9,-0.8,49.6,0.0,186.0,0.0,-0.01,1.0,,-120.0,19.0,0.0,30.07,739.0,,,323.0,,,,,0.0,0.0,,,,,,,,,,,,,,,,,,,0.0,15.0,0.0,0.0,30.1,0.0,,0.0,0.7,,,40.0,0.0,0.0,-0.6,0.1,0.0,,,,,16.0,18.0,16.0,22.0,16.0,18.0,17.0,21.0,,,-27.0,254.4,,0.7,1.0,4.998,,,0.653,0.817,0.0,14.8,,,,,,2025-11-22-N890GF-SN35347-17.3.0.19825-USER_LOG_DATA.csv,,,,,,,66.2,59.0,,,,,60.8,64.4,60.8,71.6,60.8,64.4,62.6,69.8,,,58.64,0.0,61.25,0.925226586102719,0.891238670694864,0.0,0.0,350.6,True,2025-11-22 21:05:14 - Flight 8,
12.56,1.0,10.0,2025-11-22 21:05:21,37.08154,-121.5996,323.0,0.0,136.4,-12.6,,,,,0.0,10.9,-0.8,49.6,0.0,185.0,0.0,-0.01,1.0,,-117.0,19.0,0.0,30.07,739.0,,,323.0,,,,,0.0,0.0,,,,,,,,,,,,,,,,,,,0.0,15.0,0.0,0.0,30.1,0.0,,0.0,0.7,,,40.0,0.0,0.0,-0.6,0.1,0.0,,,,,16.0,18.0,16.0,22.0,16.0,18.0,17.0,21.0,,,-26.0,254.4,,0.7,1.0,4.998,,,0.653,0.817,0.0,14.8,,,,,,2025-11-22-N890GF-SN35347-17.3.0.19825-USER_LOG_DATA.csv,,,,,,,66.2,59.0,,,,,60.8,64.4,60.8,71.6,60.8,64.4,62.6,69.8,,,58.64,0.0,61.25,0.925226586102719,0.891238670694864,0.0,0.0,350.6,True,2025-11-22 21:05:14 - Flight 8,
12.81,1.0,10.0,2025-11-22 21:05:22,37.08154,-121.5996,323.0,0.0,136.4,-12.6,,,,,0.0,10.9,-0.7,49.6,0.0,185.0,0.0,-0.01,1.0,,-111.0,19.0,0.0,30.07,739.0,,,323.0,,,,,0.0,0.0,,,,,,,,,,,,,,,,,,,0.0,15.0,0.0,0.0,30.1,0.0,,0.0,0.7,,,40.0,0.0,0.0,-0.6,0.1,0.0,,,,,16.0,18.0,16.0,22.0,16.0,18.0,17.0,21.0,,,-27.0,254.4,,0.7,1.0,4.998,,,0.653,0.817,0.0,14.8,,,,,,2025-11-22-N890GF-SN35347-17.3.0.19825-USER_LOG_DATA.csv,,,,,,,66.2,59.0,,,,,60.8,64.4,60.8,71.6,60.8,64.4,62.6,69.8,,,58.64,0.0,61.25,0.925226586102719,0.891238670694864,0.0,0.0,350.6,True,2025-11-22 21:05:14 - Flight 8,
13.06,1.0,10.0,2025-11-22 21:05:22,37.08154,-121.5996,322.0,0.0,136.4,-12.6,,,,,0.0,10.9,-0.7,49.5,0.0,185.0,0.0,-0.01,1.0,,-122.0,19.0,0.0,30.07,730.0,,,323.0,,,,,0.0,0.0,,,,,,,,,,,,,,,,,,,0.0,15.0,0.0,0.0,30.1,0.0,,0.0,0.7,,,40.0,0.0,0.0,-0.6,0.1,0.0,,,,,16.0,18.0,16.0,22.0,16.0,18.0,17.0,21.0,,,-27.0,254.4,,0.7,1.0,4.998,,,0.653,0.817,0.0,14.8,,,,,,2025-11-22-N890GF-SN35347-17.3.0.19825-USER_LOG_DATA.csv,,,,,,,66.2,59.0,,,,,60.8,64.4,60.8,71.6,60.8,64.4,62.6,69.8,,,58.64,0.0,61.25,0.925226586102719,0.891238670694864,0.0,0.0,350.6,True,2025-11-22 21:05:14 - Flight 8,
13.31,1.0,10.0,2025-11-22 21:05:22,37.08154,-121.5996,322.0,0.0,136.4,-12.6,,,,,0.0,10.9,-0.7,49.6,0.0,184.0,0.0,-0.01,1.0,,-129.0,19.0,0.0,30.07,731.0,,,323.0,,,,,0.0,0.0,,,,,,,,,,,,,,,,,,,0.0,15.0,0.0,0.0,30.1,0.0,,0.0,0.7,,,40.0,0.0,0.0,-0.6,0.1,0.0,,,,,16.0,18.0,16.0,22.0,16.0,18.0,17.0,21.0,,,-27.0,254.4,,0.7,1.0,4.998,,,0.653,0.817,0.0,14.8,,,,,,2025-11-22-N890GF-SN35347-17.3.0.19825-USER_LOG_DATA.csv,,,,,,,66.2,59.0,,,,,60.8,64.4,60.8,71.6,60.8,64.4,62.6,69.8,,,58.64,0.0,61.25,0.925226586102719,0.891238670694864,0.0,0.0,350.6,True,2025-11-22 21:05:14 - Flight 8,
13.56,1.0,10.0,2025-11-22 21:05:22,37.08155,-121.5996,321.0,0.0,136.4,-12.6,,,,,0.0,10.9,-0.7,49.5,0.0,184.0,0.0,-0.01,1.0,,-104.0,19.0,0.0,30.07,731.0,,,323.0,,,,,0.0,0.0,,,,,,,,,,,,,,,,,,,0.0,15.0,0.0,0.0,30.1,0.0,,0.0,0.7,,,40.0,0.0,0.0,-0.6,0.1,0.0,,,,,16.0,18.0,16.0,22.0,16.0,18.0,17.0,21.0,,,-27.0,254.4,,0.7,1.0,4.998,,,0.653,0.817,0.0,14.8,,,,,,2025-11-22-N890GF-SN35347-17.3.0.19825-USER_LOG_DATA.csv,,,,,,,66.2,59.0,,,,,60.8,64.4,60.8,71.6,60.8,64.4,62.6,69.8,,,58.64,0.0,61.25,0.925226586102719,0.891238670694864,0.0,0.0,350.6,True,2025-11-22 21:05:14 - Flight 8,
13.81,1.0,10.0,2025-11-22 21:05:23,37.08155,-121.5996,321.0,0.0,136.4,-12.6,,,,,0.0,10.9,-0.8,49.5,0.0,184.0,0.0,-0.01,1.0,,-98.0,19.0,0.0,30.07,731.0,,,323.0,,,,,0.0,0.0,,,,,,,,,,,,,,,,,,,0.0,15.0,0.0,0.0,30.1,0.0,,0.0,0.7,,,40.0,0.0,0.0,-0.6,0.1,0.0,,,,,16.0,18.0,16.0,22.0,16.0,18.0,17.0,21.0,,,-26.0,254.4,,0.7,1.0,4.998,,,0.653,0.817,0.0,14.8,,,,,,2025-11-22-N890GF-SN35347-17.3.0.19825-USER_LOG_DATA.csv,,,,,,,66.2,59.0,,,,,60.8,64.4,60.8,71.6,60.8,64.4,62.6,69.8,,,58.64,0.0,61.25,0.925226586102719,0.891238670694864,0.0,0.0,350.6,True,2025-11-22 21:05:14 - Flight 8,
14.06,1.0,10.0,2025-11-22 21:05:23,37.08154,-121.5996,321.0,0.0,136.4,-12.6,,,,,0.0,10.9,-0.8,49.5,0.0,184.0,0.0,-0.01,1.0,,-89.0,19.0,0.0,30.07,731.0,,,323.0,,,,,0.0,0.0,,,,,,,,,,,,,,,,,,,0.0,15.0,0.0,0.0,30.1,0.0,,0.0,0.7,,,40.0,0.0,0.0,-0.6,0.1,0.0,,,,,16.0,18.0,16.0,22.0,16.0,18.0,17.0,21.0,,,-26.0,254.4,,0.7,1.0,4.998,,,0.653,0.817,0.0,14.8,,,,,,2025-11-22-N890GF-SN35347-17.3.0.19825-USER_LOG_DATA.csv,,,,,,,66.2,59.0,,,,,60.8,64.4,60.8,71.6,60.8,64.4,62.6,69.8,,,58.64,0.0,61.25,0.925226586102719,0.891238670694864,0.0,0.0,350.6,True,2025-11-22 21:05:14 - Flight 8,
14.31,1.0,10.0,2025-11-22 21:05:23,37.08155,-121.5996,320.0,0.0,136.4,-12.6,,,,,0.0,10.9,-0.8,49.5,0.0,183.0,-0.0,-0.01,1.0,,-112.0,19.0,0.0,30.07,731.0,,,323.0,,,,,0.0,0.0,,,,,,,,,,,,,,,,,,,0.0,15.0,0.0,0.0,30.1,0.0,,0.0,0.7,,,40.0,0.0,0.0,-0.6,0.1,0.0,,,,,16.0,18.0,16.0,22.0,16.0,18.0,17.0,21.0,,,-27.0,254.4,,0.7,1.0,4.998,,,0.653,0.817,0.0,14.8,,,,,,2025-11-22-N890GF-SN35347-17.3.0.19825-USER_LOG_DATA.csv,,,,,,,66.2,59.0,,,,,60.8,64.4,60.8,71.6,60.8,64.4,62.6,69.8,,,58.64,0.0,61.25,0.925226586102719,0.891238670694864,0.0,0.0,350.6,True,2025-11-22 21:05:14 - Flight 8,
14.56,1.0,10.0,2025-11-22 21:05:23,37.08155,-121.5996,319.0,0.0,136.4,-12.6,,,,,0.0,10.9,-0.8,49.5,0.0,182.0,0.0,-0.01,1.0,,-100.0,19.0,0.0,30.07,731.0,,,323.0,,,,,0.0,0.0,,,,,,,,,,,,,,,,,,,0.0,15.0,0.0,0.0,30.1,0.0,,0.0,0.7,,,40.0,0.0,0.0,-0.6,0.1,0.0,,,,,16.0,18.0,16.0,22.0,16.0,18.0,17.0,21.0,,,-27.0,254.4,,0.7,1.0,4.998,,,0.653,0.817,0.0,14.8,,,,,,2025-11-22-N890GF-SN35347-17.3.0.19825-USER_LOG_DATA.csv,,,,,,,66.2,59.0,,,,,60.8,64.4,60.8,71.6,60.8,64.4,62.6,69.8,,,58.64,0.0,61.25,0.925226586102719,0.891238670694864,0.0,0.0,350.6,True,2025-11-22 21:05:14 - Flight 8,
14.81,1.0,10.0,2025-11-22 21:05:24,37.08155,-121.5996,319.0,0.0,136.4,-12.6,,,,,0.0,10.9,-0.8,49.5,0.0,182.0,0.0,-0.01,1.0,,-97.0,19.0,0.0,30.07,731.0,,,323.0,,,,,0.0,0.0,,,,,,,,,,,,,,,,,,,0.0,15.0,0.0,0.0,30.1,0.0,,0.0,0.7,,,40.0,0.0,0.0,-0.6,0.1,0.0,,,,,16.0,18.0,16.0,22.0,16.0,18.0,17.0,21.0,,,-27.0,254.4,,0.7,1.0,4.998,,,0.653,0.817,0.0,14.8,,,,,,2025-11-22-N890GF-SN35347-17.3.0.19825-USER_LOG_DATA.csv,,,,,,,66.2,59.0,,,,,60.8,64.4,60.8,71.6,60.8,64.4,62.6,69.8,,,58.64,0.0,61.25,0.925226586102719,0.891238670694864,0.0,0.0,350.6,True,2025-11-22 21:05:14 - Flight 8,
15.06,1.0,10.0,2025-11-22 21:05:24,37.08155,-121.5996,318.0,0.0,136.4,-12.6,,,,,0.0,10.9,-0.8,49.6,0.0,182.0,0.0,-0.01,1.0,,-80.0,19.0,0.0,30.07,731.0,,,323.0,,,,,0.0,0.0,,,,,,,,,,,,,,,,,,,0.0,15.0,0.0,0.0,30.1,0.0,,0.0,0.7,,,40.0,0.0,0.0,-0.6,0.1,0.0,,,,,16.0,18.0,16.0,22.0,16.0,18.0,17.0,21.0,,,-27.0,254.4,,0.7,1.0,4.998,,,0.653,0.817,0.0,14.8,,,,,,2025-11-22-N890GF-SN35347-17.3.0.19825-USER_LOG_DATA.csv,,,,,,,66.2,59.0,,,,,60.8,64.4,60.8,71.6,60.8,64.4,62.6,69.8,,,58.64,0.0,61.25,0.925226586102719,0.891238670694864,0.0,0.0,350.6,True,2025-11-22 21:05:14 - Flight 8,
15.31,1.0,10.0,2025-11-22 21:05:24,37.08155,-121.5996,317.0,0.0,136.4,-12.6,,,,,0.0,10.9,-0.7,49.6,0.0,181.0,0.0,-0.01,1.0,,-94.0,19.0,0.0,30.07,731.0,,,323.0,,,,,0.0,0.0,,,,,,,,,,,,,,,,,,,0.0,15.0,0.0,0.0,30.1,0.0,,0.0,0.7,,,40.0,0.0,0.0,-0.6,0.1,0.0,,,,,16.0,18.0,16.0,22.0,16.0,18.0,17.0,21.0,,,-27.0,254.4,,0.7,1.0,4.998,,,0.653,0.817,0.0,14.8,,,,,,2025-11-22-N890GF-SN35347-17.3.0.19825-USER_LOG_DATA.csv,,,,,,,66.2,59.0,,,,,60.8,64.4,60.8,71.6,60.8,64.4,62.6,69.8,,,58.64,0.0,61.25,0.925226586102719,0.891238670694864,0.0,0.0,350.6,True,2025-11-22 21:05:14 - Flight 8,
15.56,1.0,10.0,2025-11-22 21:05:24,37.08155,-121.5996,316.0,0.0,136.4,-12.6,,,,,0.0,10.9,-0.7,49.5,0.0,181.0,0.0,-0.01,1.0,,-82.0,19.0,0.0,30.07,731.0,,,323.0,,,,,0.0,0.0,,,,,,,,,,,,,,,,,,,0.0,15.0,0.0,0.0,30.1,0.0,,0.0,0.7,,,40.0,0.0,0.0,-0.6,0.1,0.0,,,,,16.0,18.0,16.0,22.0,16.0,18.0,17.0,21.0,,,-27.0,254.4,,0.7,1.0,4.998,,,0.653,0.817,0.0,14.8,,,,,,2025-11-22-N890GF-SN35347-17.3.0.19825-USER_LOG_DATA.csv,,,,,,,66.2,59.0,,,,,60.8,64.4,60.8,71.6,60.8,64.4,62.6,69.8,,,58.64,0.0,61.25,0.925226586102719,0.891238670694864,0.0,0.0,350.6,True,2025-11-22 21:05:14 - Flight 8,
15.81,1.0,10.0,2025-11-22 21:05:25,37.08155,-121.5996,315.0,0.0,136.4,-12.6,,,,,0.0,10.9,-0.8,49.5,0.0,180.0,0.0,-0.01,1.0,,-107.0,19.0,0.0,30.07,731.0,,,323.0,,,,,0.0,0.0,,,,,,,,,,,,,,,,,,,0.0,15.0,0.0,0.0,30.1,0.0,,0.0,0.7,,,40.0,0.0,0.0,-0.6,0.1,0.0,,,,,16.0,18.0,16.0,22.0,16.0,18.0,17.0,21.0,,,-27.0,254.4,,0.7,1.0,4.998,,,0.653,0.817,0.0,14.8,,,,,,2025-11-22-N890GF-SN35347-17.3.0.19825-USER_LOG_DATA.csv,,,,,,,66.2,59.0,,,,,60.8,64.4,60.8,71.6,60.8,64.4,62.6,69.8,,,58.64,0.0,61.25,0.925226586102719,0.891238670694864,0.0,0.0,350.6,True,2025-11-22 21:05:14 - Flight 8,
16.06,1.0,10.0,2025-11-22 21:05:25,37.08155,-121.59961,315.0,0.0,136.4,-12.6,,,,,0.0,10.9,-0.8,49.5,0.0,180.0,0.0,-0.01,1.0,,-82.0,19.0,0.0,30.07,731.0,,,323.0,,,,,0.0,0.0,,,,,,,,,,,,,,,,,,,0.0,15.0,0.0,0.0,30.1,0.0,,0.0,0.7,,,40.0,0.0,0.0,-0.6,0.1,0.0,,,,,16.0,18.0,16.0,22.0,16.0,18.0,17.0,21.0,,,-27.0,254.4,,0.7,1.0,4.998,,,0.653,0.817,0.0,14.8,,,,,,2025-11-22-N890GF-SN35347-17.3.0.19825-USER_LOG_DATA.csv,,,,,,,66.2,59.0,,,,,60.8,64.4,60.8,71.6,60.8,64.4,62.6,69.8,,,58.64,0.0,61.25,0.925226586102719,0.891238670694864,0.0,0.0,350.6,True,2025-11-22 21:05:14 - Flight 8,
16.31,1.0,10.0,2025-11-22 21:05:25,37.08155,-121.59961,314.0,0.0,136.4,-12.6,,,,,0.0,10.9,-0.8,49.5,0.0,180.0,0.0,-0.01,1.0,,-81.0,19.0,0.0,30.07,736.0,,,323.0,,,,,0.0,0.0,,,,,,,,,,,,,,,,,,,0.0,15.0,0.0,0.0,30.1,0.0,,0.0,0.7,,,40.0,0.0,0.0,-0.6,0.1,0.0,,,,,16.0,18.0,16.0,22.0,16.0,18.0,17.0,21.0,,,-27.0,254.4,,0.7,1.0,4.998,,,0.653,0.817,0.0,14.8,,,,,,2025-11-22-N890GF-SN35347-17.3.0.19825-USER_LOG_DATA.csv,,,,,,,66.2,59.0,,,,,60.8,64.4,60.8,71.6,60.8,64.4,62.6,69.8,,,58.64,0.0,61.25,0.925226586102719,0.891238670694864,0.0,0.0,350.6,True,2025-11-22 21:05:14 - Flight 8,
16.56,1.0,10.0,2025-11-22 21:05:25,37.08155,-121.59961,313.0,0.0,136.4,-12.6,,,,,0.0,10.9,-0.8,49.6,0.0,180.0,0.0,-0.01,1.0,,-57.0,19.0,0.0,30.07,736.0,,,323.0,,,,,0.0,0.0,,,,,,,,,,,,,,,,,,,0.0,15.0,0.0,0.0,30.1,0.0,,0.0,0.7,,,40.0,0.0,0.0,-0.6,0.1,0.0,,,,,16.0,18.0,16.0,22.0,16.0,18.0,17.0,21.0,,,-26.0,254.4,,0.7,1.0,4.998,,,0.653,0.817,0.0,14.8,,,,,,2025-11-22-N890GF-SN35347-17.3.0.19825-USER_LOG_DATA.csv,,,,,,,66.2,59.0,,,,,60.8,64.4,60.8,71.6,60.8,64.4,62.6,69.8,,,58.64,0.0,61.25,0.925226586102719,0.891238670694864,0.0,0.0,350.6,True,2025-11-22 21:05:14 - Flight 8,
16.81,1.0,10.0,2025-11-22 21:05:26,37.08155,-121.59961,312.0,0.1,136.4,-12.6,,,,,0.0,10.9,-0.8,49.6,0.0,180.0,0.0,-0.01,1.0,,-62.0,19.0,0.0,30.07,736.0,,,323.0,,,,,0.0,0.0,,,,,,,,,,,,,,,,,,,0.0,15.0,0.0,0.0,30.1,0.0,,0.0,0.7,,,40.0,0.0,0.0,-0.6,0.1,0.0,,,,,16.0,18.0,16.0,22.0,16.0,18.0,17.0,21.0,,,-27.0,254.4,,0.7,1.0,4.998,,,0.653,0.817,0.0,14.8,,,,,,2025-11-22-N890GF-SN35347-17.3.0.19825-USER_LOG_DATA.csv,,,,,,,66.2,59.0,,,,,60.8,64.4,60.8,71.6,60.8,64.4,62.6,69.8,,,58.64,0.0,61.25,0.925226586102719,0.891238670694864,0.0,0.021083333333333332,350.6,True,2025-11-22 21:05:14 - Flight 8,
17.06,1.0,10.0,2025-11-22 21:05:26,37.08155,-121.59961,311.0,0.0,136.4,-12.6,,,,,0.0,10.9,-0.8,49.6,0.0,180.0,0.0,-0.01,1.0,,-62.0,19.0,0.0,30.07,736.0,,,323.0,,,,,0.0,0.0,,,,,,,,,,,,,,,,,,,0.0,15.0,0.0,0.0,30.1,0.0,,0.0,0.7,,,40.0,0.0,0.0,-0.6,0.1,0.0,,,,,16.0,18.0,16.0,22.0,16.0,18.0,17.0,21.0,,,-27.0,254.4,,0.7,1.0,4.998,,,0.653,0.817,0.0,14.9,,,,,,2025-11-22-N890GF-SN35347-17.3.0.19825-USER_LOG_DATA.csv,,,,,,,66.2,59.0,,,,,60.8,64.4,60.8,71.6,60.8,64.4,62.6,69.8,,,58.82,0.0,61.25,0.925226586102719,0.891238670694864,0.0,0.042166666666666665,350.6,True,2025-11-22 21:05:14 - Flight 8,
17.31,1.0,10.0,2025-11-22 21:05:26,37.08155,-121.59961,311.0,0.0,136.4,-12.6,,,,,0.0,10.9,-0.8,49.5,0.0,180.0,0.0,-0.01,1.0,,-72.0,19.0,0.0,30.07,736.0,,,323.0,,,,,0.0,0.0,,,,,,,,,,,,,,,,,,,0.0,15.0,0.0,0.0,30.1,0.0,,0.0,0.7,,,40.0,0.0,0.0,-0.6,0.1,0.0,,,,,16.0,18.0,16.0,22.0,16.0,18.0,17.0,21.0,,,-27.0,254.4,,0.7,1.0,4.998,,,0.653,0.817,0.0,14.9,,,,,,2025-11-22-N890GF-SN35347-17.3.0.19825-USER_LOG_DATA.csv,,,,,,,66.2,59.0,,,,,60.8,64.4,60.8,71.6,60.8,64.4,62.6,69.8,,,58.82,0.0,61.25,0.925226586102719,0.891238670694864,0.0,0.042166666666666665,350.6,True,2025-11-22 21:05:14 - Flight 8,
17.56,1.0,10.0,2025-11-22 21:05:26,37.08155,-121.59961,310.0,0.0,136.4,-12.6,,,,,0.0,10.9,-0.8,49.5,0.0,180.0,0.0,-0.01,1.0,,-75.0,19.0,0.0,30.07,736.0,,,323.0,,,,,0.0,0.0,,,,,,,,,,,,,,,,,,,0.0,15.0,0.0,0.0,30.1,0.0,,0.0,0.7,,,40.0,0.0,0.0,-0.6,0.1,0.0,,,,,16.0,19.0,16.0,22.0,16.0,19.0,17.0,21.0,,,-28.0,254.4,,0.7,1.0,4.998,,,0.653,0.817,0.0,14.9,,,,,,2025-11-22-N890GF-SN35347-17.3.0.19825-USER_LOG_DATA.csv,,,,,,,66.2,59.0,,,,,60.8,66.2,60.8,71.6,60.8,66.2,62.6,69.8,,,58.82,0.0,61.25,0.925226586102719,0.891238670694864,0.0,0.042166666666666665,350.6,True,2025-11-22 21:05:14 - Flight 8,
17.81,1.0,10.0,2025-11-22 21:05:27,37.08155,-121.59961,309.0,0.0,136.4,-12.6,,,,,0.0,10.9,-0.8,49.5,0.0,178.0,0.0,-0.01,1.0,,-95.0,19.0,0.0,30.07,736.0,,,323.0,,,,,0.0,0.0,,,,,,,,,,,,,,,,,,,0.0,15.0,0.0,0.0,30.1,0.0,,0.0,0.7,,,40.0,0.0,0.0,-0.6,0.1,0.0,,,,,16.0,19.0,16.0,22.0,16.0,19.0,17.0,21.0,,,-29.0,254.4,,0.7,1.0,4.998,,,0.653,0.817,0.0,14.9,,,,,,2025-11-22-N890GF-SN35347-17.3.0.19825-USER_LOG_DATA.csv,,,,,,,66.2,59.0,,,,,60.8,66.2,60.8,71.6,60.8,66.2,62.6,69.8,,,58.82,0.0,61.25,0.925226586102719,0.891238670694864,0.0,0.042166666666666665,350.6,True,2025-11-22 21:05:14 - Flight 8,
18.06,1.0,10.0,2025-11-22 21:05:27,37.08155,-121.59961,308.0,0.0,136.4,-12.6,,,,,0.0,10.9,-0.8,49.5,0.0,178.0,0.0,-0.01,1.0,,-81.0,19.0,0.0,30.07,736.0,,,323.0,,,,,0.0,0.0,,,,,,,,,,,,,,,,,,,0.0,15.0,0.0,0.0,30.1,0.0,,0.0,0.7,,,40.0,0.0,0.0,-0.6,0.1,0.0,,,,,16.0,19.0,16.0,22.0,16.0,19.0,17.0,21.0,,,-30.0,254.4,,0.7,1.0,4.998,,,0.653,0.817,0.0,14.8,,,,,,2025-11-22-N890GF-SN35347-17.3.0.19825-USER_LOG_DATA.csv,,,,,,,66.2,59.0,,,,,60.8,66.2,60.8,71.6,60.8,66.2,62.6,69.8,,,58.64,0.0,61.25,0.925226586102719,0.891238670694864,0.0,0.042166666666666665,350.6,True,2025-11-22 21:05:14 - Flight 8,
18.31,1.0,10.0,2025-11-22 21:05:27,37.08155,-121.59961,307.0,0.0,136.4,-12.6,,,,,0.0,10.9,-0.8,49.5,0.0,178.0,0.0,-0.01,1.0,,-73.0,19.0,0.0,30.07,736.0,,,323.0,,,,,0.0,0.0,,,,,,,,,,,,,,,,,,,0.0,15.0,0.0,0.0,30.1,0.0,,0.0,0.7,,,40.0,0.0,0.0,-0.6,0.1,0.0,,,,,16.0,19.0,16.0,22.0,16.0,19.0,17.0,21.0,,,-29.0,254.4,,0.7,1.0,4.998,,,0.653,0.817,0.0,14.8,,,,,,2025-11-22-N890GF-SN35347-17.3.0.19825-USER_LOG_DATA.csv,,,,,,,66.2,59.0,,,,,60.8,66.2,60.8,71.6,60.8,66.2,62.6,69.8,,,58.64,0.0,61.25,0.925226586102719,0.891238670694864,0.0,0.042166666666666665,350.6,True,2025-11-22 21:05:14 - Flight 8,
18.56,1.0,10.0,2025-11-22 21:05:27,37.08156,-121.59961,306.0,0.0,136.4,-12.6,,,,,0.0,10.9,-0.8,49.5,0.0,178.0,0.0,-0.01,1.0,,-45.0,19.0,0.0,30.07,736.0,,,323.0,,,,,0.0,0.0,,,,,,,,,,,,,,,,,,,0.0,15.0,0.0,0.0,30.1,0.0,,0.0,0.7,,,40.0,0.0,0.0,-0.6,0.1,0.0,,,,,16.0,19.0,16.0,22.0,16.0,19.0,17.0,21.0,,,-28.0,254.4,,0.7,1.0,4.998,,,0.653,0.817,0.0,14.8,,,,,,2025-11-22-N890GF-SN35347-17.3.0.19825-USER_LOG_DATA.csv,,,,,,,66.2,59.0,,,,,60.8,66.2,60.8,71.6,60.8,66.2,62.6,69.8,,,58.64,0.0,61.25,0.925226586102719,0.891238670694864,0.0,0.042166666666666665,350.6,True,2025-11-22 21:05:14 - Flight 8,
18.81,1.0,10.0,2025-11-22 21:05:28,37.08156,-121.59962,306.0,0.1,136.4,-12.6,,,,,0.0,10.9,-0.9,49.5,0.0,178.0,0.0,-0.01,1.0,,-47.0,19.0,0.0,30.07,736.0,,,323.0,,,,,0.0,0.0,,,,,,,,,,,,,,,,,,,0.0,15.0,0.0,0.0,30.1,0.0,,0.0,0.7,,,40.0,0.0,0.0,-0.6,0.1,0.0,,,,,16.0,19.0,16.0,22.0,16.0,19.0,17.0,21.0,,,-29.0,254.4,,0.7,2.0,4.998,,,0.653,0.817,0.0,14.8,,,,,,2025-11-22-N890GF-SN35347-17.3.0.19825-USER_LOG_DATA.csv,,,,,,,66.2,59.0,,,,,60.8,66.2,60.8,71.6,60.8,66.2,62.6,69.8,,,58.64,0.0,61.25,0.925226586102719,0.891238670694864,0.0,0.06325,350.6,True,2025-11-22 21:05:14 - Flight 8,
19.06,1.0,10.0,2025-11-22 21:05:28,37.08156,-121.59962,305.0,0.0,136.4,-12.6,,,,,0.0,10.9,-0.9,49.5,0.0,178.0,0.0,-0.01,1.0,,-33.0,19.0,0.0,30.07,736.0,,,323.0,,,,,0.0,0.0,,,,,,,,,,,,,,,,,,,0.0,15.0,0.0,0.0,30.1,0.0,,0.0,0.7,,,40.0,0.0,0.0,-0.6,0.1,0.0,,,,,16.0,19.0,16.0,22.0,16.0,19.0,17.0,21.0,,,-28.0,254.4,,0.7,2.0,4.998,,,0.653,0.817,0.0,14.8,,,,,,2025-11-22-N890GF-SN35347-17.3.0.19825-USER_LOG_DATA.csv,,,,,,,66.2,59.0,,,,,60.8,66.2,60.8,71.6,60.8,66.2,62.6,69.8,,,58.64,0.0,61.25,0.925226586102719,0.891238670694864,0.0,0.08433333333333333,350.6,True,2025-11-22 21:05:14 - Flight 8,
19.31,1.0,10.0,2025-11-22 21:05:28,37.08156,-121.59962,304.0,0.0,136.4,-12.6,,,,,0.0,10.9,-0.8,49.5,0.0,178.0,0.0,-0.01,1.0,,-62.0,19.0,0.0,30.07,734.0,,,323.0,,,,,0.0,0.0,,,,,,,,,,,,,,,,,,,0.0,15.0,0.0,0.0,30.1,0.0,,0.0,0.7,,,40.0,0.0,0.0,-0.6,0.1,0.0,,,,,16.0,19.0,16.0,22.0,16.0,19.0,17.0,21.0,,,-29.0,254.4,,0.7,2.0,4.998,,,0.653,0.817,0.0,14.9,,,,,,2025-11-22-N890GF-SN35347-17.3.0.19825-USER_LOG_DATA.csv,,,,,,,66.2,59.0,,,,,60.8,66.2,60.8,71.6,60.8,66.2,62.6,69.8,,,58.82,0.0,61.25,0.925226586102719,0.891238670694864,0.0,0.08433333333333333,350.6,True,2025-11-22 21:05:14 - Flight 8,
19.56,1.0,10.0,2025-11-22 21:05:28,37.08156,-121.59962,303.0,0.0,136.4,-12.6,,,,,0.0,10.9,-0.8,49.5,0.0,178.0,0.0,-0.01,1.0,,-60.0,19.0,0.0,30.07,734.0,,,323.0,,,,,0.0,0.0,,,,,,,,,,,,,,,,,,,0.0,15.0,0.0,0.0,30.1,0.0,,0.0,0.7,,,40.0,0.0,0.0,-0.6,0.1,0.0,,,,,16.0,19.0,16.0,22.0,16.0,19.0,17.0,21.0,,,-29.0,254.4,,0.7,2.0,4.998,,,0.653,0.817,0.0,14.9,,,,,,2025-11-22-N890GF-SN35347-17.3.0.19825-USER_LOG_DATA.csv,,,,,,,66.2,59.0,,,,,60.8,66.2,60.8,71.6,60.8,66.2,62.6,69.8,,,58.82,0.0,61.25,0.925226586102719,0.891238670694864,0.0,0.08433333333333333,350.6,True,2025-11-22 21:05:14 - Flight 8,
19.81,1.0,10.0,2025-11-22 21:05:29,37.08156,-121.59962,303.0,0.0,136.4,-12.6,,,,,0.0,10.9,-0.8,49.5,0.0,177.0,0.0,-0.01,1.0,,-74.0,19.0,0.0,30.07,734.0,,,323.0,,,,,0.0,0.0,,,,,,,,,,,,,,,,,,,0.0,15.0,0.0,0.0,30.1,0.0,,0.0,0.7,,,40.0,0.0,0.0,-0.6,0.1,0.0,,,,,16.0,19.0,16.0,22.0,16.0,19.0,17.0,21.0,,,-29.0,254.4,,0.7,2.0,4.998,,,0.653,0.817,0.0,14.9,,,,,,2025-11-22-N890GF-SN35347-17.3.0.19825-USER_LOG_DATA.csv,,,,,,,66.2,59.0,,,,,60.8,66.2,60.8,71.6,60.8,66.2,62.6,69.8,,,58.82,0.0,61.25,0.925226586102719,0.891238670694864,0.0,0.08433333333333333,350.6,True,2025-11-22 21:05:14 - Flight 8,
20.06,1.0,10.0,2025-11-22 21:05:29,37.08156,-121.59962,302.0,0.0,136.4,-12.6,,,,,0.0,10.9,-0.8,49.5,0.0,176.0,0.0,-0.01,1.0,,-65.0,19.0,0.0,30.07,734.0,,,323.0,,,,,0.0,0.0,,,,,,,,,,,,,,,,,,,0.0,15.0,0.0,0.0,30.1,0.0,,0.0,0.7,,,40.0,0.0,0.0,-0.6,0.1,0.0,,,,,16.0,19.0,16.0,22.0,16.0,19.0,17.0,21.0,,,-28.0,254.4,,0.7,2.0,4.998,,,0.653,0.817,0.0,14.9,,,,,,2025-11-22-N890GF-SN35347-17.3.0.19825-USER_LOG_DATA.csv,,,,,,,66.2,59.0,,,,,60.8,66.2,60.8,71.6,60.8,66.2,62.6,69.8,,,58.82,0.0,61.25,0.925226586102719,0.891238670694864,0.0,0.08433333333333333,350.6,True,2025-11-22 21:05:14 - Flight 8,
20.31,1.0,10.0,2025-11-22 21:05:29,37.08156,-121.59962,301.0,0.0,136.4,-12.6,,,,,0.0,10.9,-0.8,49.5,0.0,176.0,0.0,-0.02,1.0,,-49.0,19.0,0.0,30.07,734.0,,,323.0,,,,,0.0,0.0,,,,,,,,,,,,,,,,,,,0.0,15.0,0.0,0.0,30.1,0.0,,0.0,0.7,,,40.0,0.0,0.0,-0.6,0.1,0.0,,,,,16.0,19.0,16.0,22.0,16.0,19.0,17.0,21.0,,,-29.0,254.4,,0.7,2.0,4.998,,,0.653,0.817,0.0,14.9,,,,,,2025-11-22-N890GF-SN35347-17.3.0.19825-USER_LOG_DATA.csv,,,,,,,66.2,59.0,,,,,60.8,66.2,60.8,71.6,60.8,66.2,62.6,69.8,,,58.82,0.0,61.25,0.925226586102719,0.891238670694864,0.0,0.08433333333333333,350.6,True,2025-11-22 21:05:14 - Flight 8,
20.56,1.0,10.0,2025-11-22 21:05:29,37.08156,-121.59962,301.0,0.1,136.4,-12.6,,,,,0.0,10.9,-0.8,49.5,0.0,176.0,0.0,-0.01,1.0,,-40.0,19.0,0.0,30.07,734.0,,,323.0,,,,,0.0,0.0,,,,,,,,,,,,,,,,,,,0.0,15.0,0.0,0.0,30.1,0.0,,0.0,0.7,,,40.0,0.0,0.0,-0.6,0.1,0.0,,,,,16.0,19.0,16.0,22.0,16.0,19.0,17.0,21.0,,,-28.0,254.4,,0.7,2.0,4.998,,,0.653,0.817,0.0,14.9,,,,,,2025-11-22-N890GF-SN35347-17.3.0.19825-USER_LOG_DATA.csv,,,,,,,66.2,59.0,,,,,60.8,66.2,60.8,71.6,60.8,66.2,62.6,69.8,,,58.82,0.0,61.25,0.925226586102719,0.891238670694864,0.0,0.10541666666666666,350.6,True,2025-11-22 21:05:14 - Flight 8,
20.81,1.0,10.0,2025-11-22 21:05:30,37.08156,-121.59962,300.0,0.0,136.4,-12.6,,,,,0.0,10.9,-0.8,49.5,0.0,176.0,0.0,-0.01,1.0,,-59.0,19.0,0.0,30.07,734.0,,,323.0,,,,,0.0,0.0,,,,,,,,,,,,,,,,,,,0.0,15.0,0.0,0.0,30.1,0.0,,0.0,0.7,,,40.0,0.0,0.0,-0.6,0.1,0.0,,,,,16.0,19.0,16.0,22.0,16.0,19.0,17.0,21.0,,,-28.0,254.4,,0.7,2.0,4.998,,,0.653,0.817,0.0,14.9,,,,,,2025-11-22-N890GF-SN35347-17.3.0.19825-USER_LOG_DATA.csv,,,,,,,66.2,59.0,,,,,60.8,66.2,60.8,71.6,60.8,66.2,62.6,69.8,,,58.82,0.0,61.25,0.925226586102719,0.891238670694864,0.0,0.1265,350.6,True,2025-11-22 21:05:14 - Flight 8,
21.06,1.0,10.0,2025-11-22 21:05:30,37.08156,-121.59962,300.0,0.0,136.4,-12.6,,,,,0.0,10.9,-0.8,49.5,0.0,176.0,0.0,-0.01,1.0,,-45.0,19.0,0.0,30.07,734.0,,,323.0,,,,,0.0,0.0,,,,,,,,,,,,,,,,,,,0.0,15.0,0.0,0.0,30.1,0.0,,0.0,0.7,,,40.0,0.0,0.0,-0.6,0.1,0.0,,,,,16.0,19.0,16.0,22.0,16.0,19.0,17.0,21.0,,,-28.0,254.4,,0.7,2.0,4.998,,,0.653,0.817,0.0,14.9,,,,,,2025-11-22-N890GF-SN35347-17.3.0.19825-USER_LOG_DATA.csv,,,,,,,66.2,59.0,,,,,60.8,66.2,60.8,71.6,60.8,66.2,62.6,69.8,,,58.82,0.0,61.25,0.925226586102719,0.891238670694864,0.0,0.1265,350.6,True,2025-11-22 21:05:14 - Flight 8,
21.31,1.0,10.0,2025-11-22 21:05:30,37.08156,-121.59962,299.0,0.0,136.4,-12.6,,,,,0.0,10.9,-0.8,49.5,0.0,176.0,0.0,-0.01,1.0,,-42.0,19.0,0.0,30.07,734.0,,,323.0,,,,,0.0,0.0,,,,,,,,,,,,,,,,,,,0.0,15.0,0.0,0.0,30.1,0.0,,0.0,0.7,,,40.0,0.0,0.0,-0.6,0.1,0.0,,,,,16.0,19.0,16.0,22.0,16.0,19.0,17.0,21.0,,,-29.0,254.4,,0.7,2.0,4.998,,,0.653,0.817,0.0,14.9,,,,,,2025-11-22-N890GF-SN35347-17.3.0.19825-USER_LOG_DATA.csv,,,,,,,66.2,59.0,,,,,60.8,66.2,60.8,71.6,60.8,66.2,62.6,69.8,,,58.82,0.0,61.25,0.925226586102719,0.891238670694864,0.0,0.1265,350.6,True,2025-11-22 21:05:14 - Flight 8,
21.56,1.0,10.0,2025-11-22 21:05:30,37.08157,-121.59962,299.0,0.0,136.4,-12.6,,,,,0.0,10.9,-0.8,49.5,0.0,176.0,0.1,-0.01,1.0,,-47.0,19.0,0.0,30.07,734.0,,,323.0,,,,,0.0,0.0,,,,,,,,,,,,,,,,,,,0.0,15.0,0.0,0.0,30.1,0.0,,0.0,0.7,,,40.0,0.0,0.0,-0.6,0.1,0.0,,,,,16.0,19.0,16.0,22.0,16.0,19.0,17.0,21.0,,,-28.0,254.4,,0.7,2.0,4.998,,,0.653,0.817,0.0,14.9,,,,,,2025-11-22-N890GF-SN35347-17.3.0.19825-USER_LOG_DATA.csv,,,,,,,66.2,59.0,,,,,60.8,66.2,60.8,71.6,60.8,66.2,62.6,69.8,,,58.82,0.0,61.25,0.925226586102719,0.891238670694864,0.0,0.1265,350.6,True,2025-11-22 21:05:14 - Flight 8,
21.81,1.0,10.0,2025-11-22 21:05:31,37.08157,-121.59962,298.0,0.0,136.4,-12.6,,,,,0.0,10.9,-0.9,49.5,0.0,176.0,0.1,-0.01,1.0,,-58.0,19.0,0.0,30.07,734.0,,,323.0,,,,,0.0,0.0,,,,,,,,,,,,,,,,,,,0.0,15.0,0.0,0.0,30.1,0.0,,0.0,0.7,,,40.0,0.0,0.0,-0.6,0.1,0.0,,,,,16.0,19.0,16.0,22.0,16.0,19.0,17.0,21.0,,,-29.0,254.4,,0.7,2.0,4.998,,,0.653,0.817,0.0,14.9,,,,,,2025-11-22-N890GF-SN35347-17.3.0.19825-USER_LOG_DATA.csv,,,,,,,66.2,59.0,,,,,60.8,66.2,60.8,71.6,60.8,66.2,62.6,69.8,,,58.82,0.0,61.25,0.925226586102719,0.891238670694864,0.0,0.1265,350.6,True,2025-11-22 21:05:14 - Flight 8,
22.06,1.0,10.0,2025-11-22 21:05:31,37.08157,-121.59962,298.0,0.0,136.4,-12.6,,,,,0.0,10.9,-0.9,49.6,0.0,176.0,0.1,-0.02,1.0,,-58.0,19.0,0.0,30.07,734.0,,,323.0,,,,,0.0,0.0,,,,,,,,,,,,,,,,,,,0.0,15.0,0.0,0.0,30.1,0.0,,0.0,0.7,,,40.0,0.0,0.0,-0.6,0.1,0.0,,,,,16.0,19.0,16.0,22.0,16.0,19.0,17.0,21.0,,,-29.0,254.4,,0.7,2.0,4.998,,,0.653,0.817,0.0,14.9,,,,,,2025-11-22-N890GF-SN35347-17.3.0.19825-USER_LOG_DATA.csv,,,,,,,66.2,59.0,,,,,60.8,66.2,60.8,71.6,60.8,66.2,62.6,69.8,,,58.82,0.0,61.25,0.925226586102719,0.891238670694864,0.0,0.1265,350.6,True,2025-11-22 21:05:14 - Flight 8,
22.31,1.0,10.0,2025-11-22 21:05:31,37.08157,-121.59962,297.0,0.1,136.4,-12.6,,,,,0.0,10.9,-0.9,49.5,0.0,176.0,0.1,-0.01,1.0,,-56.0,19.0,0.0,30.07,740.0,,,323.0,,,,,0.0,0.0,,,,,,,,,,,,,,,,,,,0.0,15.0,0.0,0.0,30.1,0.0,,0.0,0.7,,,40.0,0.0,0.0,-0.7,0.1,0.0,,,,,16.0,19.0,16.0,22.0,16.0,19.0,17.0,21.0,,,-29.0,254.4,,0.7,2.0,4.998,,,0.653,0.817,0.0,14.9,,,,,,2025-11-22-N890GF-SN35347-17.3.0.19825-USER_LOG_DATA.csv,,,,,,,66.2,59.0,,,,,60.8,66.2,60.8,71.6,60.8,66.2,62.6,69.8,,,58.82,0.0,61.25,0.925226586102719,0.891238670694864,0.0,0.14758333333333332,350.6,True,2025-11-22 21:05:14 - Flight 8,
22.56,1.0,10.0,2025-11-22 21:05:31,37.08157,-121.59962,297.0,0.0,136.4,-12.6,,,,,0.0,10.9,-0.8,49.5,0.0,176.0,0.1,-0.01,1.0,,-45.0,19.0,0.0,30.07,740.0,,,323.0,,,,,0.0,0.0,,,,,,,,,,,,,,,,,,,0.0,15.0,0.0,0.0,30.1,0.0,,0.0,0.7,,,40.0,0.0,0.0,-0.6,0.1,0.0,,,,,16.0,19.0,16.0,22.0,16.0,19.0,17.0,21.0,,,-28.0,254.4,,0.7,2.0,4.998,,,0.653,0.817,0.0,14.9,,,,,,2025-11-22-N890GF-SN35347-17.3.0.19825-USER_LOG_DATA.csv,,,,,,,66.2,59.0,,,,,60.8,66.2,60.8,71.6,60.8,66.2,62.6,69.8,,,58.82,0.0,61.25,0.925226586102719,0.891238670694864,0.0,0.16866666666666666,350.6,True,2025-11-22 21:05:14 - Flight 8,
22.81,1.0,10.0,2025-11-22 21:05:32,37.08157,-121.59962,296.0,0.0,136.4,-12.6,,,,,0.0,10.9,-0.8,49.5,0.0,176.0,0.0,-0.02,1.0,,-28.0,19.0,0.0,30.07,740.0,,,323.0,,,,,0.0,0.0,,,,,,,,,,,,,,,,,,,0.0,15.0,0.0,0.0,30.1,0.0,,0.0,0.7,,,40.0,0.0,0.0,-0.7,0.1,0.0,,,,,16.0,19.0,16.0,22.0,16.0,19.0,17.0,21.0,,,-28.0,254.4,,0.7,2.0,4.998,,,0.653,0.817,0.0,14.9,,,,,,2025-11-22-N890GF-SN35347-17.3.0.19825-USER_LOG_DATA.csv,,,,,,,66.2,59.0,,,,,60.8,66.2,60.8,71.6,60.8,66.2,62.6,69.8,,,58.82,0.0,61.25,0.925226586102719,0.891238670694864,0.0,0.16866666666666666,350.6,True,2025-11-22 21:05:14 - Flight 8,
23.06,1.0,10.0,2025-11-22 21:05:32,37.08157,-121.59962,296.0,0.0,136.4,-12.6,,,,,0.0,10.9,-0.8,49.6,0.0,176.0,0.1,-0.01,1.0,,-16.0,19.0,0.0,30.07,740.0,,,323.0,,,,,0.0,0.0,,,,,,,,,,,,,,,,,,,0.0,15.0,0.0,0.0,30.1,0.0,,0.0,0.7,,,40.0,0.0,0.0,-0.7,0.1,0.0,,,,,16.0,19.0,16.0,22.0,16.0,19.0,17.0,21.0,,,-28.0,254.4,,0.7,2.0,4.998,,,0.653,0.817,0.0,14.9,,,,,,2025-11-22-N890GF-SN35347-17.3.0.19825-USER_LOG_DATA.csv,,,,,,,66.2,59.0,,,,,60.8,66.2,60.8,71.6,60.8,66.2,62.6,69.8,,,58.82,0.0,61.25,0.925226586102719,0.891238670694864,0.0,0.16866666666666666,350.6,True,2025-11-22 21:05:14 - Flight 8,
23.31,1.0,10.0,2025-11-22 21:05:32,37.08157,-121.59962,296.0,0.1,136.4,-12.6,,,,,0.0,10.9,-0.8,49.5,0.0,176.0,0.1,-0.02,1.0,,-22.0,19.0,0.0,30.07,740.0,,,323.0,,,,,0.0,0.0,,,,,,,,,,,,,,,,,,,0.0,15.0,0.0,0.0,30.1,0.0,,0.0,0.7,,,40.0,0.0,0.0,-0.7,0.1,0.0,,,,,16.0,19.0,16.0,22.0,16.0,19.0,17.0,21.0,,,-28.0,254.4,,0.7,2.0,4.998,,,0.653,0.817,0.0,14.9,,,,,,2025-11-22-N890GF-SN35347-17.3.0.19825-USER_LOG_DATA.csv,,,,,,,66.2,59.0,,,,,60.8,66.2,60.8,71.6,60.8,66.2,62.6,69.8,,,58.82,0.0,61.25,0.925226586102719,0.891238670694864,0.0,0.18975,350.6,True,2025-11-22 21:05:14 - Flight 8,
23.56,1.0,10.0,2025-11-22 21:05:32,37.08157,-121.59962,295.0,0.0,136.4,-12.6,,,,,0.0,10.9,-0.8,49.6,0.0,176.0,0.1,-0.01,1.0,,-15.0,19.0,0.0,30.07,740.0,,,323.0,,,,,0.0,0.0,,,,,,,,,,,,,,,,,,,0.0,15.0,0.0,0.0,30.1,0.0,,0.0,0.7,,,40.0,0.0,0.0,-0.7,0.1,0.0,,,,,16.0,19.0,16.0,22.0,16.0,19.0,17.0,21.0,,,-28.0,254.4,,0.7,2.0,4.998,,,0.653,0.817,0.0,14.9,,,,,,2025-11-22-N890GF-SN35347-17.3.0.19825-USER_LOG_DATA.csv,,,,,,,66.2,59.0,,,,,60.8,66.2,60.8,71.6,60.8,66.2,62.6,69.8,,,58.82,0.0,61.25,0.925226586102719,0.891238670694864,0.0,0.21083333333333332,350.6,True,2025-11-22 21:05:14 - Flight 8,
23.81,1.0,10.0,2025-11-22 21:05:33,37.08157,-121.59962,295.0,0.1,136.4,-12.6,,,,,0.0,10.9,-0.8,49.5,0.0,176.0,0.0,-0.01,1.0,,-9.0,19.0,0.0,30.07,740.0,,,323.0,,,,,0.0,0.0,,,,,,,,,,,,,,,,,,,0.0,15.0,0.0,0.0,30.1,0.0,,0.0,0.7,,,40.0,0.0,0.0,-0.7,0.1,0.0,,,,,16.0,19.0,16.0,22.0,16.0,19.0,17.0,21.0,,,-28.0,254.4,,0.7,2.0,4.998,,,0.653,0.817,0.0,14.9,,,,,,2025-11-22-N890GF-SN35347-17.3.0.19825-USER_LOG_DATA.csv,,,,,,,66.2,59.0,,,,,60.8,66.2,60.8,71.6,60.8,66.2,62.6,69.8,,,58.82,0.0,61.25,0.925226586102719,0.891238670694864,0.0,0.23191666666666666,350.6,True,2025-11-22 21:05:14 - Flight 8,
24.06,1.0,10.0,2025-11-22 21:05:33,37.08157,-121.59962,295.0,0.1,136.4,-12.6,,,,,0.0,10.9,-0.8,49.5,0.0,176.0,0.0,-0.02,1.0,,-8.0,19.0,0.0,30.07,740.0,,,323.0,,,,,0.0,0.0,,,,,,,,,,,,,,,,,,,0.0,15.0,0.0,0.0,30.1,0.0,,0.0,0.7,,,40.0,0.0,0.0,-0.7,0.1,0.0,,,,,16.0,19.0,16.0,22.0,16.0,19.0,17.0,21.0,,,-28.0,254.4,,0.7,2.0,4.998,,,0.653,0.817,0.0,14.9,,,,,,2025-11-22-N890GF-SN35347-17.3.0.19825-USER_LOG_DATA.csv,,,,,,,66.2,59.0,,,,,60.8,66.2,60.8,71.6,60.8,66.2,62.6,69.8,,,58.82,0.0,61.25,0.925226586102719,0.891238670694864,0.0,0.27408333333333335,350.6,True,2025-11-22 21:05:14 - Flight 8,
24.31,1.0,10.0,2025-11-22 21:05:33,37.08157,-121.59962,295.0,0.0,136.4,-12.6,,,,,0.0,10.9,-0.8,49.6,0.0,176.0,0.0,-0.02,1.0,,-37.0,19.0,0.0,30.07,740.0,,,323.0,,,,,0.0,0.0,,,,,,,,,,,,,,,,,,,0.0,15.0,0.0,0.0,30.1,0.0,,0.0,0.7,,,40.0,0.0,0.0,-0.7,0.1,0.0,,,,,16.0,19.0,16.0,22.0,16.0,19.0,17.0,21.0,,,-29.0,254.4,,0.7,2.0,4.998,,,0.653,0.817,0.0,14.9,,,,,,2025-11-22-N890GF-SN35347-17.3.0.19825-USER_LOG_DATA.csv,,,,,,,66.2,59.0,,,,,60.8,66.2,60.8,71.6,60.8,66.2,62.6,69.8,,,58.82,0.0,61.25,0.925226586102719,0.891238670694864,0.0,0.29516666666666663,350.6,True,2025-11-22 21:05:14 - Flight 8,
24.56,1.0,10.0,2025-11-22 21:05:33,37.08157,-121.59962,294.0,0.0,136.4,-12.6,,,,,0.0,10.9,-0.8,49.5,0.0,176.0,0.0,-0.01,1.0,,-27.0,19.0,0.0,30.07,740.0,,,323.0,,,,,0.0,0.0,,,,,,,,,,,,,,,,,,,0.0,15.0,0.0,0.0,30.1,0.0,,0.0,0.7,,,40.0,0.0,0.0,-0.7,0.1,0.0,,,,,16.0,19.0,16.0,22.0,16.0,19.0,17.0,21.0,,,-29.0,254.4,,0.7,2.0,4.998,,,0.653,0.817,0.0,14.9,,,,,,2025-11-22-N890GF-SN35347-17.3.0.19825-USER_LOG_DATA.csv,,,,,,,66.2,59.0,,,,,60.8,66.2,60.8,71.6,60.8,66.2,62.6,69.8,,,58.82,0.0,61.25,0.925226586102719,0.891238670694864,0.0,0.29516666666666663,350.6,True,2025-11-22 21:05:14 - Flight 8,
24.81,1.0,10.0,2025-11-22 21:05:34,37.08157,-121.59962,294.0,0.0,136.4,-12.6,,,,,0.0,10.9,-0.8,49.5,0.0,176.0,0.0,-0.01,1.0,,-32.0,19.0,0.0,30.07,740.0,,,323.0,,,,,0.0,0.0,,,,,,,,,,,,,,,,,,,0.0,15.0,0.0,0.0,30.1,0.0,,0.0,0.7,,,40.0,0.0,0.0,-0.7,0.1,0.0,,,,,16.0,19.0,16.0,22.0,16.0,19.0,17.0,21.0,,,-29.0,254.4,,0.7,2.0,4.998,,,0.653,0.817,0.0,14.9,,,,,,2025-11-22-N890GF-SN35347-17.3.0.19825-USER_LOG_DATA.csv,,,,,,,66.2,59.0,,,,,60.8,66.2,60.8,71.6,60.8,66.2,62.6,69.8,,,58.82,0.0,61.25,0.925226586102719,0.891238670694864,0.0,0.29516666666666663,350.6,True,2025-11-22 21:05:14 - Flight 8,
25.06,1.0,10.0,2025-11-22 21:05:34,37.08157,-121.59962,294.0,0.0,136.4,-12.6,,,,,0.0,10.9,-0.8,49.5,0.0,175.0,0.0,-0.01,1.0,,-18.0,19.0,0.0,30.07,740.0,,,323.0,,,,,0.0,0.0,,,,,,,,,,,,,,,,,,,0.0,15.0,0.0,0.0,30.1,0.0,,0.0,0.7,,,40.0,0.0,0.0,-0.7,0.1,0.0,,,,,16.0,19.0,16.0,22.0,16.0,19.0,17.0,21.0,,,-28.0,254.4,,0.7,2.0,4.998,,,0.653,0.817,0.0,14.9,,,,,,2025-11-22-N890GF-SN35347-17.3.0.19825-USER_LOG_DATA.csv,,,,,,,66.2,59.0,,,,,60.8,66.2,60.8,71.6,60.8,66.2,62.6,69.8,,,58.82,0.0,61.25,0.925226586102719,0.891238670694864,0.0,0.29516666666666663,350.6,True,2025-11-22 21:05:14 - Flight 8,
25.31,1.0,10.0,2025-11-22 21:05:34,37.08157,-121.59962,294.0,0.0,136.4,-12.6,,,,,0.0,10.9,-0.8,49.5,0.0,175.0,0.0,-0.01,1.0,,-42.0,19.0,0.0,30.07,739.0,,,323.0,,,,,0.0,0.0,,,,,,,,,,,,,,,,,,,0.0,15.0,0.0,0.0,30.1,0.0,,0.0,0.7,,,40.0,0.0,0.0,-0.7,0.1,0.0,,,,,16.0,19.0,16.0,22.0,16.0,19.0,17.0,21.0,,,-28.0,254.4,,0.7,2.0,4.998,,,0.653,0.817,0.0,14.9,,,,,,2025-11-22-N890GF-SN35347-17.3.0.19825-USER_LOG_DATA.csv,,,,,,,66.2,59.0,,,,,60.8,66.2,60.8,71.6,60.8,66.2,62.6,69.8,,,58.82,0.0,61.25,0.925226586102719,0.891238670694864,0.0,0.29516666666666663,350.6,True,2025-11-22 21:05:14 - Flight 8,
25.56,1.0,10.0,2025-11-22 21:05:34,37.08157,-121.59962,293.0,0.0,136.4,-12.6,,,,,0.0,10.9,-0.8,49.5,0.0,175.0,0.0,-0.01,1.0,,-47.0,19.0,0.0,30.07,739.0,,,323.0,,,,,0.0,0.0,,,,,,,,,,,,,,,,,,,0.0,15.0,0.0,0.0,30.1,0.0,,0.0,0.7,,,40.0,0.0,0.0,-0.7,0.1,0.0,,,,,16.0,19.0,16.0,22.0,16.0,19.0,17.0,21.0,,,-29.0,254.4,,0.7,2.0,4.998,,,0.653,0.817,0.0,14.9,,,,,,2025-11-22-N890GF-SN35347-17.3.0.19825-USER_LOG_DATA.csv,,,,,,,66.2,59.0,,,,,60.8,66.2,60.8,71.6,60.8,66.2,62.6,69.8,,,58.82,0.0,61.25,0.925226586102719,0.891238670694864,0.0,0.29516666666666663,350.6,True,2025-11-22 21:05:14 - Flight 8,
25.81,1.0,10.0,2025-11-22 21:05:35,37.08157,-121.59962,293.0,0.0,136.4,-12.6,,,,,0.0,10.9,-0.8,49.5,0.0,174.0,0.0,-0.01,1.0,,-48.0,19.0,0.0,30.07,739.0,,,323.0,,,,,0.0,0.0,,,,,,,,,,,,,,,,,,,0.0,15.0,0.0,0.0,30.1,0.0,,0.0,0.7,,,40.0,0.0,0.0,-0.7,0.1,0.0,,,,,16.0,19.0,16.0,22.0,16.0,19.0,17.0,21.0,,,-28.0,254.4,,0.7,2.0,4.998,,,0.653,0.817,0.0,14.9,,,,,,2025-11-22-N890GF-SN35347-17.3.0.19825-USER_LOG_DATA.csv,,,,,,,66.2,59.0,,,,,60.8,66.2,60.8,71.6,60.8,66.2,62.6,69.8,,,58.82,0.0,61.25,0.925226586102719,0.891238670694864,0.0,0.29516666666666663,350.6,True,2025-11-22 21:05:14 - Flight 8,
26.06,1.0,10.0,2025-11-22 21:05:35,37.08157,-121.59962,293.0,0.0,136.4,-12.6,,,,,0.0,10.9,-0.8,49.5,0.0,174.0,0.0,-0.01,1.0,,-32.0,19.0,0.0,30.07,739.0,,,323.0,,,,,0.0,0.0,,,,,,,,,,,,,,,,,,,0.0,15.0,0.0,0.0,30.1,0.0,,0.0,0.7,,,40.0,0.0,0.0,-0.7,0.1,0.0,,,,,16.0,19.0,16.0,22.0,17.0,19.0,17.0,22.0,,,-28.0,254.4,,0.7,2.0,4.998,,,0.653,0.817,0.0,14.9,,,,,,2025-11-22-N890GF-SN35347-17.3.0.19825-USER_LOG_DATA.csv,,,,,,,66.2,59.0,,,,,60.8,66.2,60.8,71.6,62.6,66.2,62.6,71.6,,,58.82,0.0,61.7,0.93202416918429,0.891238670694864,0.0,0.29516666666666663,350.6,True,2025-11-22 21:05:14 - Flight 8,
26.31,1.0,10.0,2025-11-22 21:05:35,37.08157,-121.59962,293.0,0.1,136.4,-12.6,,,,,0.0,10.9,-0.8,49.5,0.0,174.0,0.1,-0.01,1.0,,-4.0,19.0,0.0,30.07,739.0,,,323.0,,,,,0.0,0.0,,,,,,,,,,,,,,,,,,,0.0,15.0,0.0,0.0,30.1,0.0,,0.0,0.7,,,40.0,0.0,0.0,-0.7,0.1,0.0,,,,,16.0,19.0,16.0,22.0,17.0,19.0,17.0,22.0,,,-28.0,254.4,,0.7,2.0,4.998,,,0.653,0.817,0.0,14.9,,,,,,2025-11-22-N890GF-SN35347-17.3.0.19825-USER_LOG_DATA.csv,,,,,,,66.2,59.0,,,,,60.8,66.2,60.8,71.6,62.6,66.2,62.6,71.6,,,58.82,0.0,61.7,0.93202416918429,0.891238670694864,0.0,0.31625,350.6,True,2025-11-22 21:05:14 - Flight 8,
26.56,1.0,10.0,2025-11-22 21:05:35,37.08157,-121.59962,293.0,0.0,136.4,-12.6,,,,,0.0,10.9,-0.8,49.6,0.0,174.0,0.1,-0.01,1.0,,-7.0,19.0,0.0,30.07,739.0,,,323.0,,,,,0.0,0.0,,,,,,,,,,,,,,,,,,,0.0,15.0,0.0,0.0,30.1,0.0,,0.0,0.7,,,40.0,0.0,0.0,-0.7,0.1,0.0,,,,,16.0,19.0,16.0,22.0,17.0,19.0,17.0,22.0,,,-28.0,254.4,,0.7,2.0,4.998,,,0.653,0.817,0.0,14.9,,,,,,2025-11-22-N890GF-SN35347-17.3.0.19825-USER_LOG_DATA.csv,,,,,,,66.2,59.0,,,,,60.8,66.2,60.8,71.6,62.6,66.2,62.6,71.6,,,58.82,0.0,61.7,0.93202416918429,0.891238670694864,0.0,0.3373333333333333,350.6,True,2025-11-22 21:05:14 - Flight 8,
26.81,1.0,10.0,2025-11-22 21:05:36,37.08157,-121.59962,292.0,0.0,136.4,-12.6,,,,,0.0,10.9,-0.8,49.6,0.0,174.0,0.1,-0.01,1.0,,-15.0,20.0,0.0,30.07,739.0,,,323.0,,,,,0.0,0.0,,,,,,,,,,,,,,,,,,,0.0,15.0,0.0,0.0,30.1,0.0,,0.0,0.7,,,40.0,0.0,0.0,-0.7,0.1,0.0,,,,,16.0,19.0,16.0,22.0,17.0,19.0,17.0,22.0,,,-29.0,254.4,,0.7,2.0,4.998,,,0.653,0.817,0.0,14.9,,,,,,2025-11-22-N890GF-SN35347-17.3.0.19825-USER_LOG_DATA.csv,,,,,,,68.0,59.0,,,,,60.8,66.2,60.8,71.6,62.6,66.2,62.6,71.6,,,58.82,0.0,61.7,0.9073529411764706,0.8676470588235294,0.0,0.3373333333333333,350.6,True,2025-11-22 21:05:14 - Flight 8,
27.06,1.0,10.0,2025-11-22 21:05:36,37.08157,-121.59962,292.0,0.0,136.4,-12.6,,,,,0.0,10.9,-0.8,49.6,0.0,174.0,0.1,-0.01,1.0,,-14.0,20.0,0.0,30.07,739.0,,,323.0,,,,,0.0,0.0,,,,,,,,,,,,,,,,,,,0.0,15.0,0.0,0.0,30.1,0.0,,0.0,0.7,,,40.0,0.0,0.0,-0.7,0.1,0.0,,,,,16.0,19.0,16.0,22.0,17.0,19.0,17.0,22.0,,,-28.0,254.4,,0.7,2.0,4.998,,,0.653,0.817,0.0,14.9,,,,,,2025-11-22-N890GF-SN35347-17.3.0.19825-USER_LOG_DATA.csv,,,,,,,68.0,59.0,,,,,60.8,66.2,60.8,71.6,62.6,66.2,62.6,71.6,,,58.82,0.0,61.7,0.9073529411764706,0.8676470588235294,0.0,0.3373333333333333,350.6,True,2025-11-22 21:05:14 - Flight 8,
27.31,1.0,10.0,2025-11-22 21:05:36,37.08157,-121.59962,292.0,0.0,136.4,-12.6,,,,,0.0,10.9,-0.8,49.5,0.0,174.0,0.0,-0.01,1.0,,-8.0,20.0,0.0,30.07,739.0,,,323.0,,,,,0.0,0.0,,,,,,,,,,,,,,,,,,,0.0,15.0,0.0,0.0,30.1,0.0,,0.0,0.7,,,40.0,0.0,0.0,-0.7,0.1,0.0,,,,,16.0,19.0,16.0,22.0,17.0,19.0,17.0,22.0,,,-28.0,254.4,,0.7,2.0,4.998,,,0.653,0.817,0.0,14.9,,,,,,2025-11-22-N890GF-SN35347-17.3.0.19825-USER_LOG_DATA.csv,,,,,,,68.0,59.0,,,,,60.8,66.2,60.8,71.6,62.6,66.2,62.6,71.6,,,58.82,0.0,61.7,0.9073529411764706,0.8676470588235294,0.0,0.3373333333333333,350.6,True,2025-11-22 21:05:14 - Flight 8,
27.56,1.0,10.0,2025-11-22 21:05:36,37.08157,-121.59962,292.0,0.0,136.4,-12.6,,,,,0.0,10.9,-0.8,49.5,0.0,174.0,0.0,-0.01,1.0,,-5.0,20.0,0.0,30.07,739.0,,,323.0,,,,,0.0,0.0,,,,,,,,,,,,,,,,,,,0.0,15.0,0.0,0.0,30.1,0.0,,0.0,0.7,,,40.0,0.0,0.0,-0.7,0.1,0.0,,,,,16.0,19.0,16.0,22.0,17.0,19.0,17.0,22.0,,,-29.0,254.4,,0.7,2.0,4.998,,,0.653,0.817,0.0,14.9,,,,,,2025-11-22-N890GF-SN35347-17.3.0.19825-USER_LOG_DATA.csv,,,,,,,68.0,59.0,,,,,60.8,66.2,60.8,71.6,62.6,66.2,62.6,71.6,,,58.82,0.0,61.7,0.9073529411764706,0.8676470588235294,0.0,0.3373333333333333,350.6,True,2025-11-22 21:05:14 - Flight 8,
27.81,1.0,10.0,2025-11-22 21:05:37,37.08157,-121.59962,292.0,0.0,136.4,-12.6,,,,,0.0,10.9,-0.8,49.6,0.0,174.0,0.1,-0.01,1.0,,-33.0,20.0,0.0,30.07,739.0,,,323.0,,,,,0.0,0.0,,,,,,,,,,,,,,,,,,,0.0,15.0,0.0,0.0,30.1,0.0,,0.0,0.7,,,40.0,0.0,0.0,-0.7,0.1,0.0,,,,,16.0,19.0,16.0,22.0,17.0,19.0,17.0,22.0,,,-28.0,254.4,,0.7,2.0,4.998,,,0.653,0.817,0.0,14.9,,,,,,2025-11-22-N890GF-SN35347-17.3.0.19825-USER_LOG_DATA.csv,,,,,,,68.0,59.0,,,,,60.8,66.2,60.8,71.6,62.6,66.2,62.6,71.6,,,58.82,0.0,61.7,0.9073529411764706,0.8676470588235294,0.0,0.3373333333333333,350.6,True,2025-11-22 21:05:14 - Flight 8,
28.06,1.0,10.0,2025-11-22 21:05:37,37.08158,-121.59962,292.0,0.0,136.4,-12.6,,,,,0.0,10.9,-0.8,49.5,0.0,174.0,0.0,-0.01,1.0,,-26.0,20.0,0.0,30.07,739.0,,,323.0,,,,,0.0,0.0,,,,,,,,,,,,,,,,,,,0.0,15.0,0.0,0.0,30.1,0.0,,0.0,0.7,,,40.0,0.0,0.0,-0.7,0.1,0.0,,,,,16.0,19.0,16.0,22.0,17.0,19.0,17.0,22.0,,,-28.0,254.4,,0.7,2.0,4.998,,,0.653,0.817,0.0,14.9,,,,,,2025-11-22-N890GF-SN35347-17.3.0.19825-USER_LOG_DATA.csv,,,,,,,68.0,59.0,,,,,60.8,66.2,60.8,71.6,62.6,66.2,62.6,71.6,,,58.82,0.0,61.7,0.9073529411764706,0.8676470588235294,0.0,0.3373333333333333,350.6,True,2025-11-22 21:05:14 - Flight 8,
28.31,1.0,10.0,2025-11-22 21:05:37,37.08158,-121.59962,292.0,0.0,136.4,-12.6,,,,,0.0,10.9,-0.8,49.5,0.0,174.0,0.0,-0.01,1.0,,-19.0,20.0,0.0,30.07,749.0,,,323.0,,,,,0.0,0.0,,,,,,,,,,,,,,,,,,,0.0,15.0,0.0,0.0,30.1,0.0,,0.0,0.7,,,40.0,0.0,0.0,-0.7,0.1,0.0,,,,,16.0,19.0,16.0,22.0,17.0,19.0,17.0,22.0,,,-29.0,254.4,,0.7,2.0,4.998,,,0.653,0.817,0.0,14.9,,,,,,2025-11-22-N890GF-SN35347-17.3.0.19825-USER_LOG_DATA.csv,,,,,,,68.0,59.0,,,,,60.8,66.2,60.8,71.6,62.6,66.2,62.6,71.6,,,58.82,0.0,61.7,0.9073529411764706,0.8676470588235294,0.0,0.3373333333333333,350.6,True,2025-11-22 21:05:14 - Flight 8,
28.56,1.0,10.0,2025-11-22 21:05:37,37.08158,-121.59962,292.0,0.0,136.4,-12.6,,,,,0.0,10.9,-0.8,49.5,0.0,174.0,0.0,-0.01,1.0,,-28.0,20.0,0.0,30.07,749.0,,,323.0,,,,,0.0,0.0,,,,,,,,,,,,,,,,,,,0.0,15.0,0.0,0.0,30.1,0.0,,0.0,0.7,,,40.0,0.0,0.0,-0.7,0.1,0.0,,,,,16.0,19.0,16.0,22.0,17.0,19.0,17.0,22.0,,,-29.0,254.4,,0.7,2.0,4.998,,,0.653,0.817,0.0,14.9,,,,,,2025-11-22-N890GF-SN35347-17.3.0.19825-USER_LOG_DATA.csv,,,,,,,68.0,59.0,,,,,60.8,66.2,60.8,71.6,62.6,66.2,62.6,71.6,,,58.82,0.0,61.7,0.9073529411764706,0.8676470588235294,0.0,0.3373333333333333,350.6,True,2025-11-22 21:05:14 - Flight 8,
28.81,1.0,10.0,2025-11-22 21:05:38,37.08158,-121.59962,292.0,0.0,136.4,-12.6,,,,,0.0,10.9,-0.8,49.5,0.0,174.0,0.0,-0.01,1.0,,-35.0,20.0,0.0,30.07,749.0,,,323.0,,,,,0.0,0.0,,,,,,,,,,,,,,,,,,,0.0,15.0,0.0,0.0,30.1,0.0,,0.0,0.7,,,40.0,0.0,0.0,-0.7,0.1,0.0,,,,,16.0,19.0,16.0,22.0,17.0,19.0,17.0,22.0,,,-28.0,254.4,,0.7,2.0,4.998,,,0.653,0.817,0.0,14.9,,,,,,2025-11-22-N890GF-SN35347-17.3.0.19825-USER_LOG_DATA.csv,,,,,,,68.0,59.0,,,,,60.8,66.2,60.8,71.6,62.6,66.2,62.6,71.6,,,58.82,0.0,61.7,0.9073529411764706,0.8676470588235294,0.0,0.3373333333333333,350.6,True,2025-11-22 21:05:14 - Flight 8,
29.06,1.0,10.0,2025-11-22 21:05:38,37.08158,-121.59962,292.0,0.0,136.4,-12.6,,,,,0.0,10.9,-0.8,49.5,0.0,173.0,0.0,-0.01,1.0,,-53.0,20.0,0.0,30.07,749.0,,,323.0,,,,,0.0,0.0,,,,,,,,,,,,,,,,,,,0.0,15.0,0.0,0.0,30.1,0.0,,0.0,0.7,,,40.0,0.0,0.0,-0.7,0.1,0.0,,,,,16.0,19.0,16.0,22.0,17.0,19.0,17.0,22.0,,,-28.0,254.4,,0.7,2.0,4.998,,,0.653,0.817,0.0,14.9,,,,,,2025-11-22-N890GF-SN35347-17.3.0.19825-USER_LOG_DATA.csv,,,,,,,68.0,59.0,,,,,60.8,66.2,60.8,71.6,62.6,66.2,62.6,71.6,,,58.82,0.0,61.7,0.9073529411764706,0.8676470588235294,0.0,0.3373333333333333,350.6,True,2025-11-22 21:05:14 - Flight 8,
29.31,1.0,10.0,2025-11-22 21:05:38,37.08158,-121.59962,292.0,0.0,136.4,-12.6,,,,,0.0,10.9,-0.8,49.5,0.0,172.0,0.0,-0.01,1.0,,-56.0,20.0,0.0,30.07,749.0,,,323.0,,,,,0.0,0.0,,,,,,,,,,,,,,,,,,,0.0,15.0,0.0,0.0,30.1,0.0,,0.0,0.7,,,40.0,0.0,0.0,-0.7,0.1,0.0,,,,,16.0,19.0,16.0,22.0,17.0,19.0,17.0,22.0,,,-28.0,254.4,,0.7,2.0,4.998,,,0.653,0.817,0.0,14.9,,,,,,2025-11-22-N890GF-SN35347-17.3.0.19825-USER_LOG_DATA.csv,,,,,,,68.0,59.0,,,,,60.8,66.2,60.8,71.6,62.6,66.2,62.6,71.6,,,58.82,0.0,61.7,0.9073529411764706,0.8676470588235294,0.0,0.3373333333333333,350.6,True,2025-11-22 21:05:14 - Flight 8,
