Session Time,GPS Fix Quality,Number of Satellites,GPS Date & Time,Latitude (deg),Longitude (deg),GPS Altitude (feet),Ground Speed (knots),Ground Track (deg),Mag Var (deg),Cross Track Error (NM),Destination Waypoint ID,Range to Destination (NM),Bearing to Destination (deg),System Time,Pitch (deg),Roll (deg),Magnetic Heading (deg),Indicated Airspeed (knots),Pressure Altitude (ft),Turn Rate (deg/s),Lateral Accel (g),Vertical Accel(g),Angle of Attack (%),Vertical Speed (ft/min),OAT (deg C),True Airspeed (knots),Barometer Setting (inHg),Density Altitude (ft),Wind Direction (deg),Wind Speed (knots),Heading Bug (deg),Altitude Bug (ft),Airspeed Bug (knots),Vertical Speed Bug (ft/min),Course (deg),CDI Source Type,CDI Source Port,CDI Scale (NM),CDI Deflection (%),Glideslope (%),AP Engaged,AP Roll Mode,AP Roll Force,AP Roll Position (steps),AP Roll Slip (bool),AP Pitch Force,AP Pitch Position (steps),AP Pitch Slip (bool),AP Yaw Force,AP Yaw Position,AP Yaw Slip (bool),Transponder Status,Transponder Reply (bool),Transponder Identing (bool),Transponder Code (octal),Oil Pressure (PSI),Oil Temp (deg C),RPM L,RPM R,Manifold Pressure (inHg),Fuel Flow 1 (gal/hr),Fuel Flow 2 (gal/hr),Total Fuel Flow (gal/hr),Fuel Pressure (PSI),Fuel Level L (gal),Fuel Level R (gal),Fuel Remaining (gal),Volts 1,Volts 2,Amps,Hobbs Time,Tach Time,Thermocouple 1 (deg C),Thermocouple 2 (deg C),Thermocouple 3 (deg C),Thermocouple 4 (deg C),CHT 4 (deg C),EGT 4 (deg C),CHT 3 (deg C),EGT 3 (deg C),CHT 2 (deg C),EGT 2 (deg C),CHT 1 (deg C),EGT 1 (deg C),Thermocouple 13 (deg C),Thermocouple 14 (deg C),ELEV POSITION (%),CO PPM PRESSURE (PSI),GP Input 3,FUEL PRESSURE (PSI),AILERN POSITION (%),CANOPY CONTACT (V),GP Input 7,GP Input 8,LEFT LEVEL (Sensor V),RIGHT LEVEL (Sensor V),OIL PRESSURE (PSI),OIL TEMPERATURE (deg C),GP Input 13,Contacts,Percent Power,EGT Leaning State,Unnamed: 103,source_file,Unnamed: 0,press_alt,ias,hdg,gps_gs,gps_trk,OAT (deg F),Oil Temp (deg F),Thermocouple 1 (deg F),Thermocouple 2 (deg F),Thermocouple 3 (deg F),Thermocouple 4 (deg F),CHT 4 (deg F),EGT 4 (deg F),CHT 3 (deg F),EGT 3 (deg F),CHT 2 (deg F),EGT 2 (deg F),CHT 1 (deg F),EGT 1 (deg F),Thermocouple 13 (deg F),Thermocouple 14 (deg F),OIL TEMPERATURE (deg F),RPM,AVG_CHT,CHT_OAT_Ratio,OIL_OAT_Ratio,Fuel Flow Integral,Distance Traveled,Max CHT,Engine Run,Flight ID,efficiency
0.06,1.0,9.0,2026-01-10 20:11:22,37.08152,-121.59966,334.0,0.5,153.0,-12.7,,,,,0.0,,,,,,,,,,,13.0,,,,,,241.0,,110.0,0.0,,0.0,0.0,,,,,,,,,,,,,,,,,,,,,0.0,0.0,,0.0,,,,,,38.0,,,,0.6,0.2,,,,,,,,,,,,,,,,,,,,,,,,,,,,,,,,2026-02-01-N890GF-SN35347-17.4.0.23677-FIRST-USER_LOG_DATA-PART_02.csv,,,,,,,55.4,,,,,,,,,,,,,,,,,0.0,,,,0.0,0.0,329.0,True,2026-01-10 20:11:22 - Flight 18,
1.06,1.0,9.0,2026-01-10 20:11:23,37.08152,-121.59965,334.0,0.0,153.0,-12.6,,,,,0.0,10.9,-0.9,55.9,0.0,-207.0,0.0,-0.02,1.0,,-72.0,13.0,0.0,29.88,-535.0,,,241.0,,110.0,0.0,,0.0,0.0,,,,,,,,,,,,,,,,,,,,,0.0,0.0,,0.0,,0.0,,,,38.0,0.0,0.0,-0.2,0.6,0.2,,,,,8.0,13.0,9.0,15.0,9.0,13.0,9.0,16.0,,,-2.0,254.5,,0.0,3.0,0.0,,,0.653,0.837,0.0,56.1,,,,,,2026-02-01-N890GF-SN35347-17.4.0.23677-FIRST-USER_LOG_DATA-PART_02.csv,,,,,,,55.4,,,,,,46.4,55.4,48.2,59.0,48.2,55.4,48.2,60.8,,,132.98000000000002,0.0,47.75000000000001,0.8619133574007222,,0.0,0.4216666666666666,329.0,True,2026-01-10 20:11:22 - Flight 18,
2.06,1.0,9.0,2026-01-10 20:11:24,37.08152,-121.59965,334.0,0.0,153.0,-12.6,,,,,0.0,10.8,-0.9,55.9,0.0,-209.0,-0.0,-0.02,1.0,,-98.0,13.0,0.0,29.88,-535.0,,,241.0,,110.0,0.0,,0.0,0.0,,,,,,,,,,,,,,,,,,,,,0.0,0.0,,0.0,,0.0,,,,38.0,0.0,0.0,-0.2,0.6,0.2,,,,,8.0,13.0,9.0,15.0,9.0,13.0,9.0,16.0,,,-2.0,254.5,,0.0,3.0,0.0,,,0.653,0.837,0.0,56.1,,,,,,2026-02-01-N890GF-SN35347-17.4.0.23677-FIRST-USER_LOG_DATA-PART_02.csv,,,,,,,55.4,,,,,,46.4,55.4,48.2,59.0,48.2,55.4,48.2,60.8,,,132.98000000000002,0.0,47.75000000000001,0.8619133574007222,,0.0,0.4216666666666666,329.0,True,2026-01-10 20:11:22 - Flight 18,
3.06,1.0,9.0,2026-01-10 20:11:25,37.08153,-121.59965,333.0,0.0,153.0,-12.6,,,,,0.0,10.8,-0.9,56.0,0.0,-210.0,0.0,-0.02,1.0,,-83.0,13.0,0.0,29.88,-535.0,,,241.0,,110.0,0.0,,0.0,0.0,,,,,,,,,,,,,,,,,,,,,0.0,0.0,,0.0,,0.0,,,,38.0,0.0,0.0,-0.2,0.6,0.2,,,,,8.0,13.0,9.0,15.0,9.0,13.0,9.0,16.0,,,-2.0,254.5,,0.0,3.0,0.0,,,0.653,0.837,0.0,8.4,,,,,,2026-02-01-N890GF-SN35347-17.4.0.23677-FIRST-USER_LOG_DATA-PART_02.csv,,,,,,,55.4,,,,,,46.4,55.4,48.2,59.0,48.2,55.4,48.2,60.8,,,47.120000000000005,0.0,47.75000000000001,0.8619133574007222,,0.0,0.4216666666666666,329.0,True,2026-01-10 20:11:22 - Flight 18,
4.06,1.0,9.0,2026-01-10 20:11:27,37.08153,-121.59964,333.0,0.0,153.0,-12.6,,,,,0.0,10.9,-0.9,56.0,0.0,-212.0,0.0,-0.02,1.0,,-76.0,13.0,0.0,29.88,-531.0,,,241.0,,110.0,0.0,,0.0,0.0,,,,,,,,,,,,,,,,,,,,,0.0,0.0,,0.0,,0.0,,,,38.0,0.0,0.0,-0.2,0.6,0.2,,,,,8.0,13.0,9.0,16.0,9.0,13.0,9.0,16.0,,,-2.0,254.5,,0.0,3.0,0.0,,,0.653,0.836,0.0,8.4,,,,,,2026-02-01-N890GF-SN35347-17.4.0.23677-FIRST-USER_LOG_DATA-PART_02.csv,,,,,,,55.4,,,,,,46.4,55.4,48.2,60.8,48.2,55.4,48.2,60.8,,,47.120000000000005,0.0,47.75000000000001,0.8619133574007222,,0.0,0.4216666666666666,329.0,True,2026-01-10 20:11:22 - Flight 18,
5.06,1.0,9.0,2026-01-10 20:11:27,37.08153,-121.59964,333.0,0.0,153.0,-12.6,,,,,0.0,10.9,-0.9,56.0,0.0,-212.0,0.0,-0.02,1.0,,-73.0,13.0,0.0,29.88,-531.0,,,241.0,,,,,0.0,0.0,,,,,,,,,,,,,,,,,,,0.0,8.0,0.0,0.0,30.6,0.0,,0.0,0.0,,,38.0,0.0,0.0,-0.2,0.6,0.2,,,,,8.0,13.0,9.0,16.0,9.0,13.0,9.0,16.0,,,-2.0,254.5,,0.0,3.0,0.0,,,0.653,0.836,0.0,8.4,,,,,,2026-02-01-N890GF-SN35347-17.4.0.23677-FIRST-USER_LOG_DATA-PART_02.csv,,,,,,,55.4,46.4,,,,,46.4,55.4,48.2,60.8,48.2,55.4,48.2,60.8,,,47.120000000000005,0.0,47.75000000000001,0.8619133574007222,0.8375451263537906,0.0,0.4216666666666666,329.0,True,2026-01-10 20:11:22 - Flight 18,
6.06,1.0,9.0,2026-01-10 20:11:28,37.08154,-121.59964,333.0,0.1,153.0,-12.6,,,,,0.0,10.9,-1.0,56.0,0.0,-212.0,0.0,-0.02,1.0,,-43.0,13.0,0.0,29.88,-531.0,,,241.0,,,,,0.0,0.0,,,,,,,,,,,,,,,,,,,0.0,8.0,0.0,0.0,30.6,0.0,,0.0,0.0,,,38.0,0.0,0.0,-0.2,0.6,0.2,,,,,8.0,13.0,9.0,15.0,9.0,13.0,9.0,16.0,,,-2.0,254.5,,0.0,3.0,0.0,,,0.653,0.836,0.0,8.4,,,,,,2026-02-01-N890GF-SN35347-17.4.0.23677-FIRST-USER_LOG_DATA-PART_02.csv,,,,,,,55.4,46.4,,,,,46.4,55.4,48.2,59.0,48.2,55.4,48.2,60.8,,,47.120000000000005,0.0,47.75000000000001,0.8619133574007222,0.8375451263537906,0.0,0.5059999999999999,329.0,True,2026-01-10 20:11:22 - Flight 18,
7.06,1.0,9.0,2026-01-10 20:11:29,37.08154,-121.59963,333.0,0.0,153.0,-12.6,,,,,0.0,10.9,-1.0,55.9,0.0,-212.0,0.0,-0.02,1.0,,-12.0,13.0,0.0,29.88,-533.0,,,241.0,,,,,0.0,0.0,,,,,,,,,,,,,,,,,,,0.0,8.0,0.0,0.0,30.6,0.0,,0.0,0.0,,,38.0,0.0,0.0,-0.2,0.6,0.2,,,,,8.0,13.0,9.0,15.0,9.0,13.0,9.0,16.0,,,-2.0,254.5,,0.0,3.0,0.0,,,0.653,0.836,0.0,8.4,,,,,,2026-02-01-N890GF-SN35347-17.4.0.23677-FIRST-USER_LOG_DATA-PART_02.csv,,,,,,,55.4,46.4,,,,,46.4,55.4,48.2,59.0,48.2,55.4,48.2,60.8,,,47.120000000000005,0.0,47.75000000000001,0.8619133574007222,0.8375451263537906,0.0,0.5903333333333333,329.0,True,2026-01-10 20:11:22 - Flight 18,
8.06,1.0,9.0,2026-01-10 20:11:30,37.08154,-121.59963,333.0,0.0,153.0,-12.6,,,,,0.0,10.9,-1.0,55.9,0.0,-212.0,0.0,-0.02,1.0,,15.0,13.0,0.0,29.88,-532.0,,,241.0,,,,,0.0,0.0,,,,,,,,,,,,,,,,,,,0.0,8.0,0.0,0.0,30.6,0.0,,0.0,0.0,,,38.0,0.0,0.0,-0.2,0.6,0.2,,,,,8.0,13.0,9.0,15.0,9.0,13.0,9.0,16.0,,,-2.0,254.5,,0.0,3.0,0.0,,,0.653,0.836,0.0,8.4,,,,,,2026-02-01-N890GF-SN35347-17.4.0.23677-FIRST-USER_LOG_DATA-PART_02.csv,,,,,,,55.4,46.4,,,,,46.4,55.4,48.2,59.0,48.2,55.4,48.2,60.8,,,47.120000000000005,0.0,47.75000000000001,0.8619133574007222,0.8375451263537906,0.0,0.5903333333333333,329.0,True,2026-01-10 20:11:22 - Flight 18,
9.06,1.0,9.0,2026-01-10 20:11:31,37.08154,-121.59963,333.0,0.0,153.0,-12.6,,,,,0.0,11.0,-0.9,55.9,0.0,-212.0,0.0,-0.02,1.0,,32.0,13.0,0.0,29.88,-532.0,,,241.0,,,,,0.0,0.0,,,,,,,,,,,,,,,,,,,0.0,8.0,0.0,0.0,30.6,0.0,,0.0,0.0,,,38.0,0.0,0.0,-0.2,0.6,0.2,,,,,9.0,13.0,9.0,16.0,9.0,13.0,9.0,16.0,,,-2.0,254.5,,0.0,3.0,0.0,,,0.653,0.835,0.0,8.4,,,,,,2026-02-01-N890GF-SN35347-17.4.0.23677-FIRST-USER_LOG_DATA-PART_02.csv,,,,,,,55.4,46.4,,,,,48.2,55.4,48.2,60.8,48.2,55.4,48.2,60.8,,,47.120000000000005,0.0,48.2,0.8700361010830325,0.8375451263537906,0.0,0.5903333333333333,329.0,True,2026-01-10 20:11:22 - Flight 18,
10.06,1.0,9.0,2026-01-10 20:11:32,37.08155,-121.59963,332.0,0.0,153.0,-12.6,,,,,0.0,11.0,-0.9,55.8,0.0,-212.0,0.0,-0.02,1.0,,25.0,13.0,0.0,29.88,-532.0,,,241.0,,,,,0.0,0.0,,,,,,,,,,,,,,,,,,,0.0,8.0,0.0,0.0,30.6,0.0,,0.0,0.0,,,38.0,0.0,0.0,-0.2,0.6,0.2,,,,,8.0,13.0,9.0,15.0,9.0,13.0,9.0,16.0,,,-2.0,254.5,,0.0,3.0,0.0,,,0.653,0.835,0.0,8.4,,,,,,2026-02-01-N890GF-SN35347-17.4.0.23677-FIRST-USER_LOG_DATA-PART_02.csv,,,,,,,55.4,46.4,,,,,46.4,55.4,48.2,59.0,48.2,55.4,48.2,60.8,,,47.120000000000005,0.0,47.75000000000001,0.8619133574007222,0.8375451263537906,0.0,0.5903333333333333,329.0,True,2026-01-10 20:11:22 - Flight 18,
11.06,1.0,9.0,2026-01-10 20:11:33,37.08155,-121.59963,331.0,0.0,153.0,-12.6,,,,,0.0,11.0,-1.0,55.9,0.0,-212.0,0.0,-0.02,1.0,,20.0,13.0,0.0,29.88,-522.0,,,241.0,,,,,0.0,0.0,,,,,,,,,,,,,,,,,,,0.0,8.0,0.0,0.0,30.6,0.0,,0.0,0.0,,,38.0,0.0,0.0,-0.2,0.6,0.2,,,,,8.0,13.0,9.0,15.0,9.0,13.0,9.0,16.0,,,-2.0,254.5,,0.0,3.0,0.0,,,0.653,0.835,0.0,8.4,,,,,,2026-02-01-N890GF-SN35347-17.4.0.23677-FIRST-USER_LOG_DATA-PART_02.csv,,,,,,,55.4,46.4,,,,,46.4,55.4,48.2,59.0,48.2,55.4,48.2,60.8,,,47.120000000000005,0.0,47.75000000000001,0.8619133574007222,0.8375451263537906,0.0,0.5903333333333333,329.0,True,2026-01-10 20:11:22 - Flight 18,
12.06,1.0,9.0,2026-01-10 20:11:34,37.08155,-121.59963,331.0,0.0,153.0,-12.6,,,,,0.0,11.0,-1.0,55.8,0.0,-212.0,0.0,-0.02,1.0,,-11.0,13.0,0.0,29.88,-522.0,,,241.0,,,,,0.0,0.0,,,,,,,,,,,,,,,,,,,0.0,8.0,0.0,0.0,30.6,0.0,,0.0,0.0,,,38.0,0.0,0.0,-0.2,0.6,0.2,,,,,8.0,13.0,9.0,15.0,9.0,13.0,9.0,16.0,,,-2.0,254.5,,0.0,3.0,0.0,,,0.653,0.835,0.0,8.4,,,,,,2026-02-01-N890GF-SN35347-17.4.0.23677-FIRST-USER_LOG_DATA-PART_02.csv,,,,,,,55.4,46.4,,,,,46.4,55.4,48.2,59.0,48.2,55.4,48.2,60.8,,,47.120000000000005,0.0,47.75000000000001,0.8619133574007222,0.8375451263537906,0.0,0.5903333333333333,329.0,True,2026-01-10 20:11:22 - Flight 18,
13.06,1.0,9.0,2026-01-10 20:11:35,37.08155,-121.59963,330.0,0.0,153.0,-12.6,,,,,0.0,11.0,-1.0,55.7,0.0,-212.0,-0.0,-0.02,1.0,,-10.0,13.0,0.0,29.88,-522.0,,,241.0,,,,,0.0,0.0,,,,,,,,,,,,,,,,,,,0.0,8.0,0.0,0.0,30.6,0.0,,0.0,0.0,,,38.0,0.0,0.0,-0.2,0.6,0.2,,,,,9.0,13.0,9.0,15.0,9.0,13.0,10.0,16.0,,,-2.0,254.5,,0.0,3.0,0.0,,,0.653,0.835,0.0,8.4,,,,,,2026-02-01-N890GF-SN35347-17.4.0.23677-FIRST-USER_LOG_DATA-PART_02.csv,,,,,,,55.4,46.4,,,,,48.2,55.4,48.2,59.0,48.2,55.4,50.0,60.8,,,47.120000000000005,0.0,48.650000000000006,0.8781588447653431,0.8375451263537906,0.0,0.5903333333333333,329.0,True,2026-01-10 20:11:22 - Flight 18,
14.06,1.0,9.0,2026-01-10 20:11:36,37.08155,-121.59963,329.0,0.0,153.0,-12.6,,,,,0.0,11.0,-1.0,55.7,0.0,-212.0,-0.0,-0.02,1.0,,-19.0,13.0,0.0,29.88,-522.0,,,241.0,,,,,0.0,0.0,,,,,,,,,,,,,,,,,,,0.0,8.0,0.0,0.0,30.6,0.0,,0.0,0.0,,,38.0,0.0,0.0,-0.2,0.6,0.2,,,,,9.0,13.0,9.0,15.0,9.0,13.0,9.0,16.0,,,-2.0,254.5,,0.0,3.0,0.0,,,0.653,0.834,0.0,8.4,,,,,,2026-02-01-N890GF-SN35347-17.4.0.23677-FIRST-USER_LOG_DATA-PART_02.csv,,,,,,,55.4,46.4,,,,,48.2,55.4,48.2,59.0,48.2,55.4,48.2,60.8,,,47.120000000000005,0.0,48.2,0.8700361010830325,0.8375451263537906,0.0,0.5903333333333333,329.0,True,2026-01-10 20:11:22 - Flight 18,
15.06,1.0,9.0,2026-01-10 20:11:37,37.08155,-121.59963,329.0,0.0,153.0,-12.6,,,,,0.0,11.0,-1.0,55.7,0.0,-214.0,-0.0,-0.02,1.0,,-75.0,13.0,0.0,29.88,-522.0,,,241.0,,,,,0.0,0.0,,,,,,,,,,,,,,,,,,,0.0,8.0,0.0,0.0,30.6,0.0,,0.0,0.0,,,38.0,0.0,0.0,-0.2,0.6,0.2,,,,,9.0,13.0,9.0,15.0,9.0,13.0,9.0,16.0,,,-2.0,254.5,,0.0,3.0,0.0,,,0.653,0.835,0.0,8.4,,,,,,2026-02-01-N890GF-SN35347-17.4.0.23677-FIRST-USER_LOG_DATA-PART_02.csv,,,,,,,55.4,46.4,,,,,48.2,55.4,48.2,59.0,48.2,55.4,48.2,60.8,,,47.120000000000005,0.0,48.2,0.8700361010830325,0.8375451263537906,0.0,0.5903333333333333,329.0,True,2026-01-10 20:11:22 - Flight 18,
16.06,1.0,9.0,2026-01-10 20:11:38,37.08156,-121.59963,328.0,0.0,153.0,-12.6,,,,,0.0,11.0,-1.0,55.6,0.0,-216.0,0.0,-0.02,1.0,,-95.0,13.0,0.0,29.88,-522.0,,,241.0,,,,,0.0,0.0,,,,,,,,,,,,,,,,,,,0.0,8.0,0.0,0.0,30.6,0.0,,0.0,0.0,,,38.0,0.0,0.0,-0.2,0.6,0.2,,,,,9.0,13.0,9.0,16.0,9.0,14.0,10.0,17.0,,,-2.0,254.5,,0.0,3.0,0.0,,,0.653,0.834,0.0,8.4,,,,,,2026-02-01-N890GF-SN35347-17.4.0.23677-FIRST-USER_LOG_DATA-PART_02.csv,,,,,,,55.4,46.4,,,,,48.2,55.4,48.2,60.8,48.2,57.2,50.0,62.6,,,47.120000000000005,0.0,48.650000000000006,0.8781588447653431,0.8375451263537906,0.0,0.5903333333333333,329.0,True,2026-01-10 20:11:22 - Flight 18,
17.06,1.0,9.0,2026-01-10 20:11:39,37.08156,-121.59963,327.0,0.0,153.0,-12.6,,,,,0.0,11.0,-1.0,55.7,0.0,-217.0,-0.0,-0.02,1.0,,-92.0,13.0,0.0,29.88,-522.0,,,241.0,,,,,0.0,0.0,,,,,,,,,,,,,,,,,,,0.0,8.0,0.0,0.0,30.6,0.0,,0.0,0.0,,,38.0,0.0,0.0,-0.2,0.6,0.2,,,,,9.0,13.0,9.0,16.0,9.0,13.0,9.0,16.0,,,-2.0,254.5,,0.0,3.0,0.0,,,0.653,0.834,0.0,8.4,,,,,,2026-02-01-N890GF-SN35347-17.4.0.23677-FIRST-USER_LOG_DATA-PART_02.csv,,,,,,,55.4,46.4,,,,,48.2,55.4,48.2,60.8,48.2,55.4,48.2,60.8,,,47.120000000000005,0.0,48.2,0.8700361010830325,0.8375451263537906,0.0,0.5903333333333333,329.0,True,2026-01-10 20:11:22 - Flight 18,
18.06,1.0,9.0,2026-01-10 20:11:40,37.08156,-121.59963,327.0,0.0,153.0,-12.6,,,,,0.0,11.0,-1.0,55.6,0.0,-219.0,-0.0,-0.02,1.0,,-89.0,13.0,0.0,29.88,-518.0,,,241.0,,,,,0.0,0.0,,,,,,,,,,,,,,,,,,,0.0,8.0,0.0,0.0,30.6,0.0,,0.0,0.0,,,38.0,0.0,0.0,-0.2,0.6,0.2,,,,,9.0,13.0,9.0,16.0,9.0,13.0,10.0,16.0,,,-2.0,254.5,,0.0,3.0,0.0,,,0.653,0.834,0.0,8.4,,,,,,2026-02-01-N890GF-SN35347-17.4.0.23677-FIRST-USER_LOG_DATA-PART_02.csv,,,,,,,55.4,46.4,,,,,48.2,55.4,48.2,60.8,48.2,55.4,50.0,60.8,,,47.120000000000005,0.0,48.650000000000006,0.8781588447653431,0.8375451263537906,0.0,0.5903333333333333,329.0,True,2026-01-10 20:11:22 - Flight 18,
19.06,1.0,9.0,2026-01-10 20:11:41,37.08156,-121.59963,327.0,0.0,153.0,-12.6,,,,,0.0,11.0,-1.0,55.7,0.0,-221.0,0.0,-0.02,1.0,,-129.0,13.0,0.0,29.88,-518.0,,,241.0,,,,,0.0,0.0,,,,,,,,,,,,,,,,,,,0.0,8.0,0.0,0.0,30.6,0.0,,0.0,0.0,,,38.0,0.0,0.0,-0.2,0.6,0.2,,,,,9.0,13.0,9.0,16.0,9.0,14.0,10.0,17.0,,,-2.0,254.5,,0.0,3.0,0.0,,,0.653,0.834,0.0,8.4,,,,,,2026-02-01-N890GF-SN35347-17.4.0.23677-FIRST-USER_LOG_DATA-PART_02.csv,,,,,,,55.4,46.4,,,,,48.2,55.4,48.2,60.8,48.2,57.2,50.0,62.6,,,47.120000000000005,0.0,48.650000000000006,0.8781588447653431,0.8375451263537906,0.0,0.5903333333333333,329.0,True,2026-01-10 20:11:22 - Flight 18,
20.06,1.0,9.0,2026-01-10 20:11:42,37.08156,-121.59963,327.0,0.0,153.0,-12.6,,,,,0.0,11.0,-1.1,55.7,0.0,-223.0,0.0,-0.02,1.0,,-110.0,13.0,0.0,29.88,-518.0,,,241.0,,,,,0.0,0.0,,,,,,,,,,,,,,,,,,,0.0,8.0,0.0,0.0,30.6,0.0,,0.0,0.0,,,38.0,0.0,0.0,-0.2,0.6,0.2,,,,,9.0,13.0,9.0,16.0,9.0,13.0,9.0,16.0,,,-2.0,254.5,,0.0,3.0,0.0,,,0.653,0.834,0.0,8.5,,,,,,2026-02-01-N890GF-SN35347-17.4.0.23677-FIRST-USER_LOG_DATA-PART_02.csv,,,,,,,55.4,46.4,,,,,48.2,55.4,48.2,60.8,48.2,55.4,48.2,60.8,,,47.3,0.0,48.2,0.8700361010830325,0.8375451263537906,0.0,0.5903333333333333,329.0,True,2026-01-10 20:11:22 - Flight 18,
21.06,1.0,9.0,2026-01-10 20:11:43,37.08156,-121.59963,326.0,0.0,153.0,-12.6,,,,,0.0,11.0,-1.1,55.7,0.0,-226.0,0.0,-0.02,1.0,,-122.0,13.0,0.0,29.88,-515.0,,,241.0,,,,,0.0,0.0,,,,,,,,,,,,,,,,,,,0.0,8.0,0.0,0.0,30.6,0.0,,0.0,0.0,,,38.0,0.0,0.0,-0.2,0.6,0.2,,,,,9.0,13.0,9.0,16.0,9.0,13.0,10.0,16.0,,,-2.0,254.5,,0.0,3.0,0.0,,,0.653,0.834,0.0,8.5,,,,,,2026-02-01-N890GF-SN35347-17.4.0.23677-FIRST-USER_LOG_DATA-PART_02.csv,,,,,,,55.4,46.4,,,,,48.2,55.4,48.2,60.8,48.2,55.4,50.0,60.8,,,47.3,0.0,48.650000000000006,0.8781588447653431,0.8375451263537906,0.0,0.5903333333333333,329.0,True,2026-01-10 20:11:22 - Flight 18,
22.06,1.0,9.0,2026-01-10 20:11:44,37.08156,-121.59963,326.0,0.0,153.0,-12.6,,,,,0.0,11.0,-1.1,55.7,0.0,-226.0,0.0,-0.02,1.0,,-114.0,13.0,0.0,29.88,-515.0,,,241.0,,,,,0.0,0.0,,,,,,,,,,,,,,,,,,,0.0,8.0,0.0,0.0,30.6,0.0,,0.0,0.0,,,38.0,0.0,0.0,-0.2,0.6,0.2,,,,,9.0,13.0,9.0,16.0,9.0,13.0,9.0,16.0,,,-2.0,254.5,,0.0,3.0,0.0,,,0.653,0.834,0.0,8.5,,,,,,2026-02-01-N890GF-SN35347-17.4.0.23677-FIRST-USER_LOG_DATA-PART_02.csv,,,,,,,55.4,46.4,,,,,48.2,55.4,48.2,60.8,48.2,55.4,48.2,60.8,,,47.3,0.0,48.2,0.8700361010830325,0.8375451263537906,0.0,0.5903333333333333,329.0,True,2026-01-10 20:11:22 - Flight 18,
23.06,1.0,9.0,2026-01-10 20:11:45,37.08156,-121.59964,326.0,0.0,153.0,-12.6,,,,,0.0,11.0,-1.1,55.7,0.0,-227.0,0.0,-0.02,1.0,,-85.0,13.0,0.0,29.88,-515.0,,,241.0,,,,,0.0,0.0,,,,,,,,,,,,,,,,,,,0.0,8.0,0.0,0.0,30.6,0.0,,0.0,0.0,,,38.0,0.0,0.0,-0.2,0.6,0.2,,,,,9.0,13.0,9.0,16.0,9.0,13.0,10.0,16.0,,,-2.0,254.5,,0.0,3.0,0.0,,,0.653,0.833,0.0,8.5,,,,,,2026-02-01-N890GF-SN35347-17.4.0.23677-FIRST-USER_LOG_DATA-PART_02.csv,,,,,,,55.4,46.4,,,,,48.2,55.4,48.2,60.8,48.2,55.4,50.0,60.8,,,47.3,0.0,48.650000000000006,0.8781588447653431,0.8375451263537906,0.0,0.5903333333333333,329.0,True,2026-01-10 20:11:22 - Flight 18,
24.06,1.0,9.0,2026-01-10 20:11:46,37.08156,-121.59964,325.0,0.0,153.0,-12.6,,,,,0.0,11.0,-1.1,55.7,0.0,-231.0,0.0,-0.02,1.0,,-145.0,13.0,0.0,29.88,-522.0,,,241.0,,,,,0.0,0.0,,,,,,,,,,,,,,,,,,,0.0,8.0,0.0,0.0,30.6,0.0,,0.0,0.0,,,38.0,0.0,0.0,-0.2,0.6,0.2,,,,,9.0,13.0,9.0,16.0,9.0,13.0,9.0,17.0,,,-2.0,254.5,,0.0,3.0,0.0,,,0.653,0.833,0.0,8.5,,,,,,2026-02-01-N890GF-SN35347-17.4.0.23677-FIRST-USER_LOG_DATA-PART_02.csv,,,,,,,55.4,46.4,,,,,48.2,55.4,48.2,60.8,48.2,55.4,48.2,62.6,,,47.3,0.0,48.2,0.8700361010830325,0.8375451263537906,0.0,0.5903333333333333,329.0,True,2026-01-10 20:11:22 - Flight 18,
25.06,1.0,9.0,2026-01-10 20:11:47,37.08156,-121.59964,325.0,0.0,153.0,-12.6,,,,,0.0,11.0,-1.1,55.6,0.0,-233.0,0.0,-0.02,1.0,,-131.0,13.0,0.0,29.88,-522.0,,,241.0,,,,,0.0,0.0,,,,,,,,,,,,,,,,,,,0.0,8.0,0.0,0.0,30.6,0.0,,0.0,0.0,,,38.0,0.0,0.0,-0.2,0.6,0.2,,,,,9.0,13.0,9.0,16.0,9.0,14.0,10.0,17.0,,,-2.0,254.5,,0.0,3.0,0.0,,,0.653,0.833,0.0,8.5,,,,,,2026-02-01-N890GF-SN35347-17.4.0.23677-FIRST-USER_LOG_DATA-PART_02.csv,,,,,,,55.4,46.4,,,,,48.2,55.4,48.2,60.8,48.2,57.2,50.0,62.6,,,47.3,0.0,48.650000000000006,0.8781588447653431,0.8375451263537906,0.0,0.5903333333333333,329.0,True,2026-01-10 20:11:22 - Flight 18,
26.06,1.0,9.0,2026-01-10 20:11:48,37.08156,-121.59964,325.0,0.0,153.0,-12.6,,,,,0.0,11.0,-1.1,55.6,0.0,-235.0,-0.0,-0.02,1.0,,-126.0,13.0,0.0,29.88,-522.0,,,241.0,,,,,0.0,0.0,,,,,,,,,,,,,,,,,,,0.0,8.0,0.0,0.0,30.6,0.0,,0.0,0.0,,,38.0,0.0,0.0,-0.2,0.6,0.2,,,,,9.0,13.0,9.0,16.0,9.0,13.0,9.0,17.0,,,-2.0,254.5,,0.0,3.0,0.0,,,0.653,0.833,0.0,8.5,,,,,,2026-02-01-N890GF-SN35347-17.4.0.23677-FIRST-USER_LOG_DATA-PART_02.csv,,,,,,,55.4,46.4,,,,,48.2,55.4,48.2,60.8,48.2,55.4,48.2,62.6,,,47.3,0.0,48.2,0.8700361010830325,0.8375451263537906,0.0,0.5903333333333333,329.0,True,2026-01-10 20:11:22 - Flight 18,
27.06,1.0,9.0,2026-01-10 20:11:49,37.08156,-121.59964,325.0,0.0,153.0,-12.6,,,,,0.0,11.0,-1.1,55.6,0.0,-236.0,0.0,-0.02,1.0,,-102.0,13.0,0.0,29.88,-529.0,,,241.0,,,,,0.0,0.0,,,,,,,,,,,,,,,,,,,0.0,8.0,0.0,0.0,30.6,0.0,,0.0,0.0,,,38.0,0.0,0.0,-0.2,0.6,0.2,,,,,9.0,13.0,9.0,16.0,9.0,13.0,9.0,17.0,,,-2.0,254.5,,0.0,3.0,0.0,,,0.653,0.833,0.0,8.5,,,,,,2026-02-01-N890GF-SN35347-17.4.0.23677-FIRST-USER_LOG_DATA-PART_02.csv,,,,,,,55.4,46.4,,,,,48.2,55.4,48.2,60.8,48.2,55.4,48.2,62.6,,,47.3,0.0,48.2,0.8700361010830325,0.8375451263537906,0.0,0.5903333333333333,329.0,True,2026-01-10 20:11:22 - Flight 18,
28.06,1.0,9.0,2026-01-10 20:11:50,37.08156,-121.59964,324.0,0.0,153.0,-12.6,,,,,0.0,10.9,-1.1,55.6,0.0,-237.0,0.0,-0.02,1.0,,-88.0,13.0,0.0,29.88,-529.0,,,241.0,,,,,0.0,0.0,,,,,,,,,,,,,,,,,,,0.0,8.0,0.0,0.0,30.6,0.0,,0.0,0.0,,,38.0,0.0,0.0,-0.2,0.6,0.2,,,,,9.0,13.0,9.0,16.0,9.0,13.0,10.0,17.0,,,-2.0,254.5,,0.0,3.0,0.0,,,0.653,0.831,0.0,8.5,,,,,,2026-02-01-N890GF-SN35347-17.4.0.23677-FIRST-USER_LOG_DATA-PART_02.csv,,,,,,,55.4,46.4,,,,,48.2,55.4,48.2,60.8,48.2,55.4,50.0,62.6,,,47.3,0.0,48.650000000000006,0.8781588447653431,0.8375451263537906,0.0,0.5903333333333333,329.0,True,2026-01-10 20:11:22 - Flight 18,
29.06,1.0,9.0,2026-01-10 20:11:51,37.08156,-121.59964,324.0,0.0,153.0,-12.6,,,,,0.0,10.9,-1.1,55.7,0.0,-238.0,0.0,-0.02,1.0,,-63.0,13.0,0.0,29.88,-529.0,,,241.0,,,,,0.0,0.0,,,,,,,,,,,,,,,,,,,0.0,8.0,0.0,0.0,30.6,0.0,,0.0,0.0,,,38.0,0.0,0.0,-0.2,0.6,0.2,,,,,9.0,13.0,9.0,16.0,9.0,14.0,10.0,17.0,,,-2.0,254.5,,0.0,3.0,0.0,,,0.653,0.831,0.0,8.5,,,,,,2026-02-01-N890GF-SN35347-17.4.0.23677-FIRST-USER_LOG_DATA-PART_02.csv,,,,,,,55.4,46.4,,,,,48.2,55.4,48.2,60.8,48.2,57.2,50.0,62.6,,,47.3,0.0,48.650000000000006,0.8781588447653431,0.8375451263537906,0.0,0.5903333333333333,329.0,True,2026-01-10 20:11:22 - Flight 18,
30.06,1.0,9.0,2026-01-10 20:11:52,37.08156,-121.59964,324.0,0.0,153.0,-12.6,,,,,0.0,11.0,-1.1,55.7,0.0,-240.0,0.0,-0.02,1.0,,-84.0,13.0,0.0,29.88,-529.0,,,241.0,,,,,0.0,0.0,,,,,,,,,,,,,,,,,,,0.0,8.0,0.0,0.0,30.6,0.0,,0.0,0.0,,,38.0,0.0,0.0,-0.2,0.6,0.2,,,,,9.0,13.0,9.0,16.0,9.0,13.0,10.0,17.0,,,-2.0,254.5,,0.0,3.0,0.0,,,0.653,0.831,0.0,8.5,,,,,,2026-02-01-N890GF-SN35347-17.4.0.23677-FIRST-USER_LOG_DATA-PART_02.csv,,,,,,,55.4,46.4,,,,,48.2,55.4,48.2,60.8,48.2,55.4,50.0,62.6,,,47.3,0.0,48.650000000000006,0.8781588447653431,0.8375451263537906,0.0,0.5903333333333333,329.0,True,2026-01-10 20:11:22 - Flight 18,
31.06,1.0,9.0,2026-01-10 20:11:53,37.08156,-121.59964,324.0,0.0,153.0,-12.6,,,,,0.0,11.0,-1.0,55.7,0.0,-242.0,0.0,-0.02,1.0,,-118.0,13.0,0.0,29.88,-525.0,,,241.0,,,,,0.0,0.0,,,,,,,,,,,,,,,,,,,0.0,8.0,0.0,0.0,30.6,0.0,,0.0,0.0,,,38.0,0.0,0.0,-0.2,0.6,0.2,,,,,9.0,13.0,9.0,16.0,9.0,14.0,10.0,17.0,,,-2.0,254.5,,0.0,3.0,0.0,,,0.653,0.831,0.0,8.5,,,,,,2026-02-01-N890GF-SN35347-17.4.0.23677-FIRST-USER_LOG_DATA-PART_02.csv,,,,,,,55.4,46.4,,,,,48.2,55.4,48.2,60.8,48.2,57.2,50.0,62.6,,,47.3,0.0,48.650000000000006,0.8781588447653431,0.8375451263537906,0.0,0.5903333333333333,329.0,True,2026-01-10 20:11:22 - Flight 18,
32.06,1.0,9.0,2026-01-10 20:11:54,37.08156,-121.59964,324.0,0.0,153.0,-12.6,,,,,0.0,11.0,-1.1,55.7,0.0,-244.0,0.0,-0.02,1.0,,-106.0,13.0,0.0,29.88,-525.0,,,241.0,,,,,0.0,0.0,,,,,,,,,,,,,,,,,,,0.0,8.0,0.0,0.0,30.6,0.0,,0.0,0.0,,,38.0,0.0,0.0,-0.2,0.6,0.2,,,,,9.0,13.0,9.0,16.0,9.0,14.0,10.0,17.0,,,-2.0,254.5,,0.0,3.0,0.0,,,0.653,0.831,0.0,8.5,,,,,,2026-02-01-N890GF-SN35347-17.4.0.23677-FIRST-USER_LOG_DATA-PART_02.csv,,,,,,,55.4,46.4,,,,,48.2,55.4,48.2,60.8,48.2,57.2,50.0,62.6,,,47.3,0.0,48.650000000000006,0.8781588447653431,0.8375451263537906,0.0,0.5903333333333333,329.0,True,2026-01-10 20:11:22 - Flight 18,
33.06,1.0,10.0,2026-01-10 20:11:55,37.0816,-121.5998,234.0,0.0,153.0,-12.6,,,,,0.0,11.0,-1.1,55.7,0.0,-245.0,0.0,-0.02,1.0,,-82.0,13.0,0.0,29.88,-525.0,,,241.0,,,,,0.0,0.0,,,,,,,,,,,,,,,,,,,0.0,8.0,0.0,0.0,30.6,0.0,,0.0,0.0,,,38.0,0.0,0.0,-0.2,0.6,0.2,,,,,9.0,13.0,9.0,16.0,9.0,14.0,10.0,17.0,,,-2.0,254.5,,0.0,3.0,0.0,,,0.653,0.831,0.0,8.5,,,,,,2026-02-01-N890GF-SN35347-17.4.0.23677-FIRST-USER_LOG_DATA-PART_02.csv,,,,,,,55.4,46.4,,,,,48.2,55.4,48.2,60.8,48.2,57.2,50.0,62.6,,,47.3,0.0,48.650000000000006,0.8781588447653431,0.8375451263537906,0.0,0.5903333333333333,329.0,True,2026-01-10 20:11:22 - Flight 18,
34.06,1.0,10.0,2026-01-10 20:11:56,37.0816,-121.59978,237.0,0.0,153.0,-12.6,,,,,0.0,10.9,-1.0,55.7,0.0,-245.0,0.0,-0.02,1.0,,-52.0,13.0,0.0,29.88,-520.0,,,241.0,,,,,0.0,0.0,,,,,,,,,,,,,,,,,,,0.0,8.0,0.0,0.0,30.6,0.0,,0.0,0.0,,,38.0,0.0,0.0,-0.2,0.6,0.2,,,,,9.0,13.0,9.0,16.0,9.0,14.0,10.0,17.0,,,-2.0,254.5,,0.0,3.0,0.0,,,0.653,0.834,0.0,8.5,,,,,,2026-02-01-N890GF-SN35347-17.4.0.23677-FIRST-USER_LOG_DATA-PART_02.csv,,,,,,,55.4,46.4,,,,,48.2,55.4,48.2,60.8,48.2,57.2,50.0,62.6,,,47.3,0.0,48.650000000000006,0.8781588447653431,0.8375451263537906,0.0,0.5903333333333333,329.0,True,2026-01-10 20:11:22 - Flight 18,
35.06,1.0,10.0,2026-01-10 20:11:57,37.0816,-121.59978,244.0,0.0,153.0,-12.6,,,,,0.0,11.0,-1.0,55.7,0.0,-245.0,0.0,-0.02,1.0,,-17.0,13.0,0.0,29.88,-520.0,,,241.0,,,,,0.0,0.0,,,,,,,,,,,,,,,,,,,0.0,8.0,0.0,0.0,30.6,0.0,,0.0,0.0,,,38.0,0.0,0.0,-0.2,0.6,0.2,,,,,9.0,13.0,9.0,16.0,9.0,14.0,10.0,17.0,,,-2.0,254.5,,0.0,3.0,0.0,,,0.653,0.833,0.0,8.5,,,,,,2026-02-01-N890GF-SN35347-17.4.0.23677-FIRST-USER_LOG_DATA-PART_02.csv,,,,,,,55.4,46.4,,,,,48.2,55.4,48.2,60.8,48.2,57.2,50.0,62.6,,,47.3,0.0,48.650000000000006,0.8781588447653431,0.8375451263537906,0.0,0.5903333333333333,329.0,True,2026-01-10 20:11:22 - Flight 18,
36.06,1.0,10.0,2026-01-10 20:11:58,37.0816,-121.59978,247.0,0.0,153.0,-12.6,,,,,0.0,11.0,-1.0,55.7,0.0,-245.0,0.0,-0.02,1.0,,18.0,13.0,0.0,29.88,-520.0,,,241.0,,,,,0.0,0.0,,,,,,,,,,,,,,,,,,,0.0,9.0,0.0,0.0,30.6,0.0,,0.0,0.0,,,38.0,0.0,0.0,-0.2,0.6,0.2,,,,,9.0,13.0,9.0,16.0,9.0,14.0,10.0,17.0,,,-2.0,254.5,,0.0,3.0,0.0,,,0.653,0.833,0.0,8.5,,,,,,2026-02-01-N890GF-SN35347-17.4.0.23677-FIRST-USER_LOG_DATA-PART_02.csv,,,,,,,55.4,48.2,,,,,48.2,55.4,48.2,60.8,48.2,57.2,50.0,62.6,,,47.3,0.0,48.650000000000006,0.8781588447653431,0.8700361010830325,0.0,0.5903333333333333,329.0,True,2026-01-10 20:11:22 - Flight 18,
37.06,1.0,10.0,2026-01-10 20:11:59,37.08159,-121.59977,251.0,0.0,153.0,-12.6,,,,,0.0,11.0,-1.0,55.7,0.0,-245.0,0.0,-0.02,1.0,,25.0,13.0,0.0,29.88,-518.0,,,241.0,,,,,0.0,0.0,,,,,,,,,,,,,,,,,,,0.0,9.0,0.0,0.0,30.6,0.0,,0.0,0.0,,,38.0,0.0,0.0,-0.2,0.6,0.2,,,,,9.0,13.0,9.0,16.0,9.0,14.0,10.0,17.0,,,-2.0,254.5,,0.0,3.0,0.0,,,0.653,0.833,0.0,8.5,,,,,,2026-02-01-N890GF-SN35347-17.4.0.23677-FIRST-USER_LOG_DATA-PART_02.csv,,,,,,,55.4,48.2,,,,,48.2,55.4,48.2,60.8,48.2,57.2,50.0,62.6,,,47.3,0.0,48.650000000000006,0.8781588447653431,0.8700361010830325,0.0,0.5903333333333333,329.0,True,2026-01-10 20:11:22 - Flight 18,
38.06,1.0,10.0,2026-01-10 20:12:00,37.08159,-121.59976,256.0,0.0,153.0,-12.6,,,,,0.0,11.0,-1.0,55.8,0.0,-245.0,0.0,-0.02,1.0,,59.0,13.0,0.0,29.88,-518.0,,,241.0,,,,,0.0,0.0,,,,,,,,,,,,,,,,,,,0.0,9.0,0.0,0.0,30.6,0.0,,0.0,0.0,,,38.0,0.0,0.0,-0.2,0.6,0.2,,,,,9.0,13.0,9.0,16.0,9.0,14.0,10.0,17.0,,,-2.0,254.5,,0.0,3.0,0.0,,,0.653,0.833,0.0,8.5,,,,,,2026-02-01-N890GF-SN35347-17.4.0.23677-FIRST-USER_LOG_DATA-PART_02.csv,,,,,,,55.4,48.2,,,,,48.2,55.4,48.2,60.8,48.2,57.2,50.0,62.6,,,47.3,0.0,48.650000000000006,0.8781588447653431,0.8700361010830325,0.0,0.5903333333333333,329.0,True,2026-01-10 20:11:22 - Flight 18,
39.06,1.0,10.0,2026-01-10 20:12:01,37.08159,-121.59975,259.0,0.0,153.0,-12.6,,,,,0.0,11.0,-1.1,55.7,0.0,-245.0,0.0,-0.02,1.0,,30.0,13.0,0.0,29.88,-518.0,,,241.0,,,,,0.0,0.0,,,,,,,,,,,,,,,,,,,0.0,9.0,0.0,0.0,30.6,0.0,,0.0,0.0,,,38.0,0.0,0.0,-0.2,0.6,0.2,,,,,9.0,13.0,9.0,16.0,9.0,14.0,10.0,17.0,,,-2.0,254.5,,0.0,3.0,0.0,,,0.653,0.831,0.0,8.5,,,,,,2026-02-01-N890GF-SN35347-17.4.0.23677-FIRST-USER_LOG_DATA-PART_02.csv,,,,,,,55.4,48.2,,,,,48.2,55.4,48.2,60.8,48.2,57.2,50.0,62.6,,,47.3,0.0,48.650000000000006,0.8781588447653431,0.8700361010830325,0.0,0.5903333333333333,329.0,True,2026-01-10 20:11:22 - Flight 18,
40.06,1.0,10.0,2026-01-10 20:12:02,37.08158,-121.59975,263.0,0.0,153.0,-12.6,,,,,0.0,11.0,-1.0,55.7,0.0,-245.0,-0.0,-0.02,1.0,,10.0,13.0,0.0,29.88,-517.0,,,241.0,,,,,0.0,0.0,,,,,,,,,,,,,,,,,,,0.0,9.0,0.0,0.0,30.6,0.0,,0.0,0.0,,,38.0,0.0,0.0,-0.2,0.6,0.2,,,,,9.0,13.0,9.0,16.0,9.0,14.0,10.0,17.0,,,-2.0,254.5,,0.0,3.0,0.0,,,0.653,0.831,0.0,8.5,,,,,,2026-02-01-N890GF-SN35347-17.4.0.23677-FIRST-USER_LOG_DATA-PART_02.csv,,,,,,,55.4,48.2,,,,,48.2,55.4,48.2,60.8,48.2,57.2,50.0,62.6,,,47.3,0.0,48.650000000000006,0.8781588447653431,0.8700361010830325,0.0,0.5903333333333333,329.0,True,2026-01-10 20:11:22 - Flight 18,
41.06,1.0,10.0,2026-01-10 20:12:03,37.08158,-121.59975,267.0,0.0,153.0,-12.6,,,,,0.0,11.0,-1.1,55.7,0.0,-245.0,-0.0,-0.02,1.0,,16.0,13.0,0.0,29.88,-517.0,,,241.0,,,,,0.0,0.0,,,,,,,,,,,,,,,,,,,0.0,9.0,0.0,0.0,30.6,0.0,,0.0,0.0,,,38.0,0.0,0.0,-0.2,0.6,0.2,,,,,9.0,13.0,9.0,16.0,9.0,14.0,10.0,17.0,,,-2.0,254.5,,0.0,3.0,0.0,,,0.653,0.831,0.0,8.5,,,,,,2026-02-01-N890GF-SN35347-17.4.0.23677-FIRST-USER_LOG_DATA-PART_02.csv,,,,,,,55.4,48.2,,,,,48.2,55.4,48.2,60.8,48.2,57.2,50.0,62.6,,,47.3,0.0,48.650000000000006,0.8781588447653431,0.8700361010830325,0.0,0.5903333333333333,329.0,True,2026-01-10 20:11:22 - Flight 18,
42.06,1.0,10.0,2026-01-10 20:12:04,37.08158,-121.59974,270.0,0.0,153.0,-12.6,,,,,0.0,10.9,-1.1,55.7,0.0,-245.0,-0.0,-0.02,1.0,,2.0,13.0,0.0,29.88,-517.0,,,241.0,,,,,0.0,0.0,,,,,,,,,,,,,,,,,,,0.0,9.0,0.0,0.0,30.6,0.0,,0.0,0.0,,,38.0,0.0,0.0,-0.2,0.6,0.2,,,,,9.0,13.0,9.0,16.0,9.0,14.0,10.0,17.0,,,-2.0,241.1,,0.0,3.0,0.0,,,0.653,0.831,0.0,8.5,,,,,,2026-02-01-N890GF-SN35347-17.4.0.23677-FIRST-USER_LOG_DATA-PART_02.csv,,,,,,,55.4,48.2,,,,,48.2,55.4,48.2,60.8,48.2,57.2,50.0,62.6,,,47.3,0.0,48.650000000000006,0.8781588447653431,0.8700361010830325,0.0,0.5903333333333333,329.0,True,2026-01-10 20:11:22 - Flight 18,
43.06,1.0,10.0,2026-01-10 20:12:05,37.08158,-121.59974,273.0,0.0,153.0,-12.6,,,,,0.0,10.9,-1.1,55.6,0.0,-245.0,-0.0,-0.02,1.0,,-41.0,13.0,0.0,29.88,-507.0,,,241.0,,,,,0.0,0.0,,,,,,,,,,,,,,,,,,,0.0,9.0,0.0,0.0,30.6,0.0,,0.0,0.0,,,38.0,0.0,0.0,-0.2,0.6,0.2,,,,,9.0,13.0,9.0,16.0,9.0,14.0,10.0,17.0,,,-2.0,187.6,,0.0,3.0,0.0,,,0.653,0.831,0.0,8.5,,,,,,2026-02-01-N890GF-SN35347-17.4.0.23677-FIRST-USER_LOG_DATA-PART_02.csv,,,,,,,55.4,48.2,,,,,48.2,55.4,48.2,60.8,48.2,57.2,50.0,62.6,,,47.3,0.0,48.650000000000006,0.8781588447653431,0.8700361010830325,0.0,0.5903333333333333,329.0,True,2026-01-10 20:11:22 - Flight 18,
44.06,1.0,10.0,2026-01-10 20:12:06,37.08158,-121.59973,276.0,0.0,153.0,-12.6,,,,,0.0,10.9,-1.1,55.6,0.0,-245.0,-0.0,-0.02,1.0,,-45.0,13.0,0.0,29.88,-507.0,,,241.0,,,,,0.0,0.0,,,,,,,,,,,,,,,,,,,0.0,9.0,0.0,0.0,30.6,0.0,,0.0,0.0,,,38.0,0.0,0.0,-0.2,0.6,0.2,,,,,9.0,13.0,9.0,16.0,9.0,14.0,10.0,17.0,,,-2.0,146.1,,0.0,3.0,0.0,,,0.653,0.831,0.0,8.6,,,,,,2026-02-01-N890GF-SN35347-17.4.0.23677-FIRST-USER_LOG_DATA-PART_02.csv,,,,,,,55.4,48.2,,,,,48.2,55.4,48.2,60.8,48.2,57.2,50.0,62.6,,,47.48,0.0,48.650000000000006,0.8781588447653431,0.8700361010830325,0.0,0.5903333333333333,329.0,True,2026-01-10 20:11:22 - Flight 18,
45.06,1.0,10.0,2026-01-10 20:12:07,37.08158,-121.59973,278.0,0.0,153.0,-12.6,,,,,0.0,10.9,-1.1,55.7,0.0,-245.0,0.0,-0.02,1.0,,-40.0,13.0,0.0,29.88,-507.0,,,241.0,,,,,0.0,0.0,,,,,,,,,,,,,,,,,,,0.0,9.0,0.0,0.0,30.6,0.0,,0.0,0.0,,,38.0,0.0,0.0,-0.2,0.6,0.2,,,,,9.0,13.0,9.0,16.0,9.0,14.0,10.0,17.0,,,-2.0,113.7,,0.0,3.0,0.0,,,0.653,0.831,0.0,8.6,,,,,,2026-02-01-N890GF-SN35347-17.4.0.23677-FIRST-USER_LOG_DATA-PART_02.csv,,,,,,,55.4,48.2,,,,,48.2,55.4,48.2,60.8,48.2,57.2,50.0,62.6,,,47.48,0.0,48.650000000000006,0.8781588447653431,0.8700361010830325,0.0,0.5903333333333333,329.0,True,2026-01-10 20:11:22 - Flight 18,
46.06,1.0,10.0,2026-01-10 20:12:08,37.08157,-121.59972,281.0,0.0,153.0,-12.6,,,,,0.0,10.9,-1.1,55.6,0.0,-245.0,-0.0,-0.02,1.0,,-18.0,13.0,0.0,29.88,-506.0,,,241.0,,,,,0.0,0.0,,,,,,,,,,,,,,,,,,,0.0,9.0,0.0,0.0,30.6,0.0,,0.0,0.0,,,38.0,0.0,0.0,-0.2,0.6,0.2,,,,,9.0,13.0,9.0,16.0,9.0,14.0,10.0,17.0,,,-2.0,88.6,,0.0,3.0,0.0,,,0.653,0.831,0.0,8.6,,,,,,2026-02-01-N890GF-SN35347-17.4.0.23677-FIRST-USER_LOG_DATA-PART_02.csv,,,,,,,55.4,48.2,,,,,48.2,55.4,48.2,60.8,48.2,57.2,50.0,62.6,,,47.48,0.0,48.650000000000006,0.8781588447653431,0.8700361010830325,0.0,0.5903333333333333,329.0,True,2026-01-10 20:11:22 - Flight 18,
47.06,1.0,10.0,2026-01-10 20:12:09,37.08157,-121.59972,283.0,0.0,153.0,-12.6,,,,,0.0,10.9,-1.1,55.6,0.0,-245.0,-0.0,-0.02,1.0,,5.0,13.0,0.0,29.88,-506.0,,,241.0,,,,,0.0,0.0,,,,,,,,,,,,,,,,,,,0.0,9.0,0.0,0.0,30.6,0.0,,0.0,0.0,,,38.0,0.0,0.0,-0.2,0.6,0.2,,,,,9.0,13.0,9.0,16.0,9.0,14.0,10.0,17.0,,,-2.0,69.1,,0.0,3.0,0.0,,,0.653,0.831,0.0,8.6,,,,,,2026-02-01-N890GF-SN35347-17.4.0.23677-FIRST-USER_LOG_DATA-PART_02.csv,,,,,,,55.4,48.2,,,,,48.2,55.4,48.2,60.8,48.2,57.2,50.0,62.6,,,47.48,0.0,48.650000000000006,0.8781588447653431,0.8700361010830325,0.0,0.5903333333333333,329.0,True,2026-01-10 20:11:22 - Flight 18,
48.06,1.0,10.0,2026-01-10 20:12:10,37.08157,-121.59972,285.0,0.0,153.0,-12.6,,,,,0.0,10.9,-1.1,55.6,0.0,-246.0,-0.0,-0.02,1.0,,-58.0,13.0,0.0,29.88,-506.0,,,241.0,,,,,0.0,0.0,,,,,,,,,,,,,,,,,,,0.0,9.0,0.0,0.0,30.6,0.0,,0.0,0.0,,,38.0,0.0,0.0,-0.2,0.6,0.2,,,,,9.0,13.0,9.0,16.0,9.0,14.0,10.0,17.0,,,-2.0,53.9,,0.0,3.0,0.0,,,0.653,0.831,0.0,8.6,,,,,,2026-02-01-N890GF-SN35347-17.4.0.23677-FIRST-USER_LOG_DATA-PART_02.csv,,,,,,,55.4,48.2,,,,,48.2,55.4,48.2,60.8,48.2,57.2,50.0,62.6,,,47.48,0.0,48.650000000000006,0.8781588447653431,0.8700361010830325,0.0,0.5903333333333333,329.0,True,2026-01-10 20:11:22 - Flight 18,
49.06,1.0,10.0,2026-01-10 20:12:11,37.08157,-121.59972,287.0,0.0,153.0,-12.6,,,,,0.0,11.0,-1.1,55.6,0.0,-247.0,-0.0,-0.02,1.0,,-51.0,13.0,0.0,29.88,-498.0,,,241.0,,,,,0.0,0.0,,,,,,,,,,,,,,,,,,,0.0,9.0,0.0,0.0,30.6,0.0,,0.0,11.4,,,38.0,0.0,0.0,-0.2,0.6,0.2,,,,,9.0,13.0,9.0,16.0,9.0,13.0,10.0,17.0,,,-2.0,42.1,,11.4,3.0,0.0,,,0.653,0.831,0.0,8.6,,,,,,2026-02-01-N890GF-SN35347-17.4.0.23677-FIRST-USER_LOG_DATA-PART_02.csv,,,,,,,55.4,48.2,,,,,48.2,55.4,48.2,60.8,48.2,55.4,50.0,62.6,,,47.48,0.0,48.650000000000006,0.8781588447653431,0.8700361010830325,0.0,0.5903333333333333,329.0,True,2026-01-10 20:11:22 - Flight 18,
50.06,1.0,10.0,2026-01-10 20:12:12,37.08157,-121.59972,289.0,0.0,153.0,-12.6,,,,,0.0,10.9,-1.1,55.6,0.0,-249.0,0.0,-0.02,1.0,,-113.0,13.0,0.0,29.88,-498.0,,,241.0,,,,,0.0,0.0,,,,,,,,,,,,,,,,,,,0.0,9.0,0.0,0.0,30.6,0.4,,0.4,33.4,,,38.0,0.0,0.0,-0.2,0.6,0.2,,,,,9.0,13.0,9.0,16.0,9.0,14.0,10.0,17.0,,,-2.0,33.0,,33.4,3.0,0.0,,,0.653,0.831,0.0,8.6,,,,,,2026-02-01-N890GF-SN35347-17.4.0.23677-FIRST-USER_LOG_DATA-PART_02.csv,,,,,,,55.4,48.2,,,,,48.2,55.4,48.2,60.8,48.2,57.2,50.0,62.6,,,47.48,0.0,48.650000000000006,0.8781588447653431,0.8700361010830325,5.555555555555556e-05,0.5903333333333333,329.0,True,2026-01-10 20:11:22 - Flight 18,
51.06,1.0,10.0,2026-01-10 20:12:13,37.08156,-121.59968,311.0,0.0,153.0,-12.6,,,,,0.0,10.9,-1.1,55.6,0.0,-252.0,-0.0,-0.02,1.0,,-105.0,13.0,0.0,29.88,-498.0,,,241.0,,,,,0.0,0.0,,,,,,,,,,,,,,,,,,,0.0,9.0,0.0,0.0,30.6,0.5,,0.5,34.9,,,38.0,0.0,0.0,-0.2,0.6,0.2,,,,,9.0,14.0,10.0,17.0,9.0,14.0,10.0,17.0,,,-2.0,25.8,,34.9,3.0,0.0,,,0.653,0.831,0.0,8.6,,,,,,2026-02-01-N890GF-SN35347-17.4.0.23677-FIRST-USER_LOG_DATA-PART_02.csv,,,,,,,55.4,48.2,,,,,48.2,57.2,50.0,62.6,48.2,57.2,50.0,62.6,,,47.48,0.0,49.099999999999994,0.8862815884476534,0.8700361010830325,0.00018055555555555555,0.5903333333333333,329.0,True,2026-01-10 20:11:22 - Flight 18,
52.06,1.0,10.0,2026-01-10 20:12:14,37.08156,-121.59968,311.0,0.0,153.0,-12.6,,,,,0.0,10.9,-1.1,55.6,0.0,-254.0,-0.0,-0.02,1.0,,-131.0,13.0,0.0,29.88,-506.0,,,241.0,,,,,0.0,0.0,,,,,,,,,,,,,,,,,,,0.0,9.0,0.0,0.0,30.6,0.6,,0.6,35.1,,,38.0,0.0,0.0,-0.2,0.6,0.2,,,,,9.0,13.0,9.0,16.0,9.0,14.0,10.0,17.0,,,-2.0,20.3,,35.1,3.0,0.0,,,0.653,0.831,0.0,8.6,,,,,,2026-02-01-N890GF-SN35347-17.4.0.23677-FIRST-USER_LOG_DATA-PART_02.csv,,,,,,,55.4,48.2,,,,,48.2,55.4,48.2,60.8,48.2,57.2,50.0,62.6,,,47.48,0.0,48.650000000000006,0.8781588447653431,0.8700361010830325,0.0003333333333333333,0.5903333333333333,329.0,True,2026-01-10 20:11:22 - Flight 18,
53.06,1.0,10.0,2026-01-10 20:12:15,37.08156,-121.59969,312.0,0.0,153.0,-12.6,,,,,0.0,10.9,-1.1,55.6,0.0,-256.0,-0.0,-0.02,1.0,,-109.0,13.0,0.0,29.88,-506.0,,,241.0,,,,,0.0,0.0,,,,,,,,,,,,,,,,,,,0.0,9.0,0.0,0.0,30.6,0.6,,0.6,34.0,,,38.0,0.0,0.0,-0.2,0.6,0.2,,,,,9.0,13.0,9.0,16.0,9.0,14.0,10.0,17.0,,,-2.0,16.0,,34.0,3.0,0.0,,,0.653,0.831,0.0,8.6,,,,,,2026-02-01-N890GF-SN35347-17.4.0.23677-FIRST-USER_LOG_DATA-PART_02.csv,,,,,,,55.4,48.2,,,,,48.2,55.4,48.2,60.8,48.2,57.2,50.0,62.6,,,47.48,0.0,48.650000000000006,0.8781588447653431,0.8700361010830325,0.0005,0.5903333333333333,329.0,True,2026-01-10 20:11:22 - Flight 18,
54.06,1.0,10.0,2026-01-10 20:12:16,37.08156,-121.59969,312.0,0.0,153.0,-12.6,,,,,0.0,10.9,-1.1,55.7,0.0,-256.0,0.0,-0.02,1.0,,-82.0,13.0,0.0,29.88,-506.0,,,241.0,,,,,0.0,0.0,,,,,,,,,,,,,,,,,,,0.0,9.0,0.0,0.0,30.6,0.6,,0.6,33.7,,,38.0,0.0,0.0,-0.2,0.6,0.2,,,,,9.0,14.0,10.0,16.0,9.0,14.0,10.0,17.0,,,-2.0,12.6,,33.7,3.0,0.0,,,0.653,0.831,0.0,8.6,,,,,,2026-02-01-N890GF-SN35347-17.4.0.23677-FIRST-USER_LOG_DATA-PART_02.csv,,,,,,,55.4,48.2,,,,,48.2,57.2,50.0,60.8,48.2,57.2,50.0,62.6,,,47.48,0.0,49.099999999999994,0.8862815884476534,0.8700361010830325,0.0006666666666666666,0.5903333333333333,329.0,True,2026-01-10 20:11:22 - Flight 18,
55.06,1.0,10.0,2026-01-10 20:12:17,37.08156,-121.59969,312.0,0.0,153.0,-12.6,,,,,0.0,10.9,-1.1,55.7,0.0,-256.0,0.0,-0.02,1.0,,-40.0,13.0,0.0,29.88,-500.0,,,241.0,,,,,0.0,0.0,,,,,,,,,,,,,,,,,,,0.0,9.0,0.0,0.0,30.6,0.0,,0.0,33.5,,,38.0,0.0,0.0,-0.2,0.6,0.2,,,,,9.0,14.0,10.0,17.0,9.0,14.0,10.0,17.0,,,-2.0,10.0,,33.5,3.0,0.0,,,0.653,0.83,0.0,8.6,,,,,,2026-02-01-N890GF-SN35347-17.4.0.23677-FIRST-USER_LOG_DATA-PART_02.csv,,,,,,,55.4,48.2,,,,,48.2,57.2,50.0,62.6,48.2,57.2,50.0,62.6,,,47.48,0.0,49.099999999999994,0.8862815884476534,0.8700361010830325,0.00075,0.5903333333333333,329.0,True,2026-01-10 20:11:22 - Flight 18,
56.06,1.0,10.0,2026-01-10 20:12:18,37.08154,-121.5997,312.0,0.0,153.0,-12.6,,,,,0.0,10.9,-1.1,55.7,0.0,-256.0,0.0,-0.02,1.0,,-18.0,13.0,0.0,29.88,-500.0,,,241.0,,,,,0.0,0.0,,,,,,,,,,,,,,,,,,,0.0,9.0,0.0,0.0,30.6,0.0,,0.0,33.3,,,38.0,0.0,0.0,-0.2,0.6,0.2,,,,,9.0,14.0,10.0,16.0,9.0,14.0,10.0,17.0,,,-2.0,8.0,,33.3,3.0,0.0,,,0.653,0.833,0.0,8.6,,,,,,2026-02-01-N890GF-SN35347-17.4.0.23677-FIRST-USER_LOG_DATA-PART_02.csv,,,,,,,55.4,48.2,,,,,48.2,57.2,50.0,60.8,48.2,57.2,50.0,62.6,,,47.48,0.0,49.099999999999994,0.8862815884476534,0.8700361010830325,0.00075,0.5903333333333333,329.0,True,2026-01-10 20:11:22 - Flight 18,
57.06,1.0,10.0,2026-01-10 20:12:19,37.08155,-121.5997,319.0,0.0,153.0,-12.6,,,,,0.0,10.9,-1.1,55.6,0.0,-256.0,-0.0,-0.02,1.0,,12.0,13.0,0.0,29.88,-500.0,,,241.0,,,,,0.0,0.0,,,,,,,,,,,,,,,,,,,0.0,9.0,0.0,0.0,30.6,0.0,,0.0,33.1,,,38.0,0.0,0.0,-0.2,0.6,0.2,,,,,9.0,14.0,10.0,16.0,9.0,14.0,10.0,17.0,,,-2.0,6.4,,33.1,3.0,0.0,,,0.653,0.833,0.0,8.6,,,,,,2026-02-01-N890GF-SN35347-17.4.0.23677-FIRST-USER_LOG_DATA-PART_02.csv,,,,,,,55.4,48.2,,,,,48.2,57.2,50.0,60.8,48.2,57.2,50.0,62.6,,,47.48,0.0,49.099999999999994,0.8862815884476534,0.8700361010830325,0.00075,0.5903333333333333,329.0,True,2026-01-10 20:11:22 - Flight 18,
58.06,1.0,10.0,2026-01-10 20:12:20,37.08155,-121.5997,318.0,0.0,153.0,-12.6,,,,,0.0,10.9,-1.1,55.6,0.0,-256.0,-0.0,-0.02,1.0,,-8.0,13.0,0.0,29.88,-498.0,,,241.0,,,,,0.0,0.0,,,,,,,,,,,,,,,,,,,0.0,9.0,0.0,0.0,30.6,0.0,,0.0,32.9,,,38.0,0.0,0.0,-0.2,0.6,0.2,,,,,9.0,14.0,10.0,16.0,9.0,14.0,10.0,17.0,,,-2.0,5.2,,32.9,3.0,0.0,,,0.653,0.833,0.0,8.6,,,,,,2026-02-01-N890GF-SN35347-17.4.0.23677-FIRST-USER_LOG_DATA-PART_02.csv,,,,,,,55.4,48.2,,,,,48.2,57.2,50.0,60.8,48.2,57.2,50.0,62.6,,,47.48,0.0,49.099999999999994,0.8862815884476534,0.8700361010830325,0.00075,0.5903333333333333,329.0,True,2026-01-10 20:11:22 - Flight 18,
59.06,1.0,10.0,2026-01-10 20:12:21,37.08155,-121.59971,318.0,0.0,153.0,-12.6,,,,,0.0,11.0,-1.1,55.6,0.0,-257.0,-0.0,-0.02,1.0,,-51.0,13.0,0.0,29.88,-498.0,,,241.0,,,,,0.0,0.0,,,,,,,,,,,,,,,,,,,0.0,9.0,0.0,0.0,30.6,0.0,,0.0,32.8,,,38.0,0.0,0.0,-0.2,0.6,0.2,,,,,9.0,14.0,10.0,16.0,9.0,14.0,10.0,17.0,,,-2.0,4.3,,32.8,3.0,0.0,,,0.653,0.833,0.0,8.6,,,,,,2026-02-01-N890GF-SN35347-17.4.0.23677-FIRST-USER_LOG_DATA-PART_02.csv,,,,,,,55.4,48.2,,,,,48.2,57.2,50.0,60.8,48.2,57.2,50.0,62.6,,,47.48,0.0,49.099999999999994,0.8862815884476534,0.8700361010830325,0.00075,0.5903333333333333,329.0,True,2026-01-10 20:11:22 - Flight 18,
60.06,1.0,10.0,2026-01-10 20:12:22,37.08155,-121.59971,318.0,0.0,153.0,-12.6,,,,,0.0,11.0,-1.1,55.6,0.0,-258.0,-0.0,-0.02,1.0,,-58.0,13.0,0.0,29.88,-498.0,,,241.0,,,,,0.0,0.0,,,,,,,,,,,,,,,,,,,0.0,9.0,0.0,0.0,30.6,0.0,,0.0,32.6,,,38.0,0.0,0.0,-0.2,0.6,0.2,,,,,9.0,14.0,10.0,16.0,9.0,14.0,10.0,17.0,,,-2.0,3.5,,32.6,3.0,0.0,,,0.653,0.833,0.0,8.6,,,,,,2026-02-01-N890GF-SN35347-17.4.0.23677-FIRST-USER_LOG_DATA-PART_02.csv,,,,,,,55.4,48.2,,,,,48.2,57.2,50.0,60.8,48.2,57.2,50.0,62.6,,,47.48,0.0,49.099999999999994,0.8862815884476534,0.8700361010830325,0.00075,0.5903333333333333,329.0,True,2026-01-10 20:11:22 - Flight 18,
61.06,1.0,10.0,2026-01-10 20:12:23,37.08155,-121.59971,318.0,0.1,153.0,-12.6,,,,,0.0,11.0,-1.1,55.6,0.0,-259.0,0.0,-0.02,1.0,,-56.0,13.0,0.0,29.88,-502.0,,,241.0,,,,,0.0,0.0,,,,,,,,,,,,,,,,,,,0.0,9.0,0.0,0.0,30.6,0.0,,0.0,28.1,,,38.0,0.0,0.0,-0.2,0.6,0.2,,,,,9.0,14.0,10.0,17.0,9.0,14.0,10.0,18.0,,,-2.0,3.0,,28.1,3.0,0.0,,,0.653,0.83,0.0,8.6,,,,,,2026-02-01-N890GF-SN35347-17.4.0.23677-FIRST-USER_LOG_DATA-PART_02.csv,,,,,,,55.4,48.2,,,,,48.2,57.2,50.0,62.6,48.2,57.2,50.0,64.4,,,47.48,0.0,49.099999999999994,0.8862815884476534,0.8700361010830325,0.00075,0.6746666666666665,329.0,True,2026-01-10 20:11:22 - Flight 18,
62.06,1.0,10.0,2026-01-10 20:12:24,37.08155,-121.59971,318.0,0.0,153.0,-12.6,,,,,0.0,11.0,-1.1,55.6,0.0,-259.0,0.0,-0.02,1.0,,-35.0,14.0,0.0,29.88,-501.0,,,241.0,,,,,0.0,0.0,,,,,,,,,,,,,,,,,,,0.0,9.0,0.0,0.0,30.6,0.9,,0.9,23.7,,,38.0,0.0,0.0,-0.2,0.6,0.2,,,,,9.0,14.0,10.0,17.0,9.0,14.0,10.0,17.0,,,-2.0,2.5,,23.7,3.0,0.0,,,0.653,0.831,0.0,8.6,,,,,,2026-02-01-N890GF-SN35347-17.4.0.23677-FIRST-USER_LOG_DATA-PART_02.csv,,,,,,,57.2,48.2,,,,,48.2,57.2,50.0,62.6,48.2,57.2,50.0,62.6,,,47.48,0.0,49.099999999999994,0.8583916083916082,0.8426573426573427,0.0008749999999999999,0.7589999999999999,329.0,True,2026-01-10 20:11:22 - Flight 18,
63.06,1.0,10.0,2026-01-10 20:12:25,37.08155,-121.59971,318.0,0.1,153.0,-12.6,,,,,0.0,11.0,-1.1,55.5,0.0,-259.0,0.0,-0.02,1.0,,1.0,14.0,0.0,29.88,-501.0,,,241.0,,,,,0.0,0.0,,,,,,,,,,,,,,,,,,,0.0,9.0,0.0,0.0,30.6,0.9,,0.9,23.7,,,38.0,0.0,0.0,-0.2,0.6,0.2,,,,,9.0,14.0,10.0,17.0,9.0,14.0,10.0,17.0,,,-2.0,2.2,,23.7,3.0,0.0,,,0.653,0.831,0.0,8.6,,,,,,2026-02-01-N890GF-SN35347-17.4.0.23677-FIRST-USER_LOG_DATA-PART_02.csv,,,,,,,57.2,48.2,,,,,48.2,57.2,50.0,62.6,48.2,57.2,50.0,62.6,,,47.48,0.0,49.099999999999994,0.8583916083916082,0.8426573426573427,0.001125,0.8433333333333333,329.0,True,2026-01-10 20:11:22 - Flight 18,
64.06,1.0,10.0,2026-01-10 20:12:26,37.08155,-121.59971,318.0,0.0,153.0,-12.6,,,,,0.0,11.0,-1.1,55.5,0.0,-259.0,-0.0,-0.02,1.0,,47.0,14.0,0.0,29.88,-501.0,,,241.0,,,,,0.0,0.0,,,,,,,,,,,,,,,,,,,0.0,9.0,0.0,0.0,30.6,0.9,,0.9,23.9,,,38.0,0.0,0.0,-0.2,0.6,0.2,,,,,9.0,14.0,10.0,17.0,9.0,14.0,10.0,17.0,,,-2.0,1.9,,23.9,3.0,0.0,,,0.653,0.831,0.0,8.6,,,,,,2026-02-01-N890GF-SN35347-17.4.0.23677-FIRST-USER_LOG_DATA-PART_02.csv,,,,,,,57.2,48.2,,,,,48.2,57.2,50.0,62.6,48.2,57.2,50.0,62.6,,,47.48,0.0,49.099999999999994,0.8583916083916082,0.8426573426573427,0.001375,0.9276666666666665,329.0,True,2026-01-10 20:11:22 - Flight 18,
65.06,1.0,10.0,2026-01-10 20:12:27,37.08155,-121.59972,318.0,0.0,153.0,-12.6,,,,,0.0,11.0,-1.1,55.5,0.0,-259.0,-0.0,-0.02,1.0,,60.0,14.0,0.0,29.88,-491.0,,,241.0,,,,,0.0,0.0,,,,,,,,,,,,,,,,,,,0.0,9.0,0.0,0.0,30.6,0.9,,0.9,23.9,,,38.0,0.0,0.0,-0.2,0.6,0.2,,,,,9.0,14.0,10.0,17.0,9.0,14.0,10.0,17.0,,,-2.0,1.7,,23.9,3.0,0.0,,,0.653,0.831,0.0,8.6,,,,,,2026-02-01-N890GF-SN35347-17.4.0.23677-FIRST-USER_LOG_DATA-PART_02.csv,,,,,,,57.2,48.2,,,,,48.2,57.2,50.0,62.6,48.2,57.2,50.0,62.6,,,47.48,0.0,49.099999999999994,0.8583916083916082,0.8426573426573427,0.001625,0.9276666666666665,329.0,True,2026-01-10 20:11:22 - Flight 18,
66.06,2.0,10.0,2026-01-10 20:12:28,37.08155,-121.59972,319.0,0.0,153.0,-12.6,,,,,0.0,11.0,-1.1,55.5,0.0,-259.0,-0.0,-0.02,1.0,,75.0,14.0,0.0,29.88,-491.0,,,241.0,,,,,0.0,0.0,,,,,,,,,,,,,,,,,,,0.0,9.0,0.0,0.0,30.6,0.0,,0.0,23.9,,,38.0,0.0,0.0,-0.2,0.6,0.2,,,,,9.0,14.0,10.0,17.0,9.0,14.0,10.0,17.0,,,-2.0,1.6,,23.9,3.0,0.0,,,0.653,0.831,0.0,8.6,,,,,,2026-02-01-N890GF-SN35347-17.4.0.23677-FIRST-USER_LOG_DATA-PART_02.csv,,,,,,,57.2,48.2,,,,,48.2,57.2,50.0,62.6,48.2,57.2,50.0,62.6,,,47.48,0.0,49.099999999999994,0.8583916083916082,0.8426573426573427,0.00175,0.9276666666666665,329.0,True,2026-01-10 20:11:22 - Flight 18,
67.06,2.0,10.0,2026-01-10 20:12:29,37.08155,-121.59972,320.0,0.0,153.0,-12.6,,,,,0.0,11.0,-1.1,55.6,0.0,-259.0,-0.0,-0.02,1.0,,60.0,14.0,0.0,29.88,-491.0,,,241.0,,,,,0.0,0.0,,,,,,,,,,,,,,,,,,,0.0,9.0,0.0,0.0,30.6,0.0,,0.0,23.9,,,38.0,0.0,0.0,-0.2,0.6,0.2,,,,,9.0,14.0,10.0,17.0,9.0,14.0,10.0,17.0,,,-2.0,1.4,,23.9,3.0,0.0,,,0.653,0.831,0.0,8.6,,,,,,2026-02-01-N890GF-SN35347-17.4.0.23677-FIRST-USER_LOG_DATA-PART_02.csv,,,,,,,57.2,48.2,,,,,48.2,57.2,50.0,62.6,48.2,57.2,50.0,62.6,,,47.48,0.0,49.099999999999994,0.8583916083916082,0.8426573426573427,0.00175,0.9276666666666665,329.0,True,2026-01-10 20:11:22 - Flight 18,
68.06,2.0,10.0,2026-01-10 20:12:30,37.08155,-121.59972,321.0,0.1,153.0,-12.6,,,,,0.0,11.0,-1.0,55.6,0.0,-259.0,0.0,-0.02,1.0,,57.0,14.0,0.0,29.88,-491.0,,,241.0,,,,,0.0,0.0,,,,,,,,,,,,,,,,,,,0.0,9.0,0.0,0.0,30.6,0.0,,0.0,23.9,,,38.0,0.0,0.0,-0.2,0.6,0.2,,,,,9.0,14.0,10.0,17.0,9.0,14.0,10.0,17.0,,,-2.0,1.3,,23.9,3.0,0.0,,,0.653,0.831,0.0,8.6,,,,,,2026-02-01-N890GF-SN35347-17.4.0.23677-FIRST-USER_LOG_DATA-PART_02.csv,,,,,,,57.2,48.2,,,,,48.2,57.2,50.0,62.6,48.2,57.2,50.0,62.6,,,47.48,0.0,49.099999999999994,0.8583916083916082,0.8426573426573427,0.00175,1.0119999999999998,329.0,True,2026-01-10 20:11:22 - Flight 18,
69.06,2.0,10.0,2026-01-10 20:12:31,37.08155,-121.59971,321.0,0.0,153.0,-12.6,,,,,0.0,11.0,-1.0,55.6,0.0,-259.0,-0.0,-0.02,1.0,,95.0,14.0,0.0,29.88,-490.0,,,241.0,,,,,0.0,0.0,,,,,,,,,,,,,,,,,,,0.0,9.0,0.0,0.0,30.6,0.0,,0.0,23.9,,,38.0,0.0,0.0,-0.2,0.6,0.2,,,,,9.0,14.0,10.0,17.0,9.0,14.0,10.0,17.0,,,-2.0,1.2,,23.9,3.0,0.0,,,0.653,0.831,0.0,8.6,,,,,,2026-02-01-N890GF-SN35347-17.4.0.23677-FIRST-USER_LOG_DATA-PART_02.csv,,,,,,,57.2,48.2,,,,,48.2,57.2,50.0,62.6,48.2,57.2,50.0,62.6,,,47.48,0.0,49.099999999999994,0.8583916083916082,0.8426573426573427,0.00175,1.0963333333333332,329.0,True,2026-01-10 20:11:22 - Flight 18,
70.06,2.0,10.0,2026-01-10 20:12:32,37.08155,-121.59971,321.0,0.0,153.0,-12.6,,,,,0.0,11.0,-1.0,55.6,0.0,-259.0,-0.0,-0.02,1.0,,59.0,14.0,0.0,29.88,-490.0,,,241.0,,,,,0.0,0.0,,,,,,,,,,,,,,,,,,,0.0,9.0,0.0,0.0,30.6,0.0,,0.0,23.8,,,38.0,0.0,0.0,-0.2,0.6,0.2,,,,,9.0,14.0,10.0,17.0,9.0,14.0,10.0,17.0,,,-2.0,1.2,,23.8,3.0,0.0,,,0.653,0.831,0.0,8.6,,,,,,2026-02-01-N890GF-SN35347-17.4.0.23677-FIRST-USER_LOG_DATA-PART_02.csv,,,,,,,57.2,48.2,,,,,48.2,57.2,50.0,62.6,48.2,57.2,50.0,62.6,,,47.48,0.0,49.099999999999994,0.8583916083916082,0.8426573426573427,0.00175,1.0963333333333332,329.0,True,2026-01-10 20:11:22 - Flight 18,
71.06,2.0,10.0,2026-01-10 20:12:33,37.08156,-121.59971,322.0,0.1,153.0,-12.6,,,,,0.0,11.0,-1.0,55.7,0.0,-259.0,0.0,-0.02,1.0,,55.0,14.0,0.0,29.88,-490.0,,,241.0,,,,,0.0,0.0,,,,,,,,,,,,,,,,,,,0.0,9.0,0.0,0.0,30.6,0.0,,0.0,23.8,,,38.0,0.0,0.0,-0.2,0.6,0.2,,,,,9.0,14.0,10.0,17.0,9.0,14.0,10.0,18.0,,,-2.0,1.1,,23.8,3.0,0.0,,,0.653,0.831,0.0,8.6,,,,,,2026-02-01-N890GF-SN35347-17.4.0.23677-FIRST-USER_LOG_DATA-PART_02.csv,,,,,,,57.2,48.2,,,,,48.2,57.2,50.0,62.6,48.2,57.2,50.0,64.4,,,47.48,0.0,49.099999999999994,0.8583916083916082,0.8426573426573427,0.00175,1.1806666666666665,329.0,True,2026-01-10 20:11:22 - Flight 18,
72.06,2.0,10.0,2026-01-10 20:12:34,37.08155,-121.59971,322.0,0.1,153.0,-12.6,,,,,0.0,11.0,-1.0,55.6,0.0,-258.0,-0.0,-0.02,1.0,,29.0,14.0,0.0,29.88,-488.0,,,241.0,,,,,0.0,0.0,,,,,,,,,,,,,,,,,,,0.0,9.0,0.0,0.0,30.6,0.0,,0.0,23.8,,,38.0,0.0,0.0,-0.2,0.6,0.2,,,,,9.0,14.0,10.0,16.0,9.0,14.0,10.0,18.0,,,-2.0,1.1,,23.8,3.0,0.0,,,0.653,0.833,0.0,8.6,,,,,,2026-02-01-N890GF-SN35347-17.4.0.23677-FIRST-USER_LOG_DATA-PART_02.csv,,,,,,,57.2,48.2,,,,,48.2,57.2,50.0,60.8,48.2,57.2,50.0,64.4,,,47.48,0.0,49.099999999999994,0.8583916083916082,0.8426573426573427,0.00175,1.3493333333333333,329.0,True,2026-01-10 20:11:22 - Flight 18,
73.06,2.0,10.0,2026-01-10 20:12:35,37.08155,-121.59971,322.0,0.1,153.0,-12.6,,,,,0.0,11.0,-1.1,55.6,0.0,-258.0,-0.0,-0.02,1.0,,29.0,14.0,0.0,29.88,-488.0,,,241.0,,,,,0.0,0.0,,,,,,,,,,,,,,,,,,,0.0,9.0,0.0,0.0,30.6,0.0,,0.0,23.7,,,38.0,0.0,0.0,-0.2,0.6,0.2,,,,,9.0,13.0,10.0,16.0,9.0,14.0,10.0,18.0,,,-2.0,1.1,,23.7,3.0,0.0,,,0.653,0.833,0.0,8.6,,,,,,2026-02-01-N890GF-SN35347-17.4.0.23677-FIRST-USER_LOG_DATA-PART_02.csv,,,,,,,57.2,48.2,,,,,48.2,55.4,50.0,60.8,48.2,57.2,50.0,64.4,,,47.48,0.0,49.099999999999994,0.8583916083916082,0.8426573426573427,0.00175,1.5179999999999998,329.0,True,2026-01-10 20:11:22 - Flight 18,
74.06,2.0,10.0,2026-01-10 20:12:36,37.08155,-121.5997,322.0,0.0,153.0,-12.6,,,,,0.0,11.0,-1.1,55.6,0.0,-258.0,0.0,-0.02,1.0,,43.0,14.0,0.0,29.88,-488.0,,,241.0,,,,,0.0,0.0,,,,,,,,,,,,,,,,,,,0.0,9.0,0.0,0.0,30.6,0.0,,0.0,23.7,,,38.0,0.0,0.0,-0.2,0.6,0.2,,,,,9.0,14.0,10.0,16.0,9.0,14.0,10.0,18.0,,,-2.0,1.0,,23.7,3.0,0.0,,,0.653,0.833,0.0,8.6,,,,,,2026-02-01-N890GF-SN35347-17.4.0.23677-FIRST-USER_LOG_DATA-PART_02.csv,,,,,,,57.2,48.2,,,,,48.2,57.2,50.0,60.8,48.2,57.2,50.0,64.4,,,47.48,0.0,49.099999999999994,0.8583916083916082,0.8426573426573427,0.00175,1.6023333333333332,329.0,True,2026-01-10 20:11:22 - Flight 18,
75.06,2.0,10.0,2026-01-10 20:12:37,37.08155,-121.5997,322.0,0.0,153.0,-12.6,,,,,0.0,11.0,-1.1,55.6,0.0,-258.0,0.0,-0.02,1.0,,18.0,14.0,0.0,29.88,-478.0,,,241.0,,,,,0.0,0.0,,,,,,,,,,,,,,,,,,,0.0,9.0,0.0,0.0,30.6,0.0,,0.0,23.6,,,38.0,0.0,0.0,-0.2,0.6,0.2,,,,,9.0,13.0,10.0,16.0,9.0,14.0,10.0,18.0,,,-2.0,1.0,,23.6,3.0,0.0,,,0.653,0.833,0.0,8.7,,,,,,2026-02-01-N890GF-SN35347-17.4.0.23677-FIRST-USER_LOG_DATA-PART_02.csv,,,,,,,57.2,48.2,,,,,48.2,55.4,50.0,60.8,48.2,57.2,50.0,64.4,,,47.66,0.0,49.099999999999994,0.8583916083916082,0.8426573426573427,0.00175,1.6023333333333332,329.0,True,2026-01-10 20:11:22 - Flight 18,
76.06,2.0,10.0,2026-01-10 20:12:38,37.08155,-121.5997,322.0,0.1,153.0,-12.6,,,,,0.0,11.0,-1.0,55.7,0.0,-258.0,0.0,-0.02,1.0,,5.0,14.0,0.0,29.88,-477.0,,,241.0,,,,,0.0,0.0,,,,,,,,,,,,,,,,,,,0.0,9.0,0.0,0.0,30.6,0.0,,0.0,23.6,,,38.0,0.0,0.0,-0.2,0.6,0.2,,,,,9.0,14.0,10.0,16.0,9.0,14.0,10.0,18.0,,,-2.0,1.0,,23.6,3.0,0.0,,,0.653,0.833,0.0,8.7,,,,,,2026-02-01-N890GF-SN35347-17.4.0.23677-FIRST-USER_LOG_DATA-PART_02.csv,,,,,,,57.2,48.2,,,,,48.2,57.2,50.0,60.8,48.2,57.2,50.0,64.4,,,47.66,0.0,49.099999999999994,0.8583916083916082,0.8426573426573427,0.00175,1.6866666666666665,329.0,True,2026-01-10 20:11:22 - Flight 18,
77.06,2.0,10.0,2026-01-10 20:12:39,37.08158,-121.59969,305.0,0.1,153.0,-12.6,,,,,0.0,11.0,-1.0,55.6,0.0,-258.0,0.0,-0.02,1.0,,13.0,14.0,0.0,29.88,-477.0,,,241.0,,,,,0.0,0.0,,,,,,,,,,,,,,,,,,,0.0,9.0,0.0,0.0,30.6,0.0,,0.0,23.5,,,38.0,0.0,0.0,-0.2,0.6,0.2,,,,,9.0,14.0,10.0,16.0,9.0,14.0,10.0,18.0,,,-2.0,1.0,,23.5,3.0,0.0,,,0.653,0.833,0.0,8.7,,,,,,2026-02-01-N890GF-SN35347-17.4.0.23677-FIRST-USER_LOG_DATA-PART_02.csv,,,,,,,57.2,48.2,,,,,48.2,57.2,50.0,60.8,48.2,57.2,50.0,64.4,,,47.66,0.0,49.099999999999994,0.8583916083916082,0.8426573426573427,0.00175,1.8553333333333333,329.0,True,2026-01-10 20:11:22 - Flight 18,
78.06,2.0,10.0,2026-01-10 20:12:40,37.08159,-121.59969,304.0,0.0,153.0,-12.6,,,,,0.0,11.0,-1.0,55.6,0.0,-258.0,0.0,-0.02,1.0,,-31.0,14.0,0.0,29.88,-477.0,,,241.0,,,,,0.0,0.0,,,,,,,,,,,,,,,,,,,0.0,9.0,0.0,0.0,30.6,0.0,,0.0,23.5,,,38.0,0.0,0.0,-0.3,0.6,0.2,,,,,9.0,14.0,10.0,16.0,9.0,14.0,10.0,18.0,,,-2.0,1.0,,23.5,3.0,0.0,,,0.653,0.833,0.0,8.7,,,,,,2026-02-01-N890GF-SN35347-17.4.0.23677-FIRST-USER_LOG_DATA-PART_02.csv,,,,,,,57.2,48.2,,,,,48.2,57.2,50.0,60.8,48.2,57.2,50.0,64.4,,,47.66,0.0,49.099999999999994,0.8583916083916082,0.8426573426573427,0.00175,1.9396666666666664,329.0,True,2026-01-10 20:11:22 - Flight 18,
79.06,2.0,10.0,2026-01-10 20:12:41,37.08159,-121.59969,304.0,0.1,153.0,-12.6,,,,,0.0,11.0,-1.0,55.6,0.0,-258.0,-0.0,-0.02,1.0,,-19.0,14.0,0.0,29.88,-467.0,,,241.0,,,,,0.0,0.0,,,,,,,,,,,,,,,,,,,0.0,9.0,0.0,0.0,30.6,0.0,,0.0,23.5,,,38.0,0.0,0.0,-0.3,0.6,0.2,,,,,9.0,14.0,10.0,16.0,9.0,14.0,10.0,18.0,,,-2.0,1.0,,23.5,3.0,0.0,,,0.653,0.833,0.0,8.7,,,,,,2026-02-01-N890GF-SN35347-17.4.0.23677-FIRST-USER_LOG_DATA-PART_02.csv,,,,,,,57.2,48.2,,,,,48.2,57.2,50.0,60.8,48.2,57.2,50.0,64.4,,,47.66,0.0,49.099999999999994,0.8583916083916082,0.8426573426573427,0.00175,2.024,329.0,True,2026-01-10 20:11:22 - Flight 18,
80.06,2.0,10.0,2026-01-10 20:12:42,37.0816,-121.59969,303.0,0.0,153.0,-12.6,,,,,0.0,11.0,-1.0,55.6,0.0,-258.0,-0.0,-0.02,1.0,,-27.0,14.0,0.0,29.88,-467.0,,,241.0,,,,,0.0,0.0,,,,,,,,,,,,,,,,,,,0.0,9.0,0.0,0.0,30.6,0.0,,0.0,23.4,,,38.0,0.0,0.0,-0.3,0.6,0.2,,,,,9.0,14.0,10.0,16.0,9.0,14.0,10.0,18.0,,,-2.0,1.0,,23.4,3.0,0.0,,,0.653,0.831,0.0,8.7,,,,,,2026-02-01-N890GF-SN35347-17.4.0.23677-FIRST-USER_LOG_DATA-PART_02.csv,,,,,,,57.2,48.2,,,,,48.2,57.2,50.0,60.8,48.2,57.2,50.0,64.4,,,47.66,0.0,49.099999999999994,0.8583916083916082,0.8426573426573427,0.00175,2.1083333333333334,329.0,True,2026-01-10 20:11:22 - Flight 18,
81.06,2.0,10.0,2026-01-10 20:12:43,37.0816,-121.59968,303.0,0.1,153.0,-12.6,,,,,0.0,11.0,-1.0,55.6,0.0,-258.0,-0.0,-0.02,1.0,,-13.0,14.0,0.0,29.88,-467.0,,,241.0,,,,,0.0,0.0,,,,,,,,,,,,,,,,,,,0.0,9.0,0.0,0.0,30.6,0.0,,0.0,23.4,,,38.0,0.0,0.0,-0.3,0.6,0.2,,,,,9.0,14.0,10.0,17.0,9.0,14.0,10.0,18.0,,,-2.0,1.0,,23.4,3.0,0.0,,,0.653,0.831,0.0,8.7,,,,,,2026-02-01-N890GF-SN35347-17.4.0.23677-FIRST-USER_LOG_DATA-PART_02.csv,,,,,,,57.2,48.2,,,,,48.2,57.2,50.0,62.6,48.2,57.2,50.0,64.4,,,47.66,0.0,49.099999999999994,0.8583916083916082,0.8426573426573427,0.00175,2.1926666666666663,329.0,True,2026-01-10 20:11:22 - Flight 18,
82.06,2.0,10.0,2026-01-10 20:12:44,37.0816,-121.59968,303.0,0.1,153.0,-12.6,,,,,0.0,11.0,-1.0,55.6,0.0,-258.0,-0.0,-0.02,1.0,,-11.0,14.0,0.0,29.88,-467.0,,,241.0,,,,,0.0,0.0,,,,,,,,,,,,,,,,,,,0.0,9.0,0.0,0.0,30.6,0.0,,0.0,23.3,,,38.0,0.0,0.0,-0.3,0.6,0.2,,,,,9.0,14.0,10.0,16.0,9.0,14.0,10.0,18.0,,,-2.0,1.0,,23.3,3.0,0.0,,,0.653,0.831,0.0,8.7,,,,,,2026-02-01-N890GF-SN35347-17.4.0.23677-FIRST-USER_LOG_DATA-PART_02.csv,,,,,,,57.2,48.2,,,,,48.2,57.2,50.0,60.8,48.2,57.2,50.0,64.4,,,47.66,0.0,49.099999999999994,0.8583916083916082,0.8426573426573427,0.00175,2.361333333333333,329.0,True,2026-01-10 20:11:22 - Flight 18,
83.06,2.0,10.0,2026-01-10 20:12:45,37.0816,-121.59968,305.0,0.0,153.0,-12.6,,,,,0.0,11.0,-1.0,55.7,0.0,-258.0,0.0,-0.02,1.0,,-47.0,14.0,0.0,29.88,-467.0,,,241.0,,,,,0.0,0.0,,,,,,,,,,,,,,,,,,,0.0,9.0,0.0,0.0,30.6,0.0,,0.0,23.3,,,38.0,0.0,0.0,-0.3,0.6,0.2,,,,,9.0,14.0,10.0,16.0,9.0,14.0,10.0,18.0,,,-2.0,1.0,,23.3,3.0,0.0,,,0.653,0.831,0.0,8.7,,,,,,2026-02-01-N890GF-SN35347-17.4.0.23677-FIRST-USER_LOG_DATA-PART_02.csv,,,,,,,57.2,48.2,,,,,48.2,57.2,50.0,60.8,48.2,57.2,50.0,64.4,,,47.66,0.0,49.099999999999994,0.8583916083916082,0.8426573426573427,0.00175,2.4456666666666664,329.0,True,2026-01-10 20:11:22 - Flight 18,
84.06,2.0,10.0,2026-01-10 20:12:46,37.0816,-121.59968,305.0,0.1,153.0,-12.6,,,,,0.0,11.1,-1.0,55.7,0.0,-258.0,0.0,-0.02,1.0,,-22.0,14.0,0.0,29.88,-467.0,,,241.0,,,,,0.0,0.0,,,,,,,,,,,,,,,,,,,0.0,9.0,0.0,0.0,30.6,0.0,,0.0,23.3,,,38.0,0.0,0.0,-0.3,0.6,0.2,,,,,9.0,14.0,10.0,16.0,9.0,14.0,10.0,18.0,,,-2.0,1.0,,23.3,3.0,0.0,,,0.653,0.831,0.0,8.7,,,,,,2026-02-01-N890GF-SN35347-17.4.0.23677-FIRST-USER_LOG_DATA-PART_02.csv,,,,,,,57.2,48.2,,,,,48.2,57.2,50.0,60.8,48.2,57.2,50.0,64.4,,,47.66,0.0,49.099999999999994,0.8583916083916082,0.8426573426573427,0.00175,2.53,329.0,True,2026-01-10 20:11:22 - Flight 18,
85.06,2.0,10.0,2026-01-10 20:12:47,37.0816,-121.59968,304.0,0.1,153.0,-12.6,,,,,0.0,11.0,-1.1,55.6,0.0,-258.0,-0.0,-0.02,1.0,,-36.0,14.0,0.0,29.88,-467.0,,,241.0,,,,,0.0,0.0,,,,,,,,,,,,,,,,,,,0.0,9.0,0.0,0.0,30.6,0.0,,0.0,23.2,,,38.0,0.0,0.0,-0.3,0.6,0.2,,,,,9.0,14.0,10.0,16.0,9.0,14.0,10.0,18.0,,,-2.0,1.0,,23.2,3.0,0.0,,,0.653,0.831,0.0,8.7,,,,,,2026-02-01-N890GF-SN35347-17.4.0.23677-FIRST-USER_LOG_DATA-PART_02.csv,,,,,,,57.2,48.2,,,,,48.2,57.2,50.0,60.8,48.2,57.2,50.0,64.4,,,47.66,0.0,49.099999999999994,0.8583916083916082,0.8426573426573427,0.00175,2.6986666666666665,329.0,True,2026-01-10 20:11:22 - Flight 18,
86.06,2.0,10.0,2026-01-10 20:12:48,37.08158,-121.59969,307.0,0.1,153.0,-12.6,,,,,0.0,11.0,-1.1,55.5,0.0,-258.0,-0.0,-0.02,1.0,,-44.0,14.0,0.0,29.88,-466.0,,,241.0,,,,,0.0,0.0,,,,,,,,,,,,,,,,,,,0.0,5.0,0.0,0.0,30.6,0.0,,0.0,22.8,,,38.0,0.0,0.0,-0.3,0.6,0.2,,,,,2.0,5.0,3.0,8.0,2.0,5.0,3.0,9.0,,,-2.0,1.0,,22.8,3.0,0.0,,,0.651,0.83,0.0,5.3,,,,,,2026-02-01-N890GF-SN35347-17.4.0.23677-FIRST-USER_LOG_DATA-PART_02.csv,,,,,,,57.2,41.0,,,,,35.6,41.0,37.4,46.4,35.6,41.0,37.4,48.2,,,41.54,0.0,36.5,0.6381118881118881,0.7167832167832168,0.00175,2.8673333333333333,329.0,True,2026-01-10 20:11:22 - Flight 18,
87.06,2.0,10.0,2026-01-10 20:12:49,37.08158,-121.59969,306.0,0.0,153.0,-12.6,,,,,0.0,11.0,-1.1,55.4,0.0,-258.0,-0.0,-0.02,1.0,,-35.0,14.0,0.0,29.88,-466.0,,,241.0,,,,,0.0,0.0,,,,,,,,,,,,,,,,,,,0.0,7.0,97.0,97.0,30.9,0.0,,0.0,26.4,,,38.0,0.0,0.0,-0.3,0.6,0.2,,,,,5.0,8.0,6.0,12.0,5.0,9.0,6.0,12.0,,,-2.0,0.0,,26.4,3.0,0.0,,,0.652,0.83,0.0,6.8,,,,,,2026-02-01-N890GF-SN35347-17.4.0.23677-FIRST-USER_LOG_DATA-PART_02.csv,,,,,,,57.2,44.6,,,,,41.0,46.4,42.8,53.6,41.0,48.2,42.8,53.6,,,44.239999999999995,97.0,41.9,0.7325174825174825,0.7797202797202797,0.00175,2.9516666666666667,329.0,True,2026-01-10 20:11:22 - Flight 18,
88.06,2.0,10.0,2026-01-10 20:12:50,37.08158,-121.59969,305.0,0.1,153.0,-12.6,,,,,0.0,11.0,-1.1,55.4,0.0,-258.0,0.0,-0.02,1.0,,-34.0,14.0,0.0,29.88,-466.0,,,241.0,,,,,0.0,0.0,,,,,,,,,,,,,,,,,,,0.0,7.0,119.0,119.0,30.5,0.9,,0.9,22.0,,,38.0,0.0,0.0,-0.4,0.6,0.2,,,,,5.0,8.0,6.0,12.0,5.0,8.0,6.0,12.0,,,-2.0,0.0,,22.0,3.0,0.0,,,0.652,0.83,0.1,6.6,,,,,,2026-02-01-N890GF-SN35347-17.4.0.23677-FIRST-USER_LOG_DATA-PART_02.csv,,,,,,,57.2,44.6,,,,,41.0,46.4,42.8,53.6,41.0,46.4,42.8,53.6,,,43.879999999999995,119.0,41.9,0.7325174825174825,0.7797202797202797,0.001875,3.0359999999999996,329.0,True,2026-01-10 20:11:22 - Flight 18,
89.06,2.0,10.0,2026-01-10 20:12:51,37.08158,-121.59969,304.0,0.1,153.0,-12.6,,,,,0.0,11.0,-1.2,55.4,0.0,-258.0,-0.0,-0.02,1.0,,-22.0,14.0,0.0,29.88,-456.0,,,241.0,,,,,0.0,0.0,,,,,,,,,,,,,,,,,,,0.0,7.0,121.0,121.0,30.5,1.7,,1.7,20.8,,,38.0,0.0,0.0,-0.4,0.6,0.2,,,,,5.0,8.0,6.0,12.0,5.0,8.0,6.0,12.0,,,-2.0,0.0,,20.8,3.0,0.0,,,0.652,0.83,0.1,6.6,,,,,,2026-02-01-N890GF-SN35347-17.4.0.23677-FIRST-USER_LOG_DATA-PART_02.csv,,,,,,,57.2,44.6,,,,,41.0,46.4,42.8,53.6,41.0,46.4,42.8,53.6,,,43.879999999999995,121.0,41.9,0.7325174825174825,0.7797202797202797,0.002236111111111111,3.2046666666666663,329.0,True,2026-01-10 20:11:22 - Flight 18,
90.06,2.0,10.0,2026-01-10 20:12:52,37.08158,-121.59969,302.0,0.1,153.0,-12.6,,,,,0.0,11.0,-1.1,55.5,0.0,-258.0,0.0,-0.02,1.0,,-6.0,14.0,0.0,29.88,-456.0,,,241.0,,,,,0.0,0.0,,,,,,,,,,,,,,,,,,,1.0,9.0,624.0,624.0,27.8,2.8,,2.8,25.0,,,38.0,0.0,0.0,-0.4,0.6,0.2,,,,,10.0,41.0,10.0,43.0,10.0,13.0,10.0,36.0,,,-2.0,0.0,,25.0,3.0,0.0,,,0.665,0.831,1.1,8.7,,,10.0,L,,2026-02-01-N890GF-SN35347-17.4.0.23677-FIRST-USER_LOG_DATA-PART_02.csv,,,,,,,57.2,48.2,,,,,50.0,105.8,50.0,109.4,50.0,55.4,50.0,96.8,,,47.66,624.0,50.0,0.8741258741258741,0.8426573426573427,0.002861111111111111,3.373333333333333,329.0,True,2026-01-10 20:11:22 - Flight 18,0.27999999999999997
91.06,2.0,10.0,2026-01-10 20:12:53,37.08154,-121.59968,285.0,0.1,153.0,-12.6,,,,,0.0,11.0,-1.1,55.6,0.0,-258.0,0.0,-0.02,1.0,,32.0,14.0,0.0,29.88,-456.0,,,241.0,,,,,0.0,0.0,,,,,,,,,,,,,,,,,,,3.0,9.0,990.0,990.0,25.5,3.7,,3.7,25.0,,,38.0,0.0,0.0,-0.3,0.6,0.2,,,,,9.0,91.0,11.0,72.0,9.0,15.0,10.0,63.0,,,-2.0,0.0,,25.0,3.0,0.0,,,0.66,0.831,2.5,8.7,,,20.0,L,,2026-02-01-N890GF-SN35347-17.4.0.23677-FIRST-USER_LOG_DATA-PART_02.csv,,,,,,,57.2,48.2,,,,,48.2,195.8,51.8,161.6,48.2,59.0,50.0,145.4,,,47.66,990.0,49.55,0.8662587412587411,0.8426573426573427,0.0037638888888888887,3.542,329.0,True,2026-01-10 20:11:22 - Flight 18,0.185
92.06,2.0,10.0,2026-01-10 20:12:54,37.08154,-121.59968,285.0,0.1,153.0,-12.6,,,,,0.0,11.0,-1.0,55.6,0.0,-258.0,-0.0,-0.02,1.0,,37.0,14.0,0.0,29.88,-456.0,,,241.0,,,,,0.0,0.0,,,,,,,,,,,,,,,,,,,4.0,9.0,1263.0,1263.0,19.5,4.1,,4.1,25.5,,,38.0,0.0,0.0,-0.3,0.6,0.2,,,,,10.0,154.0,11.0,103.0,10.0,77.0,11.0,101.0,,,-2.0,0.0,,25.5,3.0,0.0,,,0.659,0.83,4.1,8.7,,,20.0,R,,2026-02-01-N890GF-SN35347-17.4.0.23677-FIRST-USER_LOG_DATA-PART_02.csv,,,,,,,57.2,48.2,,,,,50.0,309.2,51.8,217.4,50.0,170.6,51.8,213.8,,,47.66,1263.0,50.9,0.8898601398601398,0.8426573426573427,0.0048472222222222215,3.7106666666666666,329.0,True,2026-01-10 20:11:22 - Flight 18,0.205
