Session Time,GPS Fix Quality,Number of Satellites,GPS Date & Time,Latitude (deg),Longitude (deg),GPS Altitude (feet),Ground Speed (knots),Ground Track (deg),Mag Var (deg),Cross Track Error (NM),Destination Waypoint ID,Range to Destination (NM),Bearing to Destination (deg),System Time,Pitch (deg),Roll (deg),Magnetic Heading (deg),Indicated Airspeed (knots),Pressure Altitude (ft),Turn Rate (deg/s),Lateral Accel (g),Vertical Accel(g),Angle of Attack (%),Vertical Speed (ft/min),OAT (deg C),True Airspeed (knots),Barometer Setting (inHg),Density Altitude (ft),Wind Direction (deg),Wind Speed (knots),Heading Bug (deg),Altitude Bug (ft),Airspeed Bug (knots),Vertical Speed Bug (ft/min),Course (deg),CDI Source Type,CDI Source Port,CDI Scale (NM),CDI Deflection (%),Glideslope (%),AP Engaged,AP Roll Mode,AP Roll Force,AP Roll Position (steps),AP Roll Slip (bool),AP Pitch Force,AP Pitch Position (steps),AP Pitch Slip (bool),AP Yaw Force,AP Yaw Position,AP Yaw Slip (bool),Transponder Status,Transponder Reply (bool),Transponder Identing (bool),Transponder Code (octal),Oil Pressure (PSI),Oil Temp (deg C),RPM L,RPM R,Manifold Pressure (inHg),Fuel Flow 1 (gal/hr),Fuel Flow 2 (gal/hr),Total Fuel Flow (gal/hr),Fuel Pressure (PSI),Fuel Level L (gal),Fuel Level R (gal),Fuel Remaining (gal),Volts 1,Volts 2,Amps,Hobbs Time,Tach Time,Thermocouple 1 (deg C),Thermocouple 2 (deg C),Thermocouple 3 (deg C),Thermocouple 4 (deg C),CHT 4 (deg F),EGT 4 (deg F),CHT 3 (deg F),EGT 3 (deg F),CHT 2 (deg F),EGT 2 (deg F),CHT 1 (deg F),EGT 1 (deg F),Thermocouple 13 (deg C),Thermocouple 14 (deg C),ELEV POSITION (%),CO PPM PRESSURE (PSI),GP Input 3,FUEL PRESSURE (PSI),AILERN POSITION (%),CANOPY CONTACT (V),GP Input 7,GP Input 8,LEFT LEVEL (Sensor V),RIGHT LEVEL (Sensor V),OIL PRESSURE (PSI),OIL TEMPERATURE (deg C),GP Input 13,Contacts,Percent Power,EGT Leaning State,Unnamed: 103,RPM,Fuel Flow Integral,Max CHT,Engine Run,Flight ID
0.06,1,9,2026-01-10 20:11:22,37.08152,-121.59966,334.0,0.5,153.0,-12.7,0.0,0,0.0,0.0,0.0,0.0,0.0,0.0,0.0,0.0,0.0,0.0,0.0,0.0,0.0,13.0,0.0,0.0,0.0,0.0,0.0,241.0,0.0,110.0,0.0,0.0,0.0,0.0,0.0,0.0,0.0,0.0,0.0,0.0,0.0,0.0,0.0,0.0,0.0,0.0,0.0,0.0,0.0,0.0,0.0,0.0,0.0,0.0,0.0,0.0,0.0,0.0,0.0,0.0,0.0,0.0,0.0,38.0,0.0,0.0,0.0,0.6,0.2,0.0,0.0,0.0,0.0,0.0,0.0,0.0,0.0,0.0,0.0,0.0,0.0,0.0,0.0,0.0,0.0,0.0,0.0,0.0,0.0,0.0,0.0,0.0,0.0,0.0,0.0,0.0,0.0,0.0,0,0.0,0.0,0.0,329.0,True,2026-01-10 20:11:22 - Flight 3
1.06,1,9,2026-01-10 20:11:23,37.08152,-121.59965,334.0,0.0,153.0,-12.6,0.0,0,0.0,0.0,0.0,10.9,-0.9,55.9,0.0,-207.0,0.0,-0.02,1.0,0.0,-72.0,13.0,0.0,29.88,-535.0,0.0,0.0,241.0,0.0,110.0,0.0,0.0,0.0,0.0,0.0,0.0,0.0,0.0,0.0,0.0,0.0,0.0,0.0,0.0,0.0,0.0,0.0,0.0,0.0,0.0,0.0,0.0,0.0,0.0,0.0,0.0,0.0,0.0,0.0,0.0,0.0,0.0,0.0,38.0,0.0,0.0,-0.2,0.6,0.2,0.0,0.0,0.0,0.0,46.4,55.4,48.2,59.0,48.2,55.4,48.2,60.8,0.0,0.0,-2.0,254.5,0.0,0.0,3.0,0.0,0.0,0.0,0.653,0.837,0.0,56.1,0.0,0.0,0.0,0,0.0,0.0,0.0,329.0,True,2026-01-10 20:11:22 - Flight 3
2.06,1,9,2026-01-10 20:11:24,37.08152,-121.59965,334.0,0.0,153.0,-12.6,0.0,0,0.0,0.0,0.0,10.8,-0.9,55.9,0.0,-209.0,-0.0,-0.02,1.0,0.0,-98.0,13.0,0.0,29.88,-535.0,0.0,0.0,241.0,0.0,110.0,0.0,0.0,0.0,0.0,0.0,0.0,0.0,0.0,0.0,0.0,0.0,0.0,0.0,0.0,0.0,0.0,0.0,0.0,0.0,0.0,0.0,0.0,0.0,0.0,0.0,0.0,0.0,0.0,0.0,0.0,0.0,0.0,0.0,38.0,0.0,0.0,-0.2,0.6,0.2,0.0,0.0,0.0,0.0,46.4,55.4,48.2,59.0,48.2,55.4,48.2,60.8,0.0,0.0,-2.0,254.5,0.0,0.0,3.0,0.0,0.0,0.0,0.653,0.837,0.0,56.1,0.0,0.0,0.0,0,0.0,0.0,0.0,329.0,True,2026-01-10 20:11:22 - Flight 3
3.06,1,9,2026-01-10 20:11:25,37.08153,-121.59965,333.0,0.0,153.0,-12.6,0.0,0,0.0,0.0,0.0,10.8,-0.9,56.0,0.0,-210.0,0.0,-0.02,1.0,0.0,-83.0,13.0,0.0,29.88,-535.0,0.0,0.0,241.0,0.0,110.0,0.0,0.0,0.0,0.0,0.0,0.0,0.0,0.0,0.0,0.0,0.0,0.0,0.0,0.0,0.0,0.0,0.0,0.0,0.0,0.0,0.0,0.0,0.0,0.0,0.0,0.0,0.0,0.0,0.0,0.0,0.0,0.0,0.0,38.0,0.0,0.0,-0.2,0.6,0.2,0.0,0.0,0.0,0.0,46.4,55.4,48.2,59.0,48.2,55.4,48.2,60.8,0.0,0.0,-2.0,254.5,0.0,0.0,3.0,0.0,0.0,0.0,0.653,0.837,0.0,8.4,0.0,0.0,0.0,0,0.0,0.0,0.0,329.0,True,2026-01-10 20:11:22 - Flight 3
4.06,1,9,2026-01-10 20:11:27,37.08153,-121.59964,333.0,0.0,153.0,-12.6,0.0,0,0.0,0.0,0.0,10.9,-0.9,56.0,0.0,-212.0,0.0,-0.02,1.0,0.0,-76.0,13.0,0.0,29.88,-531.0,0.0,0.0,241.0,0.0,110.0,0.0,0.0,0.0,0.0,0.0,0.0,0.0,0.0,0.0,0.0,0.0,0.0,0.0,0.0,0.0,0.0,0.0,0.0,0.0,0.0,0.0,0.0,0.0,0.0,0.0,0.0,0.0,0.0,0.0,0.0,0.0,0.0,0.0,38.0,0.0,0.0,-0.2,0.6,0.2,0.0,0.0,0.0,0.0,46.4,55.4,48.2,60.8,48.2,55.4,48.2,60.8,0.0,0.0,-2.0,254.5,0.0,0.0,3.0,0.0,0.0,0.0,0.653,0.836,0.0,8.4,0.0,0.0,0.0,0,0.0,0.0,0.0,329.0,True,2026-01-10 20:11:22 - Flight 3
5.06,1,9,2026-01-10 20:11:27,37.08153,-121.59964,333.0,0.0,153.0,-12.6,0.0,0,0.0,0.0,0.0,10.9,-0.9,56.0,0.0,-212.0,0.0,-0.02,1.0,0.0,-73.0,13.0,0.0,29.88,-531.0,0.0,0.0,241.0,0.0,0.0,0.0,0.0,0.0,0.0,0.0,0.0,0.0,0.0,0.0,0.0,0.0,0.0,0.0,0.0,0.0,0.0,0.0,0.0,0.0,0.0,0.0,0.0,0.0,8.0,0.0,0.0,30.6,0.0,0.0,0.0,0.0,0.0,0.0,38.0,0.0,0.0,-0.2,0.6,0.2,0.0,0.0,0.0,0.0,46.4,55.4,48.2,60.8,48.2,55.4,48.2,60.8,0.0,0.0,-2.0,254.5,0.0,0.0,3.0,0.0,0.0,0.0,0.653,0.836,0.0,8.4,0.0,0.0,0.0,0,0.0,0.0,0.0,329.0,True,2026-01-10 20:11:22 - Flight 3
6.06,1,9,2026-01-10 20:11:28,37.08154,-121.59964,333.0,0.1,153.0,-12.6,0.0,0,0.0,0.0,0.0,10.9,-1.0,56.0,0.0,-212.0,0.0,-0.02,1.0,0.0,-43.0,13.0,0.0,29.88,-531.0,0.0,0.0,241.0,0.0,0.0,0.0,0.0,0.0,0.0,0.0,0.0,0.0,0.0,0.0,0.0,0.0,0.0,0.0,0.0,0.0,0.0,0.0,0.0,0.0,0.0,0.0,0.0,0.0,8.0,0.0,0.0,30.6,0.0,0.0,0.0,0.0,0.0,0.0,38.0,0.0,0.0,-0.2,0.6,0.2,0.0,0.0,0.0,0.0,46.4,55.4,48.2,59.0,48.2,55.4,48.2,60.8,0.0,0.0,-2.0,254.5,0.0,0.0,3.0,0.0,0.0,0.0,0.653,0.836,0.0,8.4,0.0,0.0,0.0,0,0.0,0.0,0.0,329.0,True,2026-01-10 20:11:22 - Flight 3
7.06,1,9,2026-01-10 20:11:29,37.08154,-121.59963,333.0,0.0,153.0,-12.6,0.0,0,0.0,0.0,0.0,10.9,-1.0,55.9,0.0,-212.0,0.0,-0.02,1.0,0.0,-12.0,13.0,0.0,29.88,-533.0,0.0,0.0,241.0,0.0,0.0,0.0,0.0,0.0,0.0,0.0,0.0,0.0,0.0,0.0,0.0,0.0,0.0,0.0,0.0,0.0,0.0,0.0,0.0,0.0,0.0,0.0,0.0,0.0,8.0,0.0,0.0,30.6,0.0,0.0,0.0,0.0,0.0,0.0,38.0,0.0,0.0,-0.2,0.6,0.2,0.0,0.0,0.0,0.0,46.4,55.4,48.2,59.0,48.2,55.4,48.2,60.8,0.0,0.0,-2.0,254.5,0.0,0.0,3.0,0.0,0.0,0.0,0.653,0.836,0.0,8.4,0.0,0.0,0.0,0,0.0,0.0,0.0,329.0,True,2026-01-10 20:11:22 - Flight 3
8.06,1,9,2026-01-10 20:11:30,37.08154,-121.59963,333.0,0.0,153.0,-12.6,0.0,0,0.0,0.0,0.0,10.9,-1.0,55.9,0.0,-212.0,0.0,-0.02,1.0,0.0,15.0,13.0,0.0,29.88,-532.0,0.0,0.0,241.0,0.0,0.0,0.0,0.0,0.0,0.0,0.0,0.0,0.0,0.0,0.0,0.0,0.0,0.0,0.0,0.0,0.0,0.0,0.0,0.0,0.0,0.0,0.0,0.0,0.0,8.0,0.0,0.0,30.6,0.0,0.0,0.0,0.0,0.0,0.0,38.0,0.0,0.0,-0.2,0.6,0.2,0.0,0.0,0.0,0.0,46.4,55.4,48.2,59.0,48.2,55.4,48.2,60.8,0.0,0.0,-2.0,254.5,0.0,0.0,3.0,0.0,0.0,0.0,0.653,0.836,0.0,8.4,0.0,0.0,0.0,0,0.0,0.0,0.0,329.0,True,2026-01-10 20:11:22 - Flight 3
9.06,1,9,2026-01-10 20:11:31,37.08154,-121.59963,333.0,0.0,153.0,-12.6,0.0,0,0.0,0.0,0.0,11.0,-0.9,55.9,0.0,-212.0,0.0,-0.02,1.0,0.0,32.0,13.0,0.0,29.88,-532.0,0.0,0.0,241.0,0.0,0.0,0.0,0.0,0.0,0.0,0.0,0.0,0.0,0.0,0.0,0.0,0.0,0.0,0.0,0.0,0.0,0.0,0.0,0.0,0.0,0.0,0.0,0.0,0.0,8.0,0.0,0.0,30.6,0.0,0.0,0.0,0.0,0.0,0.0,38.0,0.0,0.0,-0.2,0.6,0.2,0.0,0.0,0.0,0.0,48.2,55.4,48.2,60.8,48.2,55.4,48.2,60.8,0.0,0.0,-2.0,254.5,0.0,0.0,3.0,0.0,0.0,0.0,0.653,0.835,0.0,8.4,0.0,0.0,0.0,0,0.0,0.0,0.0,329.0,True,2026-01-10 20:11:22 - Flight 3
10.06,1,9,2026-01-10 20:11:32,37.08155,-121.59963,332.0,0.0,153.0,-12.6,0.0,0,0.0,0.0,0.0,11.0,-0.9,55.8,0.0,-212.0,0.0,-0.02,1.0,0.0,25.0,13.0,0.0,29.88,-532.0,0.0,0.0,241.0,0.0,0.0,0.0,0.0,0.0,0.0,0.0,0.0,0.0,0.0,0.0,0.0,0.0,0.0,0.0,0.0,0.0,0.0,0.0,0.0,0.0,0.0,0.0,0.0,0.0,8.0,0.0,0.0,30.6,0.0,0.0,0.0,0.0,0.0,0.0,38.0,0.0,0.0,-0.2,0.6,0.2,0.0,0.0,0.0,0.0,46.4,55.4,48.2,59.0,48.2,55.4,48.2,60.8,0.0,0.0,-2.0,254.5,0.0,0.0,3.0,0.0,0.0,0.0,0.653,0.835,0.0,8.4,0.0,0.0,0.0,0,0.0,0.0,0.0,329.0,True,2026-01-10 20:11:22 - Flight 3
11.06,1,9,2026-01-10 20:11:33,37.08155,-121.59963,331.0,0.0,153.0,-12.6,0.0,0,0.0,0.0,0.0,11.0,-1.0,55.9,0.0,-212.0,0.0,-0.02,1.0,0.0,20.0,13.0,0.0,29.88,-522.0,0.0,0.0,241.0,0.0,0.0,0.0,0.0,0.0,0.0,0.0,0.0,0.0,0.0,0.0,0.0,0.0,0.0,0.0,0.0,0.0,0.0,0.0,0.0,0.0,0.0,0.0,0.0,0.0,8.0,0.0,0.0,30.6,0.0,0.0,0.0,0.0,0.0,0.0,38.0,0.0,0.0,-0.2,0.6,0.2,0.0,0.0,0.0,0.0,46.4,55.4,48.2,59.0,48.2,55.4,48.2,60.8,0.0,0.0,-2.0,254.5,0.0,0.0,3.0,0.0,0.0,0.0,0.653,0.835,0.0,8.4,0.0,0.0,0.0,0,0.0,0.0,0.0,329.0,True,2026-01-10 20:11:22 - Flight 3
12.06,1,9,2026-01-10 20:11:34,37.08155,-121.59963,331.0,0.0,153.0,-12.6,0.0,0,0.0,0.0,0.0,11.0,-1.0,55.8,0.0,-212.0,0.0,-0.02,1.0,0.0,-11.0,13.0,0.0,29.88,-522.0,0.0,0.0,241.0,0.0,0.0,0.0,0.0,0.0,0.0,0.0,0.0,0.0,0.0,0.0,0.0,0.0,0.0,0.0,0.0,0.0,0.0,0.0,0.0,0.0,0.0,0.0,0.0,0.0,8.0,0.0,0.0,30.6,0.0,0.0,0.0,0.0,0.0,0.0,38.0,0.0,0.0,-0.2,0.6,0.2,0.0,0.0,0.0,0.0,46.4,55.4,48.2,59.0,48.2,55.4,48.2,60.8,0.0,0.0,-2.0,254.5,0.0,0.0,3.0,0.0,0.0,0.0,0.653,0.835,0.0,8.4,0.0,0.0,0.0,0,0.0,0.0,0.0,329.0,True,2026-01-10 20:11:22 - Flight 3
13.06,1,9,2026-01-10 20:11:35,37.08155,-121.59963,330.0,0.0,153.0,-12.6,0.0,0,0.0,0.0,0.0,11.0,-1.0,55.7,0.0,-212.0,-0.0,-0.02,1.0,0.0,-10.0,13.0,0.0,29.88,-522.0,0.0,0.0,241.0,0.0,0.0,0.0,0.0,0.0,0.0,0.0,0.0,0.0,0.0,0.0,0.0,0.0,0.0,0.0,0.0,0.0,0.0,0.0,0.0,0.0,0.0,0.0,0.0,0.0,8.0,0.0,0.0,30.6,0.0,0.0,0.0,0.0,0.0,0.0,38.0,0.0,0.0,-0.2,0.6,0.2,0.0,0.0,0.0,0.0,48.2,55.4,48.2,59.0,48.2,55.4,50.0,60.8,0.0,0.0,-2.0,254.5,0.0,0.0,3.0,0.0,0.0,0.0,0.653,0.835,0.0,8.4,0.0,0.0,0.0,0,0.0,0.0,0.0,329.0,True,2026-01-10 20:11:22 - Flight 3
14.06,1,9,2026-01-10 20:11:36,37.08155,-121.59963,329.0,0.0,153.0,-12.6,0.0,0,0.0,0.0,0.0,11.0,-1.0,55.7,0.0,-212.0,-0.0,-0.02,1.0,0.0,-19.0,13.0,0.0,29.88,-522.0,0.0,0.0,241.0,0.0,0.0,0.0,0.0,0.0,0.0,0.0,0.0,0.0,0.0,0.0,0.0,0.0,0.0,0.0,0.0,0.0,0.0,0.0,0.0,0.0,0.0,0.0,0.0,0.0,8.0,0.0,0.0,30.6,0.0,0.0,0.0,0.0,0.0,0.0,38.0,0.0,0.0,-0.2,0.6,0.2,0.0,0.0,0.0,0.0,48.2,55.4,48.2,59.0,48.2,55.4,48.2,60.8,0.0,0.0,-2.0,254.5,0.0,0.0,3.0,0.0,0.0,0.0,0.653,0.834,0.0,8.4,0.0,0.0,0.0,0,0.0,0.0,0.0,329.0,True,2026-01-10 20:11:22 - Flight 3
15.06,1,9,2026-01-10 20:11:37,37.08155,-121.59963,329.0,0.0,153.0,-12.6,0.0,0,0.0,0.0,0.0,11.0,-1.0,55.7,0.0,-214.0,-0.0,-0.02,1.0,0.0,-75.0,13.0,0.0,29.88,-522.0,0.0,0.0,241.0,0.0,0.0,0.0,0.0,0.0,0.0,0.0,0.0,0.0,0.0,0.0,0.0,0.0,0.0,0.0,0.0,0.0,0.0,0.0,0.0,0.0,0.0,0.0,0.0,0.0,8.0,0.0,0.0,30.6,0.0,0.0,0.0,0.0,0.0,0.0,38.0,0.0,0.0,-0.2,0.6,0.2,0.0,0.0,0.0,0.0,48.2,55.4,48.2,59.0,48.2,55.4,48.2,60.8,0.0,0.0,-2.0,254.5,0.0,0.0,3.0,0.0,0.0,0.0,0.653,0.835,0.0,8.4,0.0,0.0,0.0,0,0.0,0.0,0.0,329.0,True,2026-01-10 20:11:22 - Flight 3
16.06,1,9,2026-01-10 20:11:38,37.08156,-121.59963,328.0,0.0,153.0,-12.6,0.0,0,0.0,0.0,0.0,11.0,-1.0,55.6,0.0,-216.0,0.0,-0.02,1.0,0.0,-95.0,13.0,0.0,29.88,-522.0,0.0,0.0,241.0,0.0,0.0,0.0,0.0,0.0,0.0,0.0,0.0,0.0,0.0,0.0,0.0,0.0,0.0,0.0,0.0,0.0,0.0,0.0,0.0,0.0,0.0,0.0,0.0,0.0,8.0,0.0,0.0,30.6,0.0,0.0,0.0,0.0,0.0,0.0,38.0,0.0,0.0,-0.2,0.6,0.2,0.0,0.0,0.0,0.0,48.2,55.4,48.2,60.8,48.2,57.2,50.0,62.6,0.0,0.0,-2.0,254.5,0.0,0.0,3.0,0.0,0.0,0.0,0.653,0.834,0.0,8.4,0.0,0.0,0.0,0,0.0,0.0,0.0,329.0,True,2026-01-10 20:11:22 - Flight 3
17.06,1,9,2026-01-10 20:11:39,37.08156,-121.59963,327.0,0.0,153.0,-12.6,0.0,0,0.0,0.0,0.0,11.0,-1.0,55.7,0.0,-217.0,-0.0,-0.02,1.0,0.0,-92.0,13.0,0.0,29.88,-522.0,0.0,0.0,241.0,0.0,0.0,0.0,0.0,0.0,0.0,0.0,0.0,0.0,0.0,0.0,0.0,0.0,0.0,0.0,0.0,0.0,0.0,0.0,0.0,0.0,0.0,0.0,0.0,0.0,8.0,0.0,0.0,30.6,0.0,0.0,0.0,0.0,0.0,0.0,38.0,0.0,0.0,-0.2,0.6,0.2,0.0,0.0,0.0,0.0,48.2,55.4,48.2,60.8,48.2,55.4,48.2,60.8,0.0,0.0,-2.0,254.5,0.0,0.0,3.0,0.0,0.0,0.0,0.653,0.834,0.0,8.4,0.0,0.0,0.0,0,0.0,0.0,0.0,329.0,True,2026-01-10 20:11:22 - Flight 3
18.06,1,9,2026-01-10 20:11:40,37.08156,-121.59963,327.0,0.0,153.0,-12.6,0.0,0,0.0,0.0,0.0,11.0,-1.0,55.6,0.0,-219.0,-0.0,-0.02,1.0,0.0,-89.0,13.0,0.0,29.88,-518.0,0.0,0.0,241.0,0.0,0.0,0.0,0.0,0.0,0.0,0.0,0.0,0.0,0.0,0.0,0.0,0.0,0.0,0.0,0.0,0.0,0.0,0.0,0.0,0.0,0.0,0.0,0.0,0.0,8.0,0.0,0.0,30.6,0.0,0.0,0.0,0.0,0.0,0.0,38.0,0.0,0.0,-0.2,0.6,0.2,0.0,0.0,0.0,0.0,48.2,55.4,48.2,60.8,48.2,55.4,50.0,60.8,0.0,0.0,-2.0,254.5,0.0,0.0,3.0,0.0,0.0,0.0,0.653,0.834,0.0,8.4,0.0,0.0,0.0,0,0.0,0.0,0.0,329.0,True,2026-01-10 20:11:22 - Flight 3
19.06,1,9,2026-01-10 20:11:41,37.08156,-121.59963,327.0,0.0,153.0,-12.6,0.0,0,0.0,0.0,0.0,11.0,-1.0,55.7,0.0,-221.0,0.0,-0.02,1.0,0.0,-129.0,13.0,0.0,29.88,-518.0,0.0,0.0,241.0,0.0,0.0,0.0,0.0,0.0,0.0,0.0,0.0,0.0,0.0,0.0,0.0,0.0,0.0,0.0,0.0,0.0,0.0,0.0,0.0,0.0,0.0,0.0,0.0,0.0,8.0,0.0,0.0,30.6,0.0,0.0,0.0,0.0,0.0,0.0,38.0,0.0,0.0,-0.2,0.6,0.2,0.0,0.0,0.0,0.0,48.2,55.4,48.2,60.8,48.2,57.2,50.0,62.6,0.0,0.0,-2.0,254.5,0.0,0.0,3.0,0.0,0.0,0.0,0.653,0.834,0.0,8.4,0.0,0.0,0.0,0,0.0,0.0,0.0,329.0,True,2026-01-10 20:11:22 - Flight 3
20.06,1,9,2026-01-10 20:11:42,37.08156,-121.59963,327.0,0.0,153.0,-12.6,0.0,0,0.0,0.0,0.0,11.0,-1.1,55.7,0.0,-223.0,0.0,-0.02,1.0,0.0,-110.0,13.0,0.0,29.88,-518.0,0.0,0.0,241.0,0.0,0.0,0.0,0.0,0.0,0.0,0.0,0.0,0.0,0.0,0.0,0.0,0.0,0.0,0.0,0.0,0.0,0.0,0.0,0.0,0.0,0.0,0.0,0.0,0.0,8.0,0.0,0.0,30.6,0.0,0.0,0.0,0.0,0.0,0.0,38.0,0.0,0.0,-0.2,0.6,0.2,0.0,0.0,0.0,0.0,48.2,55.4,48.2,60.8,48.2,55.4,48.2,60.8,0.0,0.0,-2.0,254.5,0.0,0.0,3.0,0.0,0.0,0.0,0.653,0.834,0.0,8.5,0.0,0.0,0.0,0,0.0,0.0,0.0,329.0,True,2026-01-10 20:11:22 - Flight 3
21.06,1,9,2026-01-10 20:11:43,37.08156,-121.59963,326.0,0.0,153.0,-12.6,0.0,0,0.0,0.0,0.0,11.0,-1.1,55.7,0.0,-226.0,0.0,-0.02,1.0,0.0,-122.0,13.0,0.0,29.88,-515.0,0.0,0.0,241.0,0.0,0.0,0.0,0.0,0.0,0.0,0.0,0.0,0.0,0.0,0.0,0.0,0.0,0.0,0.0,0.0,0.0,0.0,0.0,0.0,0.0,0.0,0.0,0.0,0.0,8.0,0.0,0.0,30.6,0.0,0.0,0.0,0.0,0.0,0.0,38.0,0.0,0.0,-0.2,0.6,0.2,0.0,0.0,0.0,0.0,48.2,55.4,48.2,60.8,48.2,55.4,50.0,60.8,0.0,0.0,-2.0,254.5,0.0,0.0,3.0,0.0,0.0,0.0,0.653,0.834,0.0,8.5,0.0,0.0,0.0,0,0.0,0.0,0.0,329.0,True,2026-01-10 20:11:22 - Flight 3
22.06,1,9,2026-01-10 20:11:44,37.08156,-121.59963,326.0,0.0,153.0,-12.6,0.0,0,0.0,0.0,0.0,11.0,-1.1,55.7,0.0,-226.0,0.0,-0.02,1.0,0.0,-114.0,13.0,0.0,29.88,-515.0,0.0,0.0,241.0,0.0,0.0,0.0,0.0,0.0,0.0,0.0,0.0,0.0,0.0,0.0,0.0,0.0,0.0,0.0,0.0,0.0,0.0,0.0,0.0,0.0,0.0,0.0,0.0,0.0,8.0,0.0,0.0,30.6,0.0,0.0,0.0,0.0,0.0,0.0,38.0,0.0,0.0,-0.2,0.6,0.2,0.0,0.0,0.0,0.0,48.2,55.4,48.2,60.8,48.2,55.4,48.2,60.8,0.0,0.0,-2.0,254.5,0.0,0.0,3.0,0.0,0.0,0.0,0.653,0.834,0.0,8.5,0.0,0.0,0.0,0,0.0,0.0,0.0,329.0,True,2026-01-10 20:11:22 - Flight 3
23.06,1,9,2026-01-10 20:11:45,37.08156,-121.59964,326.0,0.0,153.0,-12.6,0.0,0,0.0,0.0,0.0,11.0,-1.1,55.7,0.0,-227.0,0.0,-0.02,1.0,0.0,-85.0,13.0,0.0,29.88,-515.0,0.0,0.0,241.0,0.0,0.0,0.0,0.0,0.0,0.0,0.0,0.0,0.0,0.0,0.0,0.0,0.0,0.0,0.0,0.0,0.0,0.0,0.0,0.0,0.0,0.0,0.0,0.0,0.0,8.0,0.0,0.0,30.6,0.0,0.0,0.0,0.0,0.0,0.0,38.0,0.0,0.0,-0.2,0.6,0.2,0.0,0.0,0.0,0.0,48.2,55.4,48.2,60.8,48.2,55.4,50.0,60.8,0.0,0.0,-2.0,254.5,0.0,0.0,3.0,0.0,0.0,0.0,0.653,0.833,0.0,8.5,0.0,0.0,0.0,0,0.0,0.0,0.0,329.0,True,2026-01-10 20:11:22 - Flight 3
24.06,1,9,2026-01-10 20:11:46,37.08156,-121.59964,325.0,0.0,153.0,-12.6,0.0,0,0.0,0.0,0.0,11.0,-1.1,55.7,0.0,-231.0,0.0,-0.02,1.0,0.0,-145.0,13.0,0.0,29.88,-522.0,0.0,0.0,241.0,0.0,0.0,0.0,0.0,0.0,0.0,0.0,0.0,0.0,0.0,0.0,0.0,0.0,0.0,0.0,0.0,0.0,0.0,0.0,0.0,0.0,0.0,0.0,0.0,0.0,8.0,0.0,0.0,30.6,0.0,0.0,0.0,0.0,0.0,0.0,38.0,0.0,0.0,-0.2,0.6,0.2,0.0,0.0,0.0,0.0,48.2,55.4,48.2,60.8,48.2,55.4,48.2,62.6,0.0,0.0,-2.0,254.5,0.0,0.0,3.0,0.0,0.0,0.0,0.653,0.833,0.0,8.5,0.0,0.0,0.0,0,0.0,0.0,0.0,329.0,True,2026-01-10 20:11:22 - Flight 3
25.06,1,9,2026-01-10 20:11:47,37.08156,-121.59964,325.0,0.0,153.0,-12.6,0.0,0,0.0,0.0,0.0,11.0,-1.1,55.6,0.0,-233.0,0.0,-0.02,1.0,0.0,-131.0,13.0,0.0,29.88,-522.0,0.0,0.0,241.0,0.0,0.0,0.0,0.0,0.0,0.0,0.0,0.0,0.0,0.0,0.0,0.0,0.0,0.0,0.0,0.0,0.0,0.0,0.0,0.0,0.0,0.0,0.0,0.0,0.0,8.0,0.0,0.0,30.6,0.0,0.0,0.0,0.0,0.0,0.0,38.0,0.0,0.0,-0.2,0.6,0.2,0.0,0.0,0.0,0.0,48.2,55.4,48.2,60.8,48.2,57.2,50.0,62.6,0.0,0.0,-2.0,254.5,0.0,0.0,3.0,0.0,0.0,0.0,0.653,0.833,0.0,8.5,0.0,0.0,0.0,0,0.0,0.0,0.0,329.0,True,2026-01-10 20:11:22 - Flight 3
26.06,1,9,2026-01-10 20:11:48,37.08156,-121.59964,325.0,0.0,153.0,-12.6,0.0,0,0.0,0.0,0.0,11.0,-1.1,55.6,0.0,-235.0,-0.0,-0.02,1.0,0.0,-126.0,13.0,0.0,29.88,-522.0,0.0,0.0,241.0,0.0,0.0,0.0,0.0,0.0,0.0,0.0,0.0,0.0,0.0,0.0,0.0,0.0,0.0,0.0,0.0,0.0,0.0,0.0,0.0,0.0,0.0,0.0,0.0,0.0,8.0,0.0,0.0,30.6,0.0,0.0,0.0,0.0,0.0,0.0,38.0,0.0,0.0,-0.2,0.6,0.2,0.0,0.0,0.0,0.0,48.2,55.4,48.2,60.8,48.2,55.4,48.2,62.6,0.0,0.0,-2.0,254.5,0.0,0.0,3.0,0.0,0.0,0.0,0.653,0.833,0.0,8.5,0.0,0.0,0.0,0,0.0,0.0,0.0,329.0,True,2026-01-10 20:11:22 - Flight 3
27.06,1,9,2026-01-10 20:11:49,37.08156,-121.59964,325.0,0.0,153.0,-12.6,0.0,0,0.0,0.0,0.0,11.0,-1.1,55.6,0.0,-236.0,0.0,-0.02,1.0,0.0,-102.0,13.0,0.0,29.88,-529.0,0.0,0.0,241.0,0.0,0.0,0.0,0.0,0.0,0.0,0.0,0.0,0.0,0.0,0.0,0.0,0.0,0.0,0.0,0.0,0.0,0.0,0.0,0.0,0.0,0.0,0.0,0.0,0.0,8.0,0.0,0.0,30.6,0.0,0.0,0.0,0.0,0.0,0.0,38.0,0.0,0.0,-0.2,0.6,0.2,0.0,0.0,0.0,0.0,48.2,55.4,48.2,60.8,48.2,55.4,48.2,62.6,0.0,0.0,-2.0,254.5,0.0,0.0,3.0,0.0,0.0,0.0,0.653,0.833,0.0,8.5,0.0,0.0,0.0,0,0.0,0.0,0.0,329.0,True,2026-01-10 20:11:22 - Flight 3
28.06,1,9,2026-01-10 20:11:50,37.08156,-121.59964,324.0,0.0,153.0,-12.6,0.0,0,0.0,0.0,0.0,10.9,-1.1,55.6,0.0,-237.0,0.0,-0.02,1.0,0.0,-88.0,13.0,0.0,29.88,-529.0,0.0,0.0,241.0,0.0,0.0,0.0,0.0,0.0,0.0,0.0,0.0,0.0,0.0,0.0,0.0,0.0,0.0,0.0,0.0,0.0,0.0,0.0,0.0,0.0,0.0,0.0,0.0,0.0,8.0,0.0,0.0,30.6,0.0,0.0,0.0,0.0,0.0,0.0,38.0,0.0,0.0,-0.2,0.6,0.2,0.0,0.0,0.0,0.0,48.2,55.4,48.2,60.8,48.2,55.4,50.0,62.6,0.0,0.0,-2.0,254.5,0.0,0.0,3.0,0.0,0.0,0.0,0.653,0.831,0.0,8.5,0.0,0.0,0.0,0,0.0,0.0,0.0,329.0,True,2026-01-10 20:11:22 - Flight 3
29.06,1,9,2026-01-10 20:11:51,37.08156,-121.59964,324.0,0.0,153.0,-12.6,0.0,0,0.0,0.0,0.0,10.9,-1.1,55.7,0.0,-238.0,0.0,-0.02,1.0,0.0,-63.0,13.0,0.0,29.88,-529.0,0.0,0.0,241.0,0.0,0.0,0.0,0.0,0.0,0.0,0.0,0.0,0.0,0.0,0.0,0.0,0.0,0.0,0.0,0.0,0.0,0.0,0.0,0.0,0.0,0.0,0.0,0.0,0.0,8.0,0.0,0.0,30.6,0.0,0.0,0.0,0.0,0.0,0.0,38.0,0.0,0.0,-0.2,0.6,0.2,0.0,0.0,0.0,0.0,48.2,55.4,48.2,60.8,48.2,57.2,50.0,62.6,0.0,0.0,-2.0,254.5,0.0,0.0,3.0,0.0,0.0,0.0,0.653,0.831,0.0,8.5,0.0,0.0,0.0,0,0.0,0.0,0.0,329.0,True,2026-01-10 20:11:22 - Flight 3
30.06,1,9,2026-01-10 20:11:52,37.08156,-121.59964,324.0,0.0,153.0,-12.6,0.0,0,0.0,0.0,0.0,11.0,-1.1,55.7,0.0,-240.0,0.0,-0.02,1.0,0.0,-84.0,13.0,0.0,29.88,-529.0,0.0,0.0,241.0,0.0,0.0,0.0,0.0,0.0,0.0,0.0,0.0,0.0,0.0,0.0,0.0,0.0,0.0,0.0,0.0,0.0,0.0,0.0,0.0,0.0,0.0,0.0,0.0,0.0,8.0,0.0,0.0,30.6,0.0,0.0,0.0,0.0,0.0,0.0,38.0,0.0,0.0,-0.2,0.6,0.2,0.0,0.0,0.0,0.0,48.2,55.4,48.2,60.8,48.2,55.4,50.0,62.6,0.0,0.0,-2.0,254.5,0.0,0.0,3.0,0.0,0.0,0.0,0.653,0.831,0.0,8.5,0.0,0.0,0.0,0,0.0,0.0,0.0,329.0,True,2026-01-10 20:11:22 - Flight 3
31.06,1,9,2026-01-10 20:11:53,37.08156,-121.59964,324.0,0.0,153.0,-12.6,0.0,0,0.0,0.0,0.0,11.0,-1.0,55.7,0.0,-242.0,0.0,-0.02,1.0,0.0,-118.0,13.0,0.0,29.88,-525.0,0.0,0.0,241.0,0.0,0.0,0.0,0.0,0.0,0.0,0.0,0.0,0.0,0.0,0.0,0.0,0.0,0.0,0.0,0.0,0.0,0.0,0.0,0.0,0.0,0.0,0.0,0.0,0.0,8.0,0.0,0.0,30.6,0.0,0.0,0.0,0.0,0.0,0.0,38.0,0.0,0.0,-0.2,0.6,0.2,0.0,0.0,0.0,0.0,48.2,55.4,48.2,60.8,48.2,57.2,50.0,62.6,0.0,0.0,-2.0,254.5,0.0,0.0,3.0,0.0,0.0,0.0,0.653,0.831,0.0,8.5,0.0,0.0,0.0,0,0.0,0.0,0.0,329.0,True,2026-01-10 20:11:22 - Flight 3
32.06,1,9,2026-01-10 20:11:54,37.08156,-121.59964,324.0,0.0,153.0,-12.6,0.0,0,0.0,0.0,0.0,11.0,-1.1,55.7,0.0,-244.0,0.0,-0.02,1.0,0.0,-106.0,13.0,0.0,29.88,-525.0,0.0,0.0,241.0,0.0,0.0,0.0,0.0,0.0,0.0,0.0,0.0,0.0,0.0,0.0,0.0,0.0,0.0,0.0,0.0,0.0,0.0,0.0,0.0,0.0,0.0,0.0,0.0,0.0,8.0,0.0,0.0,30.6,0.0,0.0,0.0,0.0,0.0,0.0,38.0,0.0,0.0,-0.2,0.6,0.2,0.0,0.0,0.0,0.0,48.2,55.4,48.2,60.8,48.2,57.2,50.0,62.6,0.0,0.0,-2.0,254.5,0.0,0.0,3.0,0.0,0.0,0.0,0.653,0.831,0.0,8.5,0.0,0.0,0.0,0,0.0,0.0,0.0,329.0,True,2026-01-10 20:11:22 - Flight 3
33.06,1,10,2026-01-10 20:11:55,37.0816,-121.59980,234.0,0.0,153.0,-12.6,0.0,0,0.0,0.0,0.0,11.0,-1.1,55.7,0.0,-245.0,0.0,-0.02,1.0,0.0,-82.0,13.0,0.0,29.88,-525.0,0.0,0.0,241.0,0.0,0.0,0.0,0.0,0.0,0.0,0.0,0.0,0.0,0.0,0.0,0.0,0.0,0.0,0.0,0.0,0.0,0.0,0.0,0.0,0.0,0.0,0.0,0.0,0.0,8.0,0.0,0.0,30.6,0.0,0.0,0.0,0.0,0.0,0.0,38.0,0.0,0.0,-0.2,0.6,0.2,0.0,0.0,0.0,0.0,48.2,55.4,48.2,60.8,48.2,57.2,50.0,62.6,0.0,0.0,-2.0,254.5,0.0,0.0,3.0,0.0,0.0,0.0,0.653,0.831,0.0,8.5,0.0,0.0,0.0,0,0.0,0.0,0.0,329.0,True,2026-01-10 20:11:22 - Flight 3
34.06,1,10,2026-01-10 20:11:56,37.0816,-121.59978,237.0,0.0,153.0,-12.6,0.0,0,0.0,0.0,0.0,10.9,-1.0,55.7,0.0,-245.0,0.0,-0.02,1.0,0.0,-52.0,13.0,0.0,29.88,-520.0,0.0,0.0,241.0,0.0,0.0,0.0,0.0,0.0,0.0,0.0,0.0,0.0,0.0,0.0,0.0,0.0,0.0,0.0,0.0,0.0,0.0,0.0,0.0,0.0,0.0,0.0,0.0,0.0,8.0,0.0,0.0,30.6,0.0,0.0,0.0,0.0,0.0,0.0,38.0,0.0,0.0,-0.2,0.6,0.2,0.0,0.0,0.0,0.0,48.2,55.4,48.2,60.8,48.2,57.2,50.0,62.6,0.0,0.0,-2.0,254.5,0.0,0.0,3.0,0.0,0.0,0.0,0.653,0.834,0.0,8.5,0.0,0.0,0.0,0,0.0,0.0,0.0,329.0,True,2026-01-10 20:11:22 - Flight 3
35.06,1,10,2026-01-10 20:11:57,37.0816,-121.59978,244.0,0.0,153.0,-12.6,0.0,0,0.0,0.0,0.0,11.0,-1.0,55.7,0.0,-245.0,0.0,-0.02,1.0,0.0,-17.0,13.0,0.0,29.88,-520.0,0.0,0.0,241.0,0.0,0.0,0.0,0.0,0.0,0.0,0.0,0.0,0.0,0.0,0.0,0.0,0.0,0.0,0.0,0.0,0.0,0.0,0.0,0.0,0.0,0.0,0.0,0.0,0.0,8.0,0.0,0.0,30.6,0.0,0.0,0.0,0.0,0.0,0.0,38.0,0.0,0.0,-0.2,0.6,0.2,0.0,0.0,0.0,0.0,48.2,55.4,48.2,60.8,48.2,57.2,50.0,62.6,0.0,0.0,-2.0,254.5,0.0,0.0,3.0,0.0,0.0,0.0,0.653,0.833,0.0,8.5,0.0,0.0,0.0,0,0.0,0.0,0.0,329.0,True,2026-01-10 20:11:22 - Flight 3
36.06,1,10,2026-01-10 20:11:58,37.0816,-121.59978,247.0,0.0,153.0,-12.6,0.0,0,0.0,0.0,0.0,11.0,-1.0,55.7,0.0,-245.0,0.0,-0.02,1.0,0.0,18.0,13.0,0.0,29.88,-520.0,0.0,0.0,241.0,0.0,0.0,0.0,0.0,0.0,0.0,0.0,0.0,0.0,0.0,0.0,0.0,0.0,0.0,0.0,0.0,0.0,0.0,0.0,0.0,0.0,0.0,0.0,0.0,0.0,9.0,0.0,0.0,30.6,0.0,0.0,0.0,0.0,0.0,0.0,38.0,0.0,0.0,-0.2,0.6,0.2,0.0,0.0,0.0,0.0,48.2,55.4,48.2,60.8,48.2,57.2,50.0,62.6,0.0,0.0,-2.0,254.5,0.0,0.0,3.0,0.0,0.0,0.0,0.653,0.833,0.0,8.5,0.0,0.0,0.0,0,0.0,0.0,0.0,329.0,True,2026-01-10 20:11:22 - Flight 3
37.06,1,10,2026-01-10 20:11:59,37.08159,-121.59977,251.0,0.0,153.0,-12.6,0.0,0,0.0,0.0,0.0,11.0,-1.0,55.7,0.0,-245.0,0.0,-0.02,1.0,0.0,25.0,13.0,0.0,29.88,-518.0,0.0,0.0,241.0,0.0,0.0,0.0,0.0,0.0,0.0,0.0,0.0,0.0,0.0,0.0,0.0,0.0,0.0,0.0,0.0,0.0,0.0,0.0,0.0,0.0,0.0,0.0,0.0,0.0,9.0,0.0,0.0,30.6,0.0,0.0,0.0,0.0,0.0,0.0,38.0,0.0,0.0,-0.2,0.6,0.2,0.0,0.0,0.0,0.0,48.2,55.4,48.2,60.8,48.2,57.2,50.0,62.6,0.0,0.0,-2.0,254.5,0.0,0.0,3.0,0.0,0.0,0.0,0.653,0.833,0.0,8.5,0.0,0.0,0.0,0,0.0,0.0,0.0,329.0,True,2026-01-10 20:11:22 - Flight 3
38.06,1,10,2026-01-10 20:12:00,37.08159,-121.59976,256.0,0.0,153.0,-12.6,0.0,0,0.0,0.0,0.0,11.0,-1.0,55.8,0.0,-245.0,0.0,-0.02,1.0,0.0,59.0,13.0,0.0,29.88,-518.0,0.0,0.0,241.0,0.0,0.0,0.0,0.0,0.0,0.0,0.0,0.0,0.0,0.0,0.0,0.0,0.0,0.0,0.0,0.0,0.0,0.0,0.0,0.0,0.0,0.0,0.0,0.0,0.0,9.0,0.0,0.0,30.6,0.0,0.0,0.0,0.0,0.0,0.0,38.0,0.0,0.0,-0.2,0.6,0.2,0.0,0.0,0.0,0.0,48.2,55.4,48.2,60.8,48.2,57.2,50.0,62.6,0.0,0.0,-2.0,254.5,0.0,0.0,3.0,0.0,0.0,0.0,0.653,0.833,0.0,8.5,0.0,0.0,0.0,0,0.0,0.0,0.0,329.0,True,2026-01-10 20:11:22 - Flight 3
39.06,1,10,2026-01-10 20:12:01,37.08159,-121.59975,259.0,0.0,153.0,-12.6,0.0,0,0.0,0.0,0.0,11.0,-1.1,55.7,0.0,-245.0,0.0,-0.02,1.0,0.0,30.0,13.0,0.0,29.88,-518.0,0.0,0.0,241.0,0.0,0.0,0.0,0.0,0.0,0.0,0.0,0.0,0.0,0.0,0.0,0.0,0.0,0.0,0.0,0.0,0.0,0.0,0.0,0.0,0.0,0.0,0.0,0.0,0.0,9.0,0.0,0.0,30.6,0.0,0.0,0.0,0.0,0.0,0.0,38.0,0.0,0.0,-0.2,0.6,0.2,0.0,0.0,0.0,0.0,48.2,55.4,48.2,60.8,48.2,57.2,50.0,62.6,0.0,0.0,-2.0,254.5,0.0,0.0,3.0,0.0,0.0,0.0,0.653,0.831,0.0,8.5,0.0,0.0,0.0,0,0.0,0.0,0.0,329.0,True,2026-01-10 20:11:22 - Flight 3
40.06,1,10,2026-01-10 20:12:02,37.08158,-121.59975,263.0,0.0,153.0,-12.6,0.0,0,0.0,0.0,0.0,11.0,-1.0,55.7,0.0,-245.0,-0.0,-0.02,1.0,0.0,10.0,13.0,0.0,29.88,-517.0,0.0,0.0,241.0,0.0,0.0,0.0,0.0,0.0,0.0,0.0,0.0,0.0,0.0,0.0,0.0,0.0,0.0,0.0,0.0,0.0,0.0,0.0,0.0,0.0,0.0,0.0,0.0,0.0,9.0,0.0,0.0,30.6,0.0,0.0,0.0,0.0,0.0,0.0,38.0,0.0,0.0,-0.2,0.6,0.2,0.0,0.0,0.0,0.0,48.2,55.4,48.2,60.8,48.2,57.2,50.0,62.6,0.0,0.0,-2.0,254.5,0.0,0.0,3.0,0.0,0.0,0.0,0.653,0.831,0.0,8.5,0.0,0.0,0.0,0,0.0,0.0,0.0,329.0,True,2026-01-10 20:11:22 - Flight 3
41.06,1,10,2026-01-10 20:12:03,37.08158,-121.59975,267.0,0.0,153.0,-12.6,0.0,0,0.0,0.0,0.0,11.0,-1.1,55.7,0.0,-245.0,-0.0,-0.02,1.0,0.0,16.0,13.0,0.0,29.88,-517.0,0.0,0.0,241.0,0.0,0.0,0.0,0.0,0.0,0.0,0.0,0.0,0.0,0.0,0.0,0.0,0.0,0.0,0.0,0.0,0.0,0.0,0.0,0.0,0.0,0.0,0.0,0.0,0.0,9.0,0.0,0.0,30.6,0.0,0.0,0.0,0.0,0.0,0.0,38.0,0.0,0.0,-0.2,0.6,0.2,0.0,0.0,0.0,0.0,48.2,55.4,48.2,60.8,48.2,57.2,50.0,62.6,0.0,0.0,-2.0,254.5,0.0,0.0,3.0,0.0,0.0,0.0,0.653,0.831,0.0,8.5,0.0,0.0,0.0,0,0.0,0.0,0.0,329.0,True,2026-01-10 20:11:22 - Flight 3
42.06,1,10,2026-01-10 20:12:04,37.08158,-121.59974,270.0,0.0,153.0,-12.6,0.0,0,0.0,0.0,0.0,10.9,-1.1,55.7,0.0,-245.0,-0.0,-0.02,1.0,0.0,2.0,13.0,0.0,29.88,-517.0,0.0,0.0,241.0,0.0,0.0,0.0,0.0,0.0,0.0,0.0,0.0,0.0,0.0,0.0,0.0,0.0,0.0,0.0,0.0,0.0,0.0,0.0,0.0,0.0,0.0,0.0,0.0,0.0,9.0,0.0,0.0,30.6,0.0,0.0,0.0,0.0,0.0,0.0,38.0,0.0,0.0,-0.2,0.6,0.2,0.0,0.0,0.0,0.0,48.2,55.4,48.2,60.8,48.2,57.2,50.0,62.6,0.0,0.0,-2.0,241.1,0.0,0.0,3.0,0.0,0.0,0.0,0.653,0.831,0.0,8.5,0.0,0.0,0.0,0,0.0,0.0,0.0,329.0,True,2026-01-10 20:11:22 - Flight 3
43.06,1,10,2026-01-10 20:12:05,37.08158,-121.59974,273.0,0.0,153.0,-12.6,0.0,0,0.0,0.0,0.0,10.9,-1.1,55.6,0.0,-245.0,-0.0,-0.02,1.0,0.0,-41.0,13.0,0.0,29.88,-507.0,0.0,0.0,241.0,0.0,0.0,0.0,0.0,0.0,0.0,0.0,0.0,0.0,0.0,0.0,0.0,0.0,0.0,0.0,0.0,0.0,0.0,0.0,0.0,0.0,0.0,0.0,0.0,0.0,9.0,0.0,0.0,30.6,0.0,0.0,0.0,0.0,0.0,0.0,38.0,0.0,0.0,-0.2,0.6,0.2,0.0,0.0,0.0,0.0,48.2,55.4,48.2,60.8,48.2,57.2,50.0,62.6,0.0,0.0,-2.0,187.6,0.0,0.0,3.0,0.0,0.0,0.0,0.653,0.831,0.0,8.5,0.0,0.0,0.0,0,0.0,0.0,0.0,329.0,True,2026-01-10 20:11:22 - Flight 3
44.06,1,10,2026-01-10 20:12:06,37.08158,-121.59973,276.0,0.0,153.0,-12.6,0.0,0,0.0,0.0,0.0,10.9,-1.1,55.6,0.0,-245.0,-0.0,-0.02,1.0,0.0,-45.0,13.0,0.0,29.88,-507.0,0.0,0.0,241.0,0.0,0.0,0.0,0.0,0.0,0.0,0.0,0.0,0.0,0.0,0.0,0.0,0.0,0.0,0.0,0.0,0.0,0.0,0.0,0.0,0.0,0.0,0.0,0.0,0.0,9.0,0.0,0.0,30.6,0.0,0.0,0.0,0.0,0.0,0.0,38.0,0.0,0.0,-0.2,0.6,0.2,0.0,0.0,0.0,0.0,48.2,55.4,48.2,60.8,48.2,57.2,50.0,62.6,0.0,0.0,-2.0,146.1,0.0,0.0,3.0,0.0,0.0,0.0,0.653,0.831,0.0,8.6,0.0,0.0,0.0,0,0.0,0.0,0.0,329.0,True,2026-01-10 20:11:22 - Flight 3
45.06,1,10,2026-01-10 20:12:07,37.08158,-121.59973,278.0,0.0,153.0,-12.6,0.0,0,0.0,0.0,0.0,10.9,-1.1,55.7,0.0,-245.0,0.0,-0.02,1.0,0.0,-40.0,13.0,0.0,29.88,-507.0,0.0,0.0,241.0,0.0,0.0,0.0,0.0,0.0,0.0,0.0,0.0,0.0,0.0,0.0,0.0,0.0,0.0,0.0,0.0,0.0,0.0,0.0,0.0,0.0,0.0,0.0,0.0,0.0,9.0,0.0,0.0,30.6,0.0,0.0,0.0,0.0,0.0,0.0,38.0,0.0,0.0,-0.2,0.6,0.2,0.0,0.0,0.0,0.0,48.2,55.4,48.2,60.8,48.2,57.2,50.0,62.6,0.0,0.0,-2.0,113.7,0.0,0.0,3.0,0.0,0.0,0.0,0.653,0.831,0.0,8.6,0.0,0.0,0.0,0,0.0,0.0,0.0,329.0,True,2026-01-10 20:11:22 - Flight 3
46.06,1,10,2026-01-10 20:12:08,37.08157,-121.59972,281.0,0.0,153.0,-12.6,0.0,0,0.0,0.0,0.0,10.9,-1.1,55.6,0.0,-245.0,-0.0,-0.02,1.0,0.0,-18.0,13.0,0.0,29.88,-506.0,0.0,0.0,241.0,0.0,0.0,0.0,0.0,0.0,0.0,0.0,0.0,0.0,0.0,0.0,0.0,0.0,0.0,0.0,0.0,0.0,0.0,0.0,0.0,0.0,0.0,0.0,0.0,0.0,9.0,0.0,0.0,30.6,0.0,0.0,0.0,0.0,0.0,0.0,38.0,0.0,0.0,-0.2,0.6,0.2,0.0,0.0,0.0,0.0,48.2,55.4,48.2,60.8,48.2,57.2,50.0,62.6,0.0,0.0,-2.0,88.6,0.0,0.0,3.0,0.0,0.0,0.0,0.653,0.831,0.0,8.6,0.0,0.0,0.0,0,0.0,0.0,0.0,329.0,True,2026-01-10 20:11:22 - Flight 3
47.06,1,10,2026-01-10 20:12:09,37.08157,-121.59972,283.0,0.0,153.0,-12.6,0.0,0,0.0,0.0,0.0,10.9,-1.1,55.6,0.0,-245.0,-0.0,-0.02,1.0,0.0,5.0,13.0,0.0,29.88,-506.0,0.0,0.0,241.0,0.0,0.0,0.0,0.0,0.0,0.0,0.0,0.0,0.0,0.0,0.0,0.0,0.0,0.0,0.0,0.0,0.0,0.0,0.0,0.0,0.0,0.0,0.0,0.0,0.0,9.0,0.0,0.0,30.6,0.0,0.0,0.0,0.0,0.0,0.0,38.0,0.0,0.0,-0.2,0.6,0.2,0.0,0.0,0.0,0.0,48.2,55.4,48.2,60.8,48.2,57.2,50.0,62.6,0.0,0.0,-2.0,69.1,0.0,0.0,3.0,0.0,0.0,0.0,0.653,0.831,0.0,8.6,0.0,0.0,0.0,0,0.0,0.0,0.0,329.0,True,2026-01-10 20:11:22 - Flight 3
48.06,1,10,2026-01-10 20:12:10,37.08157,-121.59972,285.0,0.0,153.0,-12.6,0.0,0,0.0,0.0,0.0,10.9,-1.1,55.6,0.0,-246.0,-0.0,-0.02,1.0,0.0,-58.0,13.0,0.0,29.88,-506.0,0.0,0.0,241.0,0.0,0.0,0.0,0.0,0.0,0.0,0.0,0.0,0.0,0.0,0.0,0.0,0.0,0.0,0.0,0.0,0.0,0.0,0.0,0.0,0.0,0.0,0.0,0.0,0.0,9.0,0.0,0.0,30.6,0.0,0.0,0.0,0.0,0.0,0.0,38.0,0.0,0.0,-0.2,0.6,0.2,0.0,0.0,0.0,0.0,48.2,55.4,48.2,60.8,48.2,57.2,50.0,62.6,0.0,0.0,-2.0,53.9,0.0,0.0,3.0,0.0,0.0,0.0,0.653,0.831,0.0,8.6,0.0,0.0,0.0,0,0.0,0.0,0.0,329.0,True,2026-01-10 20:11:22 - Flight 3
49.06,1,10,2026-01-10 20:12:11,37.08157,-121.59972,287.0,0.0,153.0,-12.6,0.0,0,0.0,0.0,0.0,11.0,-1.1,55.6,0.0,-247.0,-0.0,-0.02,1.0,0.0,-51.0,13.0,0.0,29.88,-498.0,0.0,0.0,241.0,0.0,0.0,0.0,0.0,0.0,0.0,0.0,0.0,0.0,0.0,0.0,0.0,0.0,0.0,0.0,0.0,0.0,0.0,0.0,0.0,0.0,0.0,0.0,0.0,0.0,9.0,0.0,0.0,30.6,0.0,0.0,0.0,11.4,0.0,0.0,38.0,0.0,0.0,-0.2,0.6,0.2,0.0,0.0,0.0,0.0,48.2,55.4,48.2,60.8,48.2,55.4,50.0,62.6,0.0,0.0,-2.0,42.1,0.0,11.4,3.0,0.0,0.0,0.0,0.653,0.831,0.0,8.6,0.0,0.0,0.0,0,0.0,0.0,0.0,329.0,True,2026-01-10 20:11:22 - Flight 3
50.06,1,10,2026-01-10 20:12:12,37.08157,-121.59972,289.0,0.0,153.0,-12.6,0.0,0,0.0,0.0,0.0,10.9,-1.1,55.6,0.0,-249.0,0.0,-0.02,1.0,0.0,-113.0,13.0,0.0,29.88,-498.0,0.0,0.0,241.0,0.0,0.0,0.0,0.0,0.0,0.0,0.0,0.0,0.0,0.0,0.0,0.0,0.0,0.0,0.0,0.0,0.0,0.0,0.0,0.0,0.0,0.0,0.0,0.0,0.0,9.0,0.0,0.0,30.6,0.4,0.0,0.4,33.4,0.0,0.0,38.0,0.0,0.0,-0.2,0.6,0.2,0.0,0.0,0.0,0.0,48.2,55.4,48.2,60.8,48.2,57.2,50.0,62.6,0.0,0.0,-2.0,33.0,0.0,33.4,3.0,0.0,0.0,0.0,0.653,0.831,0.0,8.6,0.0,0.0,0.0,0,0.0,0.0,5.555555555555556e-05,329.0,True,2026-01-10 20:11:22 - Flight 3
51.06,1,10,2026-01-10 20:12:13,37.08156,-121.59968,311.0,0.0,153.0,-12.6,0.0,0,0.0,0.0,0.0,10.9,-1.1,55.6,0.0,-252.0,-0.0,-0.02,1.0,0.0,-105.0,13.0,0.0,29.88,-498.0,0.0,0.0,241.0,0.0,0.0,0.0,0.0,0.0,0.0,0.0,0.0,0.0,0.0,0.0,0.0,0.0,0.0,0.0,0.0,0.0,0.0,0.0,0.0,0.0,0.0,0.0,0.0,0.0,9.0,0.0,0.0,30.6,0.5,0.0,0.5,34.9,0.0,0.0,38.0,0.0,0.0,-0.2,0.6,0.2,0.0,0.0,0.0,0.0,48.2,57.2,50.0,62.6,48.2,57.2,50.0,62.6,0.0,0.0,-2.0,25.8,0.0,34.9,3.0,0.0,0.0,0.0,0.653,0.831,0.0,8.6,0.0,0.0,0.0,0,0.0,0.0,0.00018055555555555555,329.0,True,2026-01-10 20:11:22 - Flight 3
52.06,1,10,2026-01-10 20:12:14,37.08156,-121.59968,311.0,0.0,153.0,-12.6,0.0,0,0.0,0.0,0.0,10.9,-1.1,55.6,0.0,-254.0,-0.0,-0.02,1.0,0.0,-131.0,13.0,0.0,29.88,-506.0,0.0,0.0,241.0,0.0,0.0,0.0,0.0,0.0,0.0,0.0,0.0,0.0,0.0,0.0,0.0,0.0,0.0,0.0,0.0,0.0,0.0,0.0,0.0,0.0,0.0,0.0,0.0,0.0,9.0,0.0,0.0,30.6,0.6,0.0,0.6,35.1,0.0,0.0,38.0,0.0,0.0,-0.2,0.6,0.2,0.0,0.0,0.0,0.0,48.2,55.4,48.2,60.8,48.2,57.2,50.0,62.6,0.0,0.0,-2.0,20.3,0.0,35.1,3.0,0.0,0.0,0.0,0.653,0.831,0.0,8.6,0.0,0.0,0.0,0,0.0,0.0,0.0003333333333333333,329.0,True,2026-01-10 20:11:22 - Flight 3
53.06,1,10,2026-01-10 20:12:15,37.08156,-121.59969,312.0,0.0,153.0,-12.6,0.0,0,0.0,0.0,0.0,10.9,-1.1,55.6,0.0,-256.0,-0.0,-0.02,1.0,0.0,-109.0,13.0,0.0,29.88,-506.0,0.0,0.0,241.0,0.0,0.0,0.0,0.0,0.0,0.0,0.0,0.0,0.0,0.0,0.0,0.0,0.0,0.0,0.0,0.0,0.0,0.0,0.0,0.0,0.0,0.0,0.0,0.0,0.0,9.0,0.0,0.0,30.6,0.6,0.0,0.6,34.0,0.0,0.0,38.0,0.0,0.0,-0.2,0.6,0.2,0.0,0.0,0.0,0.0,48.2,55.4,48.2,60.8,48.2,57.2,50.0,62.6,0.0,0.0,-2.0,16.0,0.0,34.0,3.0,0.0,0.0,0.0,0.653,0.831,0.0,8.6,0.0,0.0,0.0,0,0.0,0.0,0.0005,329.0,True,2026-01-10 20:11:22 - Flight 3
54.06,1,10,2026-01-10 20:12:16,37.08156,-121.59969,312.0,0.0,153.0,-12.6,0.0,0,0.0,0.0,0.0,10.9,-1.1,55.7,0.0,-256.0,0.0,-0.02,1.0,0.0,-82.0,13.0,0.0,29.88,-506.0,0.0,0.0,241.0,0.0,0.0,0.0,0.0,0.0,0.0,0.0,0.0,0.0,0.0,0.0,0.0,0.0,0.0,0.0,0.0,0.0,0.0,0.0,0.0,0.0,0.0,0.0,0.0,0.0,9.0,0.0,0.0,30.6,0.6,0.0,0.6,33.7,0.0,0.0,38.0,0.0,0.0,-0.2,0.6,0.2,0.0,0.0,0.0,0.0,48.2,57.2,50.0,60.8,48.2,57.2,50.0,62.6,0.0,0.0,-2.0,12.6,0.0,33.7,3.0,0.0,0.0,0.0,0.653,0.831,0.0,8.6,0.0,0.0,0.0,0,0.0,0.0,0.0006666666666666666,329.0,True,2026-01-10 20:11:22 - Flight 3
55.06,1,10,2026-01-10 20:12:17,37.08156,-121.59969,312.0,0.0,153.0,-12.6,0.0,0,0.0,0.0,0.0,10.9,-1.1,55.7,0.0,-256.0,0.0,-0.02,1.0,0.0,-40.0,13.0,0.0,29.88,-500.0,0.0,0.0,241.0,0.0,0.0,0.0,0.0,0.0,0.0,0.0,0.0,0.0,0.0,0.0,0.0,0.0,0.0,0.0,0.0,0.0,0.0,0.0,0.0,0.0,0.0,0.0,0.0,0.0,9.0,0.0,0.0,30.6,0.0,0.0,0.0,33.5,0.0,0.0,38.0,0.0,0.0,-0.2,0.6,0.2,0.0,0.0,0.0,0.0,48.2,57.2,50.0,62.6,48.2,57.2,50.0,62.6,0.0,0.0,-2.0,10.0,0.0,33.5,3.0,0.0,0.0,0.0,0.653,0.83,0.0,8.6,0.0,0.0,0.0,0,0.0,0.0,0.00075,329.0,True,2026-01-10 20:11:22 - Flight 3
56.06,1,10,2026-01-10 20:12:18,37.08154,-121.59970,312.0,0.0,153.0,-12.6,0.0,0,0.0,0.0,0.0,10.9,-1.1,55.7,0.0,-256.0,0.0,-0.02,1.0,0.0,-18.0,13.0,0.0,29.88,-500.0,0.0,0.0,241.0,0.0,0.0,0.0,0.0,0.0,0.0,0.0,0.0,0.0,0.0,0.0,0.0,0.0,0.0,0.0,0.0,0.0,0.0,0.0,0.0,0.0,0.0,0.0,0.0,0.0,9.0,0.0,0.0,30.6,0.0,0.0,0.0,33.3,0.0,0.0,38.0,0.0,0.0,-0.2,0.6,0.2,0.0,0.0,0.0,0.0,48.2,57.2,50.0,60.8,48.2,57.2,50.0,62.6,0.0,0.0,-2.0,8.0,0.0,33.3,3.0,0.0,0.0,0.0,0.653,0.833,0.0,8.6,0.0,0.0,0.0,0,0.0,0.0,0.00075,329.0,True,2026-01-10 20:11:22 - Flight 3
57.06,1,10,2026-01-10 20:12:19,37.08155,-121.59970,319.0,0.0,153.0,-12.6,0.0,0,0.0,0.0,0.0,10.9,-1.1,55.6,0.0,-256.0,-0.0,-0.02,1.0,0.0,12.0,13.0,0.0,29.88,-500.0,0.0,0.0,241.0,0.0,0.0,0.0,0.0,0.0,0.0,0.0,0.0,0.0,0.0,0.0,0.0,0.0,0.0,0.0,0.0,0.0,0.0,0.0,0.0,0.0,0.0,0.0,0.0,0.0,9.0,0.0,0.0,30.6,0.0,0.0,0.0,33.1,0.0,0.0,38.0,0.0,0.0,-0.2,0.6,0.2,0.0,0.0,0.0,0.0,48.2,57.2,50.0,60.8,48.2,57.2,50.0,62.6,0.0,0.0,-2.0,6.4,0.0,33.1,3.0,0.0,0.0,0.0,0.653,0.833,0.0,8.6,0.0,0.0,0.0,0,0.0,0.0,0.00075,329.0,True,2026-01-10 20:11:22 - Flight 3
58.06,1,10,2026-01-10 20:12:20,37.08155,-121.59970,318.0,0.0,153.0,-12.6,0.0,0,0.0,0.0,0.0,10.9,-1.1,55.6,0.0,-256.0,-0.0,-0.02,1.0,0.0,-8.0,13.0,0.0,29.88,-498.0,0.0,0.0,241.0,0.0,0.0,0.0,0.0,0.0,0.0,0.0,0.0,0.0,0.0,0.0,0.0,0.0,0.0,0.0,0.0,0.0,0.0,0.0,0.0,0.0,0.0,0.0,0.0,0.0,9.0,0.0,0.0,30.6,0.0,0.0,0.0,32.9,0.0,0.0,38.0,0.0,0.0,-0.2,0.6,0.2,0.0,0.0,0.0,0.0,48.2,57.2,50.0,60.8,48.2,57.2,50.0,62.6,0.0,0.0,-2.0,5.2,0.0,32.9,3.0,0.0,0.0,0.0,0.653,0.833,0.0,8.6,0.0,0.0,0.0,0,0.0,0.0,0.00075,329.0,True,2026-01-10 20:11:22 - Flight 3
59.06,1,10,2026-01-10 20:12:21,37.08155,-121.59971,318.0,0.0,153.0,-12.6,0.0,0,0.0,0.0,0.0,11.0,-1.1,55.6,0.0,-257.0,-0.0,-0.02,1.0,0.0,-51.0,13.0,0.0,29.88,-498.0,0.0,0.0,241.0,0.0,0.0,0.0,0.0,0.0,0.0,0.0,0.0,0.0,0.0,0.0,0.0,0.0,0.0,0.0,0.0,0.0,0.0,0.0,0.0,0.0,0.0,0.0,0.0,0.0,9.0,0.0,0.0,30.6,0.0,0.0,0.0,32.8,0.0,0.0,38.0,0.0,0.0,-0.2,0.6,0.2,0.0,0.0,0.0,0.0,48.2,57.2,50.0,60.8,48.2,57.2,50.0,62.6,0.0,0.0,-2.0,4.3,0.0,32.8,3.0,0.0,0.0,0.0,0.653,0.833,0.0,8.6,0.0,0.0,0.0,0,0.0,0.0,0.00075,329.0,True,2026-01-10 20:11:22 - Flight 3
60.06,1,10,2026-01-10 20:12:22,37.08155,-121.59971,318.0,0.0,153.0,-12.6,0.0,0,0.0,0.0,0.0,11.0,-1.1,55.6,0.0,-258.0,-0.0,-0.02,1.0,0.0,-58.0,13.0,0.0,29.88,-498.0,0.0,0.0,241.0,0.0,0.0,0.0,0.0,0.0,0.0,0.0,0.0,0.0,0.0,0.0,0.0,0.0,0.0,0.0,0.0,0.0,0.0,0.0,0.0,0.0,0.0,0.0,0.0,0.0,9.0,0.0,0.0,30.6,0.0,0.0,0.0,32.6,0.0,0.0,38.0,0.0,0.0,-0.2,0.6,0.2,0.0,0.0,0.0,0.0,48.2,57.2,50.0,60.8,48.2,57.2,50.0,62.6,0.0,0.0,-2.0,3.5,0.0,32.6,3.0,0.0,0.0,0.0,0.653,0.833,0.0,8.6,0.0,0.0,0.0,0,0.0,0.0,0.00075,329.0,True,2026-01-10 20:11:22 - Flight 3
61.06,1,10,2026-01-10 20:12:23,37.08155,-121.59971,318.0,0.1,153.0,-12.6,0.0,0,0.0,0.0,0.0,11.0,-1.1,55.6,0.0,-259.0,0.0,-0.02,1.0,0.0,-56.0,13.0,0.0,29.88,-502.0,0.0,0.0,241.0,0.0,0.0,0.0,0.0,0.0,0.0,0.0,0.0,0.0,0.0,0.0,0.0,0.0,0.0,0.0,0.0,0.0,0.0,0.0,0.0,0.0,0.0,0.0,0.0,0.0,9.0,0.0,0.0,30.6,0.0,0.0,0.0,28.1,0.0,0.0,38.0,0.0,0.0,-0.2,0.6,0.2,0.0,0.0,0.0,0.0,48.2,57.2,50.0,62.6,48.2,57.2,50.0,64.4,0.0,0.0,-2.0,3.0,0.0,28.1,3.0,0.0,0.0,0.0,0.653,0.83,0.0,8.6,0.0,0.0,0.0,0,0.0,0.0,0.00075,329.0,True,2026-01-10 20:11:22 - Flight 3
62.06,1,10,2026-01-10 20:12:24,37.08155,-121.59971,318.0,0.0,153.0,-12.6,0.0,0,0.0,0.0,0.0,11.0,-1.1,55.6,0.0,-259.0,0.0,-0.02,1.0,0.0,-35.0,14.0,0.0,29.88,-501.0,0.0,0.0,241.0,0.0,0.0,0.0,0.0,0.0,0.0,0.0,0.0,0.0,0.0,0.0,0.0,0.0,0.0,0.0,0.0,0.0,0.0,0.0,0.0,0.0,0.0,0.0,0.0,0.0,9.0,0.0,0.0,30.6,0.9,0.0,0.9,23.7,0.0,0.0,38.0,0.0,0.0,-0.2,0.6,0.2,0.0,0.0,0.0,0.0,48.2,57.2,50.0,62.6,48.2,57.2,50.0,62.6,0.0,0.0,-2.0,2.5,0.0,23.7,3.0,0.0,0.0,0.0,0.653,0.831,0.0,8.6,0.0,0.0,0.0,0,0.0,0.0,0.000875,329.0,True,2026-01-10 20:11:22 - Flight 3
63.06,1,10,2026-01-10 20:12:25,37.08155,-121.59971,318.0,0.1,153.0,-12.6,0.0,0,0.0,0.0,0.0,11.0,-1.1,55.5,0.0,-259.0,0.0,-0.02,1.0,0.0,1.0,14.0,0.0,29.88,-501.0,0.0,0.0,241.0,0.0,0.0,0.0,0.0,0.0,0.0,0.0,0.0,0.0,0.0,0.0,0.0,0.0,0.0,0.0,0.0,0.0,0.0,0.0,0.0,0.0,0.0,0.0,0.0,0.0,9.0,0.0,0.0,30.6,0.9,0.0,0.9,23.7,0.0,0.0,38.0,0.0,0.0,-0.2,0.6,0.2,0.0,0.0,0.0,0.0,48.2,57.2,50.0,62.6,48.2,57.2,50.0,62.6,0.0,0.0,-2.0,2.2,0.0,23.7,3.0,0.0,0.0,0.0,0.653,0.831,0.0,8.6,0.0,0.0,0.0,0,0.0,0.0,0.0011250000000000001,329.0,True,2026-01-10 20:11:22 - Flight 3
64.06,1,10,2026-01-10 20:12:26,37.08155,-121.59971,318.0,0.0,153.0,-12.6,0.0,0,0.0,0.0,0.0,11.0,-1.1,55.5,0.0,-259.0,-0.0,-0.02,1.0,0.0,47.0,14.0,0.0,29.88,-501.0,0.0,0.0,241.0,0.0,0.0,0.0,0.0,0.0,0.0,0.0,0.0,0.0,0.0,0.0,0.0,0.0,0.0,0.0,0.0,0.0,0.0,0.0,0.0,0.0,0.0,0.0,0.0,0.0,9.0,0.0,0.0,30.6,0.9,0.0,0.9,23.9,0.0,0.0,38.0,0.0,0.0,-0.2,0.6,0.2,0.0,0.0,0.0,0.0,48.2,57.2,50.0,62.6,48.2,57.2,50.0,62.6,0.0,0.0,-2.0,1.9,0.0,23.9,3.0,0.0,0.0,0.0,0.653,0.831,0.0,8.6,0.0,0.0,0.0,0,0.0,0.0,0.0013750000000000001,329.0,True,2026-01-10 20:11:22 - Flight 3
65.06,1,10,2026-01-10 20:12:27,37.08155,-121.59972,318.0,0.0,153.0,-12.6,0.0,0,0.0,0.0,0.0,11.0,-1.1,55.5,0.0,-259.0,-0.0,-0.02,1.0,0.0,60.0,14.0,0.0,29.88,-491.0,0.0,0.0,241.0,0.0,0.0,0.0,0.0,0.0,0.0,0.0,0.0,0.0,0.0,0.0,0.0,0.0,0.0,0.0,0.0,0.0,0.0,0.0,0.0,0.0,0.0,0.0,0.0,0.0,9.0,0.0,0.0,30.6,0.9,0.0,0.9,23.9,0.0,0.0,38.0,0.0,0.0,-0.2,0.6,0.2,0.0,0.0,0.0,0.0,48.2,57.2,50.0,62.6,48.2,57.2,50.0,62.6,0.0,0.0,-2.0,1.7,0.0,23.9,3.0,0.0,0.0,0.0,0.653,0.831,0.0,8.6,0.0,0.0,0.0,0,0.0,0.0,0.0016250000000000001,329.0,True,2026-01-10 20:11:22 - Flight 3
66.06,2,10,2026-01-10 20:12:28,37.08155,-121.59972,319.0,0.0,153.0,-12.6,0.0,0,0.0,0.0,0.0,11.0,-1.1,55.5,0.0,-259.0,-0.0,-0.02,1.0,0.0,75.0,14.0,0.0,29.88,-491.0,0.0,0.0,241.0,0.0,0.0,0.0,0.0,0.0,0.0,0.0,0.0,0.0,0.0,0.0,0.0,0.0,0.0,0.0,0.0,0.0,0.0,0.0,0.0,0.0,0.0,0.0,0.0,0.0,9.0,0.0,0.0,30.6,0.0,0.0,0.0,23.9,0.0,0.0,38.0,0.0,0.0,-0.2,0.6,0.2,0.0,0.0,0.0,0.0,48.2,57.2,50.0,62.6,48.2,57.2,50.0,62.6,0.0,0.0,-2.0,1.6,0.0,23.9,3.0,0.0,0.0,0.0,0.653,0.831,0.0,8.6,0.0,0.0,0.0,0,0.0,0.0,0.0017500000000000003,329.0,True,2026-01-10 20:11:22 - Flight 3
67.06,2,10,2026-01-10 20:12:29,37.08155,-121.59972,320.0,0.0,153.0,-12.6,0.0,0,0.0,0.0,0.0,11.0,-1.1,55.6,0.0,-259.0,-0.0,-0.02,1.0,0.0,60.0,14.0,0.0,29.88,-491.0,0.0,0.0,241.0,0.0,0.0,0.0,0.0,0.0,0.0,0.0,0.0,0.0,0.0,0.0,0.0,0.0,0.0,0.0,0.0,0.0,0.0,0.0,0.0,0.0,0.0,0.0,0.0,0.0,9.0,0.0,0.0,30.6,0.0,0.0,0.0,23.9,0.0,0.0,38.0,0.0,0.0,-0.2,0.6,0.2,0.0,0.0,0.0,0.0,48.2,57.2,50.0,62.6,48.2,57.2,50.0,62.6,0.0,0.0,-2.0,1.4,0.0,23.9,3.0,0.0,0.0,0.0,0.653,0.831,0.0,8.6,0.0,0.0,0.0,0,0.0,0.0,0.0017500000000000003,329.0,True,2026-01-10 20:11:22 - Flight 3
68.06,2,10,2026-01-10 20:12:30,37.08155,-121.59972,321.0,0.1,153.0,-12.6,0.0,0,0.0,0.0,0.0,11.0,-1.0,55.6,0.0,-259.0,0.0,-0.02,1.0,0.0,57.0,14.0,0.0,29.88,-491.0,0.0,0.0,241.0,0.0,0.0,0.0,0.0,0.0,0.0,0.0,0.0,0.0,0.0,0.0,0.0,0.0,0.0,0.0,0.0,0.0,0.0,0.0,0.0,0.0,0.0,0.0,0.0,0.0,9.0,0.0,0.0,30.6,0.0,0.0,0.0,23.9,0.0,0.0,38.0,0.0,0.0,-0.2,0.6,0.2,0.0,0.0,0.0,0.0,48.2,57.2,50.0,62.6,48.2,57.2,50.0,62.6,0.0,0.0,-2.0,1.3,0.0,23.9,3.0,0.0,0.0,0.0,0.653,0.831,0.0,8.6,0.0,0.0,0.0,0,0.0,0.0,0.0017500000000000003,329.0,True,2026-01-10 20:11:22 - Flight 3
69.06,2,10,2026-01-10 20:12:31,37.08155,-121.59971,321.0,0.0,153.0,-12.6,0.0,0,0.0,0.0,0.0,11.0,-1.0,55.6,0.0,-259.0,-0.0,-0.02,1.0,0.0,95.0,14.0,0.0,29.88,-490.0,0.0,0.0,241.0,0.0,0.0,0.0,0.0,0.0,0.0,0.0,0.0,0.0,0.0,0.0,0.0,0.0,0.0,0.0,0.0,0.0,0.0,0.0,0.0,0.0,0.0,0.0,0.0,0.0,9.0,0.0,0.0,30.6,0.0,0.0,0.0,23.9,0.0,0.0,38.0,0.0,0.0,-0.2,0.6,0.2,0.0,0.0,0.0,0.0,48.2,57.2,50.0,62.6,48.2,57.2,50.0,62.6,0.0,0.0,-2.0,1.2,0.0,23.9,3.0,0.0,0.0,0.0,0.653,0.831,0.0,8.6,0.0,0.0,0.0,0,0.0,0.0,0.0017500000000000003,329.0,True,2026-01-10 20:11:22 - Flight 3
70.06,2,10,2026-01-10 20:12:32,37.08155,-121.59971,321.0,0.0,153.0,-12.6,0.0,0,0.0,0.0,0.0,11.0,-1.0,55.6,0.0,-259.0,-0.0,-0.02,1.0,0.0,59.0,14.0,0.0,29.88,-490.0,0.0,0.0,241.0,0.0,0.0,0.0,0.0,0.0,0.0,0.0,0.0,0.0,0.0,0.0,0.0,0.0,0.0,0.0,0.0,0.0,0.0,0.0,0.0,0.0,0.0,0.0,0.0,0.0,9.0,0.0,0.0,30.6,0.0,0.0,0.0,23.8,0.0,0.0,38.0,0.0,0.0,-0.2,0.6,0.2,0.0,0.0,0.0,0.0,48.2,57.2,50.0,62.6,48.2,57.2,50.0,62.6,0.0,0.0,-2.0,1.2,0.0,23.8,3.0,0.0,0.0,0.0,0.653,0.831,0.0,8.6,0.0,0.0,0.0,0,0.0,0.0,0.0017500000000000003,329.0,True,2026-01-10 20:11:22 - Flight 3
71.06,2,10,2026-01-10 20:12:33,37.08156,-121.59971,322.0,0.1,153.0,-12.6,0.0,0,0.0,0.0,0.0,11.0,-1.0,55.7,0.0,-259.0,0.0,-0.02,1.0,0.0,55.0,14.0,0.0,29.88,-490.0,0.0,0.0,241.0,0.0,0.0,0.0,0.0,0.0,0.0,0.0,0.0,0.0,0.0,0.0,0.0,0.0,0.0,0.0,0.0,0.0,0.0,0.0,0.0,0.0,0.0,0.0,0.0,0.0,9.0,0.0,0.0,30.6,0.0,0.0,0.0,23.8,0.0,0.0,38.0,0.0,0.0,-0.2,0.6,0.2,0.0,0.0,0.0,0.0,48.2,57.2,50.0,62.6,48.2,57.2,50.0,64.4,0.0,0.0,-2.0,1.1,0.0,23.8,3.0,0.0,0.0,0.0,0.653,0.831,0.0,8.6,0.0,0.0,0.0,0,0.0,0.0,0.0017500000000000003,329.0,True,2026-01-10 20:11:22 - Flight 3
72.06,2,10,2026-01-10 20:12:34,37.08155,-121.59971,322.0,0.1,153.0,-12.6,0.0,0,0.0,0.0,0.0,11.0,-1.0,55.6,0.0,-258.0,-0.0,-0.02,1.0,0.0,29.0,14.0,0.0,29.88,-488.0,0.0,0.0,241.0,0.0,0.0,0.0,0.0,0.0,0.0,0.0,0.0,0.0,0.0,0.0,0.0,0.0,0.0,0.0,0.0,0.0,0.0,0.0,0.0,0.0,0.0,0.0,0.0,0.0,9.0,0.0,0.0,30.6,0.0,0.0,0.0,23.8,0.0,0.0,38.0,0.0,0.0,-0.2,0.6,0.2,0.0,0.0,0.0,0.0,48.2,57.2,50.0,60.8,48.2,57.2,50.0,64.4,0.0,0.0,-2.0,1.1,0.0,23.8,3.0,0.0,0.0,0.0,0.653,0.833,0.0,8.6,0.0,0.0,0.0,0,0.0,0.0,0.0017500000000000003,329.0,True,2026-01-10 20:11:22 - Flight 3
73.06,2,10,2026-01-10 20:12:35,37.08155,-121.59971,322.0,0.1,153.0,-12.6,0.0,0,0.0,0.0,0.0,11.0,-1.1,55.6,0.0,-258.0,-0.0,-0.02,1.0,0.0,29.0,14.0,0.0,29.88,-488.0,0.0,0.0,241.0,0.0,0.0,0.0,0.0,0.0,0.0,0.0,0.0,0.0,0.0,0.0,0.0,0.0,0.0,0.0,0.0,0.0,0.0,0.0,0.0,0.0,0.0,0.0,0.0,0.0,9.0,0.0,0.0,30.6,0.0,0.0,0.0,23.7,0.0,0.0,38.0,0.0,0.0,-0.2,0.6,0.2,0.0,0.0,0.0,0.0,48.2,55.4,50.0,60.8,48.2,57.2,50.0,64.4,0.0,0.0,-2.0,1.1,0.0,23.7,3.0,0.0,0.0,0.0,0.653,0.833,0.0,8.6,0.0,0.0,0.0,0,0.0,0.0,0.0017500000000000003,329.0,True,2026-01-10 20:11:22 - Flight 3
74.06,2,10,2026-01-10 20:12:36,37.08155,-121.59970,322.0,0.0,153.0,-12.6,0.0,0,0.0,0.0,0.0,11.0,-1.1,55.6,0.0,-258.0,0.0,-0.02,1.0,0.0,43.0,14.0,0.0,29.88,-488.0,0.0,0.0,241.0,0.0,0.0,0.0,0.0,0.0,0.0,0.0,0.0,0.0,0.0,0.0,0.0,0.0,0.0,0.0,0.0,0.0,0.0,0.0,0.0,0.0,0.0,0.0,0.0,0.0,9.0,0.0,0.0,30.6,0.0,0.0,0.0,23.7,0.0,0.0,38.0,0.0,0.0,-0.2,0.6,0.2,0.0,0.0,0.0,0.0,48.2,57.2,50.0,60.8,48.2,57.2,50.0,64.4,0.0,0.0,-2.0,1.0,0.0,23.7,3.0,0.0,0.0,0.0,0.653,0.833,0.0,8.6,0.0,0.0,0.0,0,0.0,0.0,0.0017500000000000003,329.0,True,2026-01-10 20:11:22 - Flight 3
75.06,2,10,2026-01-10 20:12:37,37.08155,-121.59970,322.0,0.0,153.0,-12.6,0.0,0,0.0,0.0,0.0,11.0,-1.1,55.6,0.0,-258.0,0.0,-0.02,1.0,0.0,18.0,14.0,0.0,29.88,-478.0,0.0,0.0,241.0,0.0,0.0,0.0,0.0,0.0,0.0,0.0,0.0,0.0,0.0,0.0,0.0,0.0,0.0,0.0,0.0,0.0,0.0,0.0,0.0,0.0,0.0,0.0,0.0,0.0,9.0,0.0,0.0,30.6,0.0,0.0,0.0,23.6,0.0,0.0,38.0,0.0,0.0,-0.2,0.6,0.2,0.0,0.0,0.0,0.0,48.2,55.4,50.0,60.8,48.2,57.2,50.0,64.4,0.0,0.0,-2.0,1.0,0.0,23.6,3.0,0.0,0.0,0.0,0.653,0.833,0.0,8.7,0.0,0.0,0.0,0,0.0,0.0,0.0017500000000000003,329.0,True,2026-01-10 20:11:22 - Flight 3
76.06,2,10,2026-01-10 20:12:38,37.08155,-121.59970,322.0,0.1,153.0,-12.6,0.0,0,0.0,0.0,0.0,11.0,-1.0,55.7,0.0,-258.0,0.0,-0.02,1.0,0.0,5.0,14.0,0.0,29.88,-477.0,0.0,0.0,241.0,0.0,0.0,0.0,0.0,0.0,0.0,0.0,0.0,0.0,0.0,0.0,0.0,0.0,0.0,0.0,0.0,0.0,0.0,0.0,0.0,0.0,0.0,0.0,0.0,0.0,9.0,0.0,0.0,30.6,0.0,0.0,0.0,23.6,0.0,0.0,38.0,0.0,0.0,-0.2,0.6,0.2,0.0,0.0,0.0,0.0,48.2,57.2,50.0,60.8,48.2,57.2,50.0,64.4,0.0,0.0,-2.0,1.0,0.0,23.6,3.0,0.0,0.0,0.0,0.653,0.833,0.0,8.7,0.0,0.0,0.0,0,0.0,0.0,0.0017500000000000003,329.0,True,2026-01-10 20:11:22 - Flight 3
77.06,2,10,2026-01-10 20:12:39,37.08158,-121.59969,305.0,0.1,153.0,-12.6,0.0,0,0.0,0.0,0.0,11.0,-1.0,55.6,0.0,-258.0,0.0,-0.02,1.0,0.0,13.0,14.0,0.0,29.88,-477.0,0.0,0.0,241.0,0.0,0.0,0.0,0.0,0.0,0.0,0.0,0.0,0.0,0.0,0.0,0.0,0.0,0.0,0.0,0.0,0.0,0.0,0.0,0.0,0.0,0.0,0.0,0.0,0.0,9.0,0.0,0.0,30.6,0.0,0.0,0.0,23.5,0.0,0.0,38.0,0.0,0.0,-0.2,0.6,0.2,0.0,0.0,0.0,0.0,48.2,57.2,50.0,60.8,48.2,57.2,50.0,64.4,0.0,0.0,-2.0,1.0,0.0,23.5,3.0,0.0,0.0,0.0,0.653,0.833,0.0,8.7,0.0,0.0,0.0,0,0.0,0.0,0.0017500000000000003,329.0,True,2026-01-10 20:11:22 - Flight 3
78.06,2,10,2026-01-10 20:12:40,37.08159,-121.59969,304.0,0.0,153.0,-12.6,0.0,0,0.0,0.0,0.0,11.0,-1.0,55.6,0.0,-258.0,0.0,-0.02,1.0,0.0,-31.0,14.0,0.0,29.88,-477.0,0.0,0.0,241.0,0.0,0.0,0.0,0.0,0.0,0.0,0.0,0.0,0.0,0.0,0.0,0.0,0.0,0.0,0.0,0.0,0.0,0.0,0.0,0.0,0.0,0.0,0.0,0.0,0.0,9.0,0.0,0.0,30.6,0.0,0.0,0.0,23.5,0.0,0.0,38.0,0.0,0.0,-0.3,0.6,0.2,0.0,0.0,0.0,0.0,48.2,57.2,50.0,60.8,48.2,57.2,50.0,64.4,0.0,0.0,-2.0,1.0,0.0,23.5,3.0,0.0,0.0,0.0,0.653,0.833,0.0,8.7,0.0,0.0,0.0,0,0.0,0.0,0.0017500000000000003,329.0,True,2026-01-10 20:11:22 - Flight 3
79.06,2,10,2026-01-10 20:12:41,37.08159,-121.59969,304.0,0.1,153.0,-12.6,0.0,0,0.0,0.0,0.0,11.0,-1.0,55.6,0.0,-258.0,-0.0,-0.02,1.0,0.0,-19.0,14.0,0.0,29.88,-467.0,0.0,0.0,241.0,0.0,0.0,0.0,0.0,0.0,0.0,0.0,0.0,0.0,0.0,0.0,0.0,0.0,0.0,0.0,0.0,0.0,0.0,0.0,0.0,0.0,0.0,0.0,0.0,0.0,9.0,0.0,0.0,30.6,0.0,0.0,0.0,23.5,0.0,0.0,38.0,0.0,0.0,-0.3,0.6,0.2,0.0,0.0,0.0,0.0,48.2,57.2,50.0,60.8,48.2,57.2,50.0,64.4,0.0,0.0,-2.0,1.0,0.0,23.5,3.0,0.0,0.0,0.0,0.653,0.833,0.0,8.7,0.0,0.0,0.0,0,0.0,0.0,0.0017500000000000003,329.0,True,2026-01-10 20:11:22 - Flight 3
80.06,2,10,2026-01-10 20:12:42,37.0816,-121.59969,303.0,0.0,153.0,-12.6,0.0,0,0.0,0.0,0.0,11.0,-1.0,55.6,0.0,-258.0,-0.0,-0.02,1.0,0.0,-27.0,14.0,0.0,29.88,-467.0,0.0,0.0,241.0,0.0,0.0,0.0,0.0,0.0,0.0,0.0,0.0,0.0,0.0,0.0,0.0,0.0,0.0,0.0,0.0,0.0,0.0,0.0,0.0,0.0,0.0,0.0,0.0,0.0,9.0,0.0,0.0,30.6,0.0,0.0,0.0,23.4,0.0,0.0,38.0,0.0,0.0,-0.3,0.6,0.2,0.0,0.0,0.0,0.0,48.2,57.2,50.0,60.8,48.2,57.2,50.0,64.4,0.0,0.0,-2.0,1.0,0.0,23.4,3.0,0.0,0.0,0.0,0.653,0.831,0.0,8.7,0.0,0.0,0.0,0,0.0,0.0,0.0017500000000000003,329.0,True,2026-01-10 20:11:22 - Flight 3
81.06,2,10,2026-01-10 20:12:43,37.0816,-121.59968,303.0,0.1,153.0,-12.6,0.0,0,0.0,0.0,0.0,11.0,-1.0,55.6,0.0,-258.0,-0.0,-0.02,1.0,0.0,-13.0,14.0,0.0,29.88,-467.0,0.0,0.0,241.0,0.0,0.0,0.0,0.0,0.0,0.0,0.0,0.0,0.0,0.0,0.0,0.0,0.0,0.0,0.0,0.0,0.0,0.0,0.0,0.0,0.0,0.0,0.0,0.0,0.0,9.0,0.0,0.0,30.6,0.0,0.0,0.0,23.4,0.0,0.0,38.0,0.0,0.0,-0.3,0.6,0.2,0.0,0.0,0.0,0.0,48.2,57.2,50.0,62.6,48.2,57.2,50.0,64.4,0.0,0.0,-2.0,1.0,0.0,23.4,3.0,0.0,0.0,0.0,0.653,0.831,0.0,8.7,0.0,0.0,0.0,0,0.0,0.0,0.0017500000000000003,329.0,True,2026-01-10 20:11:22 - Flight 3
82.06,2,10,2026-01-10 20:12:44,37.0816,-121.59968,303.0,0.1,153.0,-12.6,0.0,0,0.0,0.0,0.0,11.0,-1.0,55.6,0.0,-258.0,-0.0,-0.02,1.0,0.0,-11.0,14.0,0.0,29.88,-467.0,0.0,0.0,241.0,0.0,0.0,0.0,0.0,0.0,0.0,0.0,0.0,0.0,0.0,0.0,0.0,0.0,0.0,0.0,0.0,0.0,0.0,0.0,0.0,0.0,0.0,0.0,0.0,0.0,9.0,0.0,0.0,30.6,0.0,0.0,0.0,23.3,0.0,0.0,38.0,0.0,0.0,-0.3,0.6,0.2,0.0,0.0,0.0,0.0,48.2,57.2,50.0,60.8,48.2,57.2,50.0,64.4,0.0,0.0,-2.0,1.0,0.0,23.3,3.0,0.0,0.0,0.0,0.653,0.831,0.0,8.7,0.0,0.0,0.0,0,0.0,0.0,0.0017500000000000003,329.0,True,2026-01-10 20:11:22 - Flight 3
83.06,2,10,2026-01-10 20:12:45,37.0816,-121.59968,305.0,0.0,153.0,-12.6,0.0,0,0.0,0.0,0.0,11.0,-1.0,55.7,0.0,-258.0,0.0,-0.02,1.0,0.0,-47.0,14.0,0.0,29.88,-467.0,0.0,0.0,241.0,0.0,0.0,0.0,0.0,0.0,0.0,0.0,0.0,0.0,0.0,0.0,0.0,0.0,0.0,0.0,0.0,0.0,0.0,0.0,0.0,0.0,0.0,0.0,0.0,0.0,9.0,0.0,0.0,30.6,0.0,0.0,0.0,23.3,0.0,0.0,38.0,0.0,0.0,-0.3,0.6,0.2,0.0,0.0,0.0,0.0,48.2,57.2,50.0,60.8,48.2,57.2,50.0,64.4,0.0,0.0,-2.0,1.0,0.0,23.3,3.0,0.0,0.0,0.0,0.653,0.831,0.0,8.7,0.0,0.0,0.0,0,0.0,0.0,0.0017500000000000003,329.0,True,2026-01-10 20:11:22 - Flight 3
84.06,2,10,2026-01-10 20:12:46,37.0816,-121.59968,305.0,0.1,153.0,-12.6,0.0,0,0.0,0.0,0.0,11.1,-1.0,55.7,0.0,-258.0,0.0,-0.02,1.0,0.0,-22.0,14.0,0.0,29.88,-467.0,0.0,0.0,241.0,0.0,0.0,0.0,0.0,0.0,0.0,0.0,0.0,0.0,0.0,0.0,0.0,0.0,0.0,0.0,0.0,0.0,0.0,0.0,0.0,0.0,0.0,0.0,0.0,0.0,9.0,0.0,0.0,30.6,0.0,0.0,0.0,23.3,0.0,0.0,38.0,0.0,0.0,-0.3,0.6,0.2,0.0,0.0,0.0,0.0,48.2,57.2,50.0,60.8,48.2,57.2,50.0,64.4,0.0,0.0,-2.0,1.0,0.0,23.3,3.0,0.0,0.0,0.0,0.653,0.831,0.0,8.7,0.0,0.0,0.0,0,0.0,0.0,0.0017500000000000003,329.0,True,2026-01-10 20:11:22 - Flight 3
85.06,2,10,2026-01-10 20:12:47,37.0816,-121.59968,304.0,0.1,153.0,-12.6,0.0,0,0.0,0.0,0.0,11.0,-1.1,55.6,0.0,-258.0,-0.0,-0.02,1.0,0.0,-36.0,14.0,0.0,29.88,-467.0,0.0,0.0,241.0,0.0,0.0,0.0,0.0,0.0,0.0,0.0,0.0,0.0,0.0,0.0,0.0,0.0,0.0,0.0,0.0,0.0,0.0,0.0,0.0,0.0,0.0,0.0,0.0,0.0,9.0,0.0,0.0,30.6,0.0,0.0,0.0,23.2,0.0,0.0,38.0,0.0,0.0,-0.3,0.6,0.2,0.0,0.0,0.0,0.0,48.2,57.2,50.0,60.8,48.2,57.2,50.0,64.4,0.0,0.0,-2.0,1.0,0.0,23.2,3.0,0.0,0.0,0.0,0.653,0.831,0.0,8.7,0.0,0.0,0.0,0,0.0,0.0,0.0017500000000000003,329.0,True,2026-01-10 20:11:22 - Flight 3
86.06,2,10,2026-01-10 20:12:48,37.08158,-121.59969,307.0,0.1,153.0,-12.6,0.0,0,0.0,0.0,0.0,11.0,-1.1,55.5,0.0,-258.0,-0.0,-0.02,1.0,0.0,-44.0,14.0,0.0,29.88,-466.0,0.0,0.0,241.0,0.0,0.0,0.0,0.0,0.0,0.0,0.0,0.0,0.0,0.0,0.0,0.0,0.0,0.0,0.0,0.0,0.0,0.0,0.0,0.0,0.0,0.0,0.0,0.0,0.0,5.0,0.0,0.0,30.6,0.0,0.0,0.0,22.8,0.0,0.0,38.0,0.0,0.0,-0.3,0.6,0.2,0.0,0.0,0.0,0.0,35.6,41.0,37.4,46.4,35.6,41.0,37.4,48.2,0.0,0.0,-2.0,1.0,0.0,22.8,3.0,0.0,0.0,0.0,0.651,0.83,0.0,5.3,0.0,0.0,0.0,0,0.0,0.0,0.0017500000000000003,329.0,True,2026-01-10 20:11:22 - Flight 3
87.06,2,10,2026-01-10 20:12:49,37.08158,-121.59969,306.0,0.0,153.0,-12.6,0.0,0,0.0,0.0,0.0,11.0,-1.1,55.4,0.0,-258.0,-0.0,-0.02,1.0,0.0,-35.0,14.0,0.0,29.88,-466.0,0.0,0.0,241.0,0.0,0.0,0.0,0.0,0.0,0.0,0.0,0.0,0.0,0.0,0.0,0.0,0.0,0.0,0.0,0.0,0.0,0.0,0.0,0.0,0.0,0.0,0.0,0.0,0.0,7.0,97.0,97.0,30.9,0.0,0.0,0.0,26.4,0.0,0.0,38.0,0.0,0.0,-0.3,0.6,0.2,0.0,0.0,0.0,0.0,41.0,46.4,42.8,53.6,41.0,48.2,42.8,53.6,0.0,0.0,-2.0,0.0,0.0,26.4,3.0,0.0,0.0,0.0,0.652,0.83,0.0,6.8,0.0,0.0,0.0,0,0.0,97.0,0.0017500000000000003,329.0,True,2026-01-10 20:11:22 - Flight 3
88.06,2,10,2026-01-10 20:12:50,37.08158,-121.59969,305.0,0.1,153.0,-12.6,0.0,0,0.0,0.0,0.0,11.0,-1.1,55.4,0.0,-258.0,0.0,-0.02,1.0,0.0,-34.0,14.0,0.0,29.88,-466.0,0.0,0.0,241.0,0.0,0.0,0.0,0.0,0.0,0.0,0.0,0.0,0.0,0.0,0.0,0.0,0.0,0.0,0.0,0.0,0.0,0.0,0.0,0.0,0.0,0.0,0.0,0.0,0.0,7.0,119.0,119.0,30.5,0.9,0.0,0.9,22.0,0.0,0.0,38.0,0.0,0.0,-0.4,0.6,0.2,0.0,0.0,0.0,0.0,41.0,46.4,42.8,53.6,41.0,46.4,42.8,53.6,0.0,0.0,-2.0,0.0,0.0,22.0,3.0,0.0,0.0,0.0,0.652,0.83,0.1,6.6,0.0,0.0,0.0,0,0.0,119.0,0.0018750000000000004,329.0,True,2026-01-10 20:11:22 - Flight 3
89.06,2,10,2026-01-10 20:12:51,37.08158,-121.59969,304.0,0.1,153.0,-12.6,0.0,0,0.0,0.0,0.0,11.0,-1.2,55.4,0.0,-258.0,-0.0,-0.02,1.0,0.0,-22.0,14.0,0.0,29.88,-456.0,0.0,0.0,241.0,0.0,0.0,0.0,0.0,0.0,0.0,0.0,0.0,0.0,0.0,0.0,0.0,0.0,0.0,0.0,0.0,0.0,0.0,0.0,0.0,0.0,0.0,0.0,0.0,0.0,7.0,121.0,121.0,30.5,1.7,0.0,1.7,20.8,0.0,0.0,38.0,0.0,0.0,-0.4,0.6,0.2,0.0,0.0,0.0,0.0,41.0,46.4,42.8,53.6,41.0,46.4,42.8,53.6,0.0,0.0,-2.0,0.0,0.0,20.8,3.0,0.0,0.0,0.0,0.652,0.83,0.1,6.6,0.0,0.0,0.0,0,0.0,121.0,0.0022361111111111115,329.0,True,2026-01-10 20:11:22 - Flight 3
90.06,2,10,2026-01-10 20:12:52,37.08158,-121.59969,302.0,0.1,153.0,-12.6,0.0,0,0.0,0.0,0.0,11.0,-1.1,55.5,0.0,-258.0,0.0,-0.02,1.0,0.0,-6.0,14.0,0.0,29.88,-456.0,0.0,0.0,241.0,0.0,0.0,0.0,0.0,0.0,0.0,0.0,0.0,0.0,0.0,0.0,0.0,0.0,0.0,0.0,0.0,0.0,0.0,0.0,0.0,0.0,0.0,0.0,0.0,1.0,9.0,624.0,624.0,27.8,2.8,0.0,2.8,25.0,0.0,0.0,38.0,0.0,0.0,-0.4,0.6,0.2,0.0,0.0,0.0,0.0,50.0,105.8,50.0,109.4,50.0,55.4,50.0,96.8,0.0,0.0,-2.0,0.0,0.0,25.0,3.0,0.0,0.0,0.0,0.665,0.831,1.1,8.7,0.0,0.0,10.0,L,0.0,624.0,0.002861111111111111,329.0,True,2026-01-10 20:11:22 - Flight 3
91.06,2,10,2026-01-10 20:12:53,37.08154,-121.59968,285.0,0.1,153.0,-12.6,0.0,0,0.0,0.0,0.0,11.0,-1.1,55.6,0.0,-258.0,0.0,-0.02,1.0,0.0,32.0,14.0,0.0,29.88,-456.0,0.0,0.0,241.0,0.0,0.0,0.0,0.0,0.0,0.0,0.0,0.0,0.0,0.0,0.0,0.0,0.0,0.0,0.0,0.0,0.0,0.0,0.0,0.0,0.0,0.0,0.0,0.0,3.0,9.0,990.0,990.0,25.5,3.7,0.0,3.7,25.0,0.0,0.0,38.0,0.0,0.0,-0.3,0.6,0.2,0.0,0.0,0.0,0.0,48.2,195.8,51.8,161.6,48.2,59.0,50.0,145.4,0.0,0.0,-2.0,0.0,0.0,25.0,3.0,0.0,0.0,0.0,0.66,0.831,2.5,8.7,0.0,0.0,20.0,L,0.0,990.0,0.0037638888888888887,329.0,True,2026-01-10 20:11:22 - Flight 3
92.06,2,10,2026-01-10 20:12:54,37.08154,-121.59968,285.0,0.1,153.0,-12.6,0.0,0,0.0,0.0,0.0,11.0,-1.0,55.6,0.0,-258.0,-0.0,-0.02,1.0,0.0,37.0,14.0,0.0,29.88,-456.0,0.0,0.0,241.0,0.0,0.0,0.0,0.0,0.0,0.0,0.0,0.0,0.0,0.0,0.0,0.0,0.0,0.0,0.0,0.0,0.0,0.0,0.0,0.0,0.0,0.0,0.0,0.0,4.0,9.0,1263.0,1263.0,19.5,4.1,0.0,4.1,25.5,0.0,0.0,38.0,0.0,0.0,-0.3,0.6,0.2,0.0,0.0,0.0,0.0,50.0,309.2,51.8,217.4,50.0,170.6,51.8,213.8,0.0,0.0,-2.0,0.0,0.0,25.5,3.0,0.0,0.0,0.0,0.659,0.83,4.1,8.7,0.0,0.0,20.0,R,0.0,1263.0,0.0048472222222222215,329.0,True,2026-01-10 20:11:22 - Flight 3
93.06,2,10,2026-01-10 20:12:55,37.08155,-121.59967,285.0,0.0,153.0,-12.6,0.0,0,0.0,0.0,0.0,10.9,-1.0,55.6,0.0,-258.0,-0.0,-0.01,1.0,0.0,14.0,14.0,0.0,29.88,-455.0,0.0,0.0,241.0,0.0,0.0,0.0,0.0,0.0,0.0,0.0,0.0,0.0,0.0,0.0,0.0,0.0,0.0,0.0,0.0,0.0,0.0,0.0,0.0,0.0,0.0,0.0,0.0,6.0,9.0,1382.0,1382.0,17.8,4.3,0.0,4.3,25.6,0.0,0.0,38.0,0.0,0.0,-0.3,0.6,0.2,0.0,0.0,0.0,0.0,50.0,404.6,53.6,289.4,50.0,267.8,53.6,273.2,0.0,0.0,-2.0,0.0,0.0,25.6,3.0,0.0,0.0,0.0,0.657,0.831,5.9,8.7,0.0,0.0,0.0,0,0.0,1382.0,0.006013888888888888,329.0,True,2026-01-10 20:11:22 - Flight 3
94.06,2,10,2026-01-10 20:12:56,37.08155,-121.59967,284.0,0.0,153.0,-12.6,0.0,0,0.0,0.0,0.0,10.9,-0.9,55.6,0.0,-258.0,0.0,-0.02,1.0,0.0,50.0,14.0,0.0,29.88,-455.0,0.0,0.0,241.0,0.0,0.0,0.0,0.0,0.0,0.0,0.0,0.0,0.0,0.0,0.0,0.0,0.0,0.0,0.0,0.0,0.0,0.0,0.0,0.0,0.0,0.0,0.0,0.0,8.0,9.0,1482.0,1482.0,16.6,4.5,0.0,4.5,25.9,0.0,0.0,38.0,0.0,0.0,-0.3,0.6,0.2,0.0,0.0,0.0,0.0,50.0,489.2,53.6,357.8,50.0,356.0,53.6,330.8,0.0,0.0,-2.0,0.0,0.0,25.9,3.0,0.0,0.0,0.0,0.658,0.831,8.0,8.7,0.0,0.0,0.0,0,0.0,1482.0,0.00723611111111111,329.0,True,2026-01-10 20:11:22 - Flight 3
95.06,2,10,2026-01-10 20:12:57,37.08157,-121.59968,283.0,0.1,153.0,-12.6,0.0,0,0.0,0.0,0.0,10.9,-1.0,55.6,0.0,-258.0,-0.0,-0.02,1.0,0.0,52.0,14.0,0.0,29.88,-455.0,0.0,0.0,241.0,0.0,0.0,0.0,0.0,0.0,0.0,0.0,0.0,0.0,0.0,0.0,0.0,0.0,0.0,0.0,0.0,0.0,0.0,0.0,0.0,0.0,0.0,0.0,0.0,10.0,9.0,1524.0,1524.0,15.8,4.7,0.0,4.7,26.1,0.0,0.0,38.0,0.0,0.0,-0.3,0.6,0.2,0.0,0.0,0.0,0.0,51.8,566.6,55.4,417.2,51.8,438.8,55.4,384.8,0.0,0.0,-2.0,0.0,0.0,26.1,3.0,0.0,0.0,0.0,0.656,0.831,10.3,8.7,0.0,0.0,0.0,0,0.0,1524.0,0.008513888888888887,329.0,True,2026-01-10 20:11:22 - Flight 3
96.06,2,10,2026-01-10 20:12:58,37.08157,-121.59968,291.0,0.1,153.0,-12.6,0.0,0,0.0,0.0,0.0,10.9,-1.0,55.6,0.0,-258.0,-0.0,-0.01,1.0,0.0,72.0,14.0,0.0,29.88,-443.0,0.0,0.0,241.0,0.0,0.0,0.0,0.0,0.0,0.0,0.0,0.0,0.0,0.0,0.0,0.0,0.0,0.0,0.0,0.0,0.0,0.0,0.0,0.0,0.0,0.0,0.0,0.0,13.0,9.0,1533.0,1533.0,15.6,4.8,0.0,4.8,26.3,0.0,0.0,38.0,0.0,0.0,-0.3,0.6,0.2,0.0,0.0,0.0,0.0,53.6,636.8,57.2,473.0,53.6,514.4,57.2,437.0,0.0,0.0,-2.0,0.0,0.0,26.3,3.0,0.0,0.0,0.0,0.656,0.831,13.1,8.7,0.0,0.0,0.0,0,0.0,1533.0,0.009833333333333331,329.0,True,2026-01-10 20:11:22 - Flight 3
97.06,2,10,2026-01-10 20:12:59,37.08157,-121.59968,292.0,0.0,153.0,-12.6,0.0,0,0.0,0.0,0.0,10.9,-0.9,55.6,0.0,-258.0,-0.0,-0.02,1.0,0.0,59.0,14.0,0.0,29.88,-443.0,0.0,0.0,241.0,0.0,0.0,0.0,0.0,0.0,0.0,0.0,0.0,0.0,0.0,0.0,0.0,0.0,0.0,0.0,0.0,0.0,0.0,0.0,0.0,0.0,0.0,0.0,0.0,16.0,9.0,1555.0,1555.0,15.6,4.9,0.0,4.9,26.4,0.0,0.0,38.0,0.0,0.0,-0.3,0.6,0.2,0.0,0.0,0.0,0.0,55.4,699.8,57.2,523.4,53.6,581.0,59.0,485.6,0.0,0.0,-2.0,0.0,0.0,26.4,3.0,0.0,0.0,0.0,0.656,0.831,16.4,8.8,0.0,0.0,0.0,0,0.0,1555.0,0.011180555555555553,329.0,True,2026-01-10 20:11:22 - Flight 3
98.06,2,10,2026-01-10 20:13:00,37.08157,-121.59968,292.0,0.0,153.0,-12.6,0.0,0,0.0,0.0,0.0,10.9,-0.9,55.6,0.0,-256.0,-0.0,-0.01,1.0,0.0,68.0,14.0,0.0,29.88,-441.0,0.0,0.0,241.0,0.0,0.0,0.0,0.0,0.0,0.0,0.0,0.0,0.0,0.0,0.0,0.0,0.0,0.0,0.0,0.0,0.0,0.0,0.0,0.0,0.0,0.0,0.0,0.0,20.0,9.0,1451.0,1451.0,14.9,4.9,0.0,4.9,26.5,0.0,0.0,38.0,0.0,0.0,-0.3,0.6,0.2,0.0,0.0,0.0,0.0,55.4,752.0,59.0,572.0,55.4,640.4,60.8,530.6,0.0,0.0,-2.0,0.0,0.0,26.5,3.0,0.0,0.0,0.0,0.656,0.831,20.2,8.8,0.0,0.0,0.0,0,0.0,1451.0,0.012541666666666665,329.0,True,2026-01-10 20:11:22 - Flight 3
99.06,2,10,2026-01-10 20:13:01,37.08157,-121.59968,292.0,0.1,153.0,-12.6,0.0,0,0.0,0.0,0.0,11.0,-1.0,55.6,0.0,-255.0,-0.0,-0.02,0.9,0.0,56.0,14.0,0.0,29.88,-430.0,0.0,0.0,241.0,0.0,0.0,0.0,0.0,0.0,0.0,0.0,0.0,0.0,0.0,0.0,0.0,0.0,0.0,0.0,0.0,0.0,0.0,0.0,0.0,0.0,0.0,0.0,0.0,25.0,9.0,1295.0,1295.0,14.5,4.7,0.0,4.7,26.6,0.0,0.0,38.0,0.0,0.0,-0.3,0.6,0.2,0.0,0.0,0.0,0.0,57.2,788.0,60.8,613.4,57.2,687.2,62.6,566.6,0.0,0.0,-2.0,0.0,0.0,26.6,3.0,0.0,0.0,0.0,0.653,0.83,24.6,8.8,0.0,0.0,0.0,0,0.0,1295.0,0.013874999999999998,329.0,True,2026-01-10 20:11:22 - Flight 3
100.06,2,10,2026-01-10 20:13:02,37.08157,-121.59968,293.0,0.1,153.0,-12.6,0.0,0,0.0,0.0,0.0,10.9,-0.9,55.6,0.0,-255.0,-0.0,-0.01,1.0,0.0,35.0,14.0,0.0,29.88,-429.0,0.0,0.0,241.0,0.0,0.0,0.0,0.0,0.0,0.0,0.0,0.0,0.0,0.0,0.0,0.0,0.0,0.0,0.0,0.0,0.0,0.0,0.0,0.0,0.0,0.0,0.0,0.0,30.0,9.0,1059.0,1059.0,12.8,4.4,0.0,4.4,26.8,0.0,0.0,38.0,0.0,0.0,-0.3,0.6,0.2,0.0,0.0,0.0,0.0,59.0,815.0,62.6,645.8,57.2,719.6,64.4,599.0,0.0,0.0,-2.0,0.0,0.0,26.8,3.0,0.0,0.0,0.0,0.653,0.83,29.6,8.8,0.0,0.0,0.0,0,0.0,1059.0,0.015138888888888887,329.0,True,2026-01-10 20:11:22 - Flight 3
101.06,2,10,2026-01-10 20:13:03,37.08157,-121.59968,293.0,0.0,153.0,-12.6,0.0,0,0.0,0.0,0.0,10.9,-1.0,55.5,0.0,-255.0,-0.0,-0.01,0.9,0.0,30.0,14.0,0.0,29.88,-429.0,0.0,0.0,241.0,0.0,0.0,0.0,0.0,0.0,0.0,0.0,0.0,0.0,0.0,0.0,0.0,0.0,0.0,0.0,0.0,0.0,0.0,0.0,0.0,0.0,0.0,0.0,0.0,35.0,9.0,1041.0,1041.0,12.8,4.0,0.0,4.0,26.8,0.0,0.0,38.0,0.0,0.0,-0.3,0.6,0.2,0.0,0.0,0.0,0.0,59.0,829.4,62.6,669.2,59.0,744.8,66.2,624.2,0.0,0.0,-2.0,0.0,0.0,26.8,3.0,0.0,0.0,0.0,0.653,0.83,35.1,8.9,0.0,0.0,0.0,0,0.0,1041.0,0.016305555555555556,329.0,True,2026-01-10 20:11:22 - Flight 3
102.06,2,10,2026-01-10 20:13:04,37.08157,-121.59968,294.0,0.1,153.0,-12.6,0.0,0,0.0,0.0,0.0,10.9,-1.0,55.6,0.0,-254.0,-0.0,-0.02,1.0,0.0,24.0,14.0,0.0,29.88,-428.0,0.0,0.0,241.0,0.0,0.0,0.0,0.0,0.0,0.0,0.0,0.0,0.0,0.0,0.0,0.0,0.0,0.0,0.0,0.0,0.0,0.0,0.0,0.0,0.0,0.0,0.0,0.0,41.0,9.0,995.0,995.0,12.7,3.7,0.0,3.7,26.8,0.0,0.0,38.0,0.0,0.0,-0.3,0.6,0.2,0.0,0.0,0.0,0.0,60.8,840.2,64.4,692.6,59.0,766.4,66.2,647.6,0.0,0.0,-2.0,0.0,0.0,26.8,3.0,0.0,0.0,0.0,0.653,0.83,40.9,8.9,0.0,0.0,0.0,0,0.0,995.0,0.017375,329.0,True,2026-01-10 20:11:22 - Flight 3
103.06,2,10,2026-01-10 20:13:05,37.08158,-121.59968,295.0,0.1,153.0,-12.6,0.0,0,0.0,0.0,0.0,10.9,-1.0,55.6,0.0,-253.0,-0.0,-0.02,1.0,0.0,43.0,14.0,0.0,29.88,-416.0,0.0,0.0,241.0,0.0,0.0,0.0,0.0,0.0,0.0,0.0,0.0,0.0,0.0,0.0,0.0,0.0,0.0,0.0,0.0,0.0,0.0,0.0,0.0,0.0,0.0,0.0,0.0,47.0,9.0,961.0,961.0,12.8,3.4,0.0,3.4,26.8,0.0,0.0,38.0,0.0,0.0,-0.3,0.6,0.2,0.0,0.0,0.0,0.0,62.6,852.8,64.4,712.4,60.8,779.0,68.0,667.4,0.0,0.0,-2.0,0.0,0.0,26.8,3.0,0.0,0.0,0.0,0.654,0.83,46.7,8.9,0.0,0.0,0.0,0,0.0,961.0,0.018361111111111113,329.0,True,2026-01-10 20:11:22 - Flight 3
104.06,2,10,2026-01-10 20:13:06,37.08158,-121.59967,297.0,0.0,153.0,-12.6,0.0,0,0.0,0.0,0.0,10.9,-1.0,55.6,0.0,-253.0,-0.0,-0.02,1.0,0.0,3.0,14.0,0.0,29.88,-416.0,0.0,0.0,241.0,0.0,0.0,0.0,0.0,0.0,0.0,0.0,0.0,0.0,0.0,0.0,0.0,0.0,0.0,0.0,0.0,0.0,0.0,0.0,0.0,0.0,0.0,0.0,0.0,52.0,9.0,965.0,965.0,12.8,3.2,0.0,3.2,26.8,0.0,0.0,38.0,0.0,0.0,-0.2,0.6,0.2,0.0,0.0,0.0,0.0,62.6,861.8,66.2,726.8,60.8,791.6,69.8,683.6,0.0,0.0,-2.0,0.0,0.0,26.8,3.0,0.0,0.0,0.0,0.653,0.83,52.1,8.9,0.0,0.0,0.0,0,0.0,965.0,0.01927777777777778,329.0,True,2026-01-10 20:11:22 - Flight 3
105.06,2,10,2026-01-10 20:13:07,37.08158,-121.59967,298.0,0.1,153.0,-12.6,0.0,0,0.0,0.0,0.0,10.9,-1.0,55.6,0.0,-253.0,-0.0,-0.02,1.0,0.0,31.0,14.0,0.0,29.88,-416.0,0.0,0.0,241.0,0.0,0.0,0.0,0.0,0.0,0.0,0.0,0.0,0.0,0.0,0.0,0.0,0.0,0.0,0.0,0.0,0.0,0.0,0.0,0.0,0.0,0.0,0.0,0.0,57.0,9.0,651.0,651.0,12.0,2.9,0.0,2.9,27.1,0.0,0.0,38.0,0.0,0.0,-0.2,0.6,0.2,0.0,0.0,0.0,0.0,64.4,861.8,68.0,737.6,62.6,798.8,69.8,698.0,0.0,0.0,-2.0,0.0,0.0,27.1,3.0,0.0,0.0,0.0,0.653,0.83,56.8,8.9,0.0,0.0,0.0,0,0.0,651.0,0.020125,329.0,True,2026-01-10 20:11:22 - Flight 3
106.06,2,10,2026-01-10 20:13:08,37.08158,-121.59967,300.0,0.1,153.0,-12.6,0.0,0,0.0,0.0,0.0,10.9,-1.0,55.6,0.0,-253.0,-0.0,-0.02,1.0,0.0,33.0,14.0,0.0,29.88,-415.0,0.0,0.0,241.0,0.0,0.0,0.0,0.0,0.0,0.0,0.0,0.0,0.0,0.0,0.0,0.0,0.0,0.0,0.0,0.0,0.0,0.0,0.0,0.0,0.0,0.0,0.0,0.0,61.0,9.0,654.0,654.0,13.5,2.6,0.0,2.6,27.0,0.0,0.0,38.0,0.0,0.0,-0.3,0.6,0.2,0.0,0.0,0.0,0.0,64.4,861.8,68.0,741.2,62.6,797.0,71.6,705.2,0.0,0.0,-2.0,0.0,0.0,27.0,3.0,0.0,0.0,0.0,0.653,0.831,60.5,8.9,0.0,0.0,0.0,0,0.0,654.0,0.02088888888888889,329.0,True,2026-01-10 20:11:22 - Flight 3
