Session Time,GPS Fix Quality,Number of Satellites,GPS Date & Time,Latitude (deg),Longitude (deg),GPS Altitude (feet),Ground Speed (knots),Ground Track (deg),Mag Var (deg),Cross Track Error (NM),Destination Waypoint ID,Range to Destination (NM),Bearing to Destination (deg),System Time,Pitch (deg),Roll (deg),Magnetic Heading (deg),Indicated Airspeed (knots),Pressure Altitude (ft),Turn Rate (deg/s),Lateral Accel (g),Vertical Accel(g),Angle of Attack (%),Vertical Speed (ft/min),OAT (deg C),True Airspeed (knots),Barometer Setting (inHg),Density Altitude (ft),Wind Direction (deg),Wind Speed (knots),Heading Bug (deg),Altitude Bug (ft),Airspeed Bug (knots),Vertical Speed Bug (ft/min),Course (deg),CDI Source Type,CDI Source Port,CDI Scale (NM),CDI Deflection (%),Glideslope (%),AP Engaged,AP Roll Mode,AP Roll Force,AP Roll Position (steps),AP Roll Slip (bool),AP Pitch Force,AP Pitch Position (steps),AP Pitch Slip (bool),AP Yaw Force,AP Yaw Position,AP Yaw Slip (bool),Transponder Status,Transponder Reply (bool),Transponder Identing (bool),Transponder Code (octal),Oil Pressure (PSI),Oil Temp (deg C),RPM L,RPM R,Manifold Pressure (inHg),Fuel Flow 1 (gal/hr),Fuel Flow 2 (gal/hr),Total Fuel Flow (gal/hr),Fuel Pressure (PSI),Fuel Level L (gal),Fuel Level R (gal),Fuel Remaining (gal),Volts 1,Volts 2,Amps,Hobbs Time,Tach Time,Thermocouple 1 (deg C),Thermocouple 2 (deg C),Thermocouple 3 (deg C),Thermocouple 4 (deg C),CHT 4 (deg C),EGT 4 (deg C),CHT 3 (deg C),EGT 3 (deg C),CHT 2 (deg C),EGT 2 (deg C),CHT 1 (deg C),EGT 1 (deg C),Thermocouple 13 (deg C),Thermocouple 14 (deg C),ELEV POSITION (%),CO PPM PRESSURE (PSI),GP Input 3,FUEL PRESSURE (PSI),AILERN POSITION (%),CANOPY CONTACT (V),GP Input 7,GP Input 8,LEFT LEVEL (Sensor V),RIGHT LEVEL (Sensor V),OIL PRESSURE (PSI),OIL TEMPERATURE (deg C),GP Input 13,Contacts,Percent Power,EGT Leaning State,Unnamed: 103,OAT (deg F),Oil Temp (deg F),Thermocouple 1 (deg F),Thermocouple 2 (deg F),Thermocouple 3 (deg F),Thermocouple 4 (deg F),CHT 4 (deg F),EGT 4 (deg F),CHT 3 (deg F),EGT 3 (deg F),CHT 2 (deg F),EGT 2 (deg F),CHT 1 (deg F),EGT 1 (deg F),Thermocouple 13 (deg F),Thermocouple 14 (deg F),OIL TEMPERATURE (deg F),RPM,AVG_CHT,CHT_Delta_T,OIL_Delta_T,Fuel Flow Integral,Distance Traveled,MPG,Max CHT,Engine Run,Flight ID
6.06,1,7,2026-04-30 00:54:35,37.08156,-121.59962,345.0,0.0,336.1,-12.6,0.0,,0.0,0.0,0.0,10.8,-0.7,16.6,0.0,241.0,0.1,-0.01,1.0,99.0,-29.0,27.0,0.0,29.89,1697.0,0.0,0.0,144.0,0.0,0.0,0.0,0.0,0.0,0.0,0.0,0.0,0.0,0.0,0.0,0.0,0.0,0.0,0.0,0.0,0.0,0.0,0.0,0.0,0.0,0.0,0.0,0.0,0.0,41.0,0.0,0.0,30.0,0.0,0.0,0.0,0.9,0.0,0.0,21.6,0.0,0.0,0.1,13.0,10.7,0.0,0.0,0.0,0.0,88.0,50.0,90.0,52.0,89.0,55.0,89.0,51.0,0.0,0.0,1.0,254.2,0.0,0.9,3.0,0.0,0.0,0.0,1.304,0.829,0.0,41.0,0.0,0.0,0.0,,0.0,80.6,105.8,0.0,0.0,0.0,0.0,190.4,122.0,194.0,125.6,192.2,131.0,192.2,123.8,0.0,0.0,105.8,0.0,192.2,111.6,25.200000000000003,0.0,0.0,0.0,381.2,True,2026-04-30 00:54:35
7.06,1,7,2026-04-30 00:54:36,37.08156,-121.59962,322.0,0.0,336.1,-12.6,0.0,,0.0,0.0,0.0,10.8,-0.7,16.7,0.0,240.0,0.1,-0.01,1.0,99.0,-49.0,27.0,0.0,29.89,1696.0,0.0,0.0,144.0,0.0,0.0,0.0,0.0,0.0,0.0,0.0,0.0,0.0,0.0,0.0,0.0,0.0,0.0,0.0,0.0,0.0,0.0,0.0,0.0,0.0,0.0,0.0,0.0,0.0,41.0,0.0,0.0,30.0,0.0,0.0,0.0,0.9,0.0,0.0,21.6,0.0,0.0,0.1,13.0,10.7,0.0,0.0,0.0,0.0,88.0,50.0,90.0,52.0,89.0,55.0,89.0,51.0,0.0,0.0,1.0,254.2,0.0,0.9,3.0,0.0,0.0,0.0,1.304,0.83,0.0,41.0,0.0,0.0,0.0,,0.0,80.6,105.8,0.0,0.0,0.0,0.0,190.4,122.0,194.0,125.6,192.2,131.0,192.2,123.8,0.0,0.0,105.8,0.0,192.2,111.6,25.200000000000003,0.0,0.0,0.0,381.2,True,2026-04-30 00:54:35
8.06,1,7,2026-04-30 00:54:37,37.08156,-121.59962,322.0,0.0,336.1,-12.6,0.0,,0.0,0.0,0.0,10.8,-0.8,16.6,0.0,239.0,0.1,-0.01,1.0,99.0,-65.0,27.0,0.0,29.89,1696.0,0.0,0.0,144.0,0.0,0.0,0.0,0.0,0.0,0.0,0.0,0.0,0.0,0.0,0.0,0.0,0.0,0.0,0.0,0.0,0.0,0.0,0.0,0.0,0.0,0.0,0.0,0.0,0.0,41.0,0.0,0.0,30.0,0.0,0.0,0.0,0.9,0.0,0.0,21.6,0.0,0.0,0.1,13.0,10.7,0.0,0.0,0.0,0.0,88.0,50.0,90.0,52.0,89.0,55.0,89.0,51.0,0.0,0.0,1.0,254.2,0.0,0.9,3.0,0.0,0.0,0.0,1.304,0.829,0.0,40.9,0.0,0.0,0.0,,0.0,80.6,105.8,0.0,0.0,0.0,0.0,190.4,122.0,194.0,125.6,192.2,131.0,192.2,123.8,0.0,0.0,105.61999999999999,0.0,192.2,111.6,25.019999999999996,0.0,0.0,0.0,381.2,True,2026-04-30 00:54:35
9.06,1,7,2026-04-30 00:54:38,37.08156,-121.59962,321.0,0.0,336.1,-12.6,0.0,,0.0,0.0,0.0,10.7,-0.7,16.6,0.0,237.0,0.1,-0.01,1.0,99.0,-70.0,27.0,0.0,29.89,1696.0,0.0,0.0,144.0,0.0,0.0,0.0,0.0,0.0,0.0,0.0,0.0,0.0,0.0,0.0,0.0,0.0,0.0,0.0,0.0,0.0,0.0,0.0,0.0,0.0,0.0,0.0,0.0,0.0,41.0,0.0,0.0,30.0,0.0,0.0,0.0,0.9,0.0,0.0,21.6,0.0,0.0,0.1,13.0,10.7,0.0,0.0,0.0,0.0,88.0,50.0,90.0,52.0,89.0,55.0,89.0,51.0,0.0,0.0,1.0,254.2,0.0,0.9,3.0,0.0,0.0,0.0,1.304,0.829,0.0,40.9,0.0,0.0,0.0,,0.0,80.6,105.8,0.0,0.0,0.0,0.0,190.4,122.0,194.0,125.6,192.2,131.0,192.2,123.8,0.0,0.0,105.61999999999999,0.0,192.2,111.6,25.019999999999996,0.0,0.0,0.0,381.2,True,2026-04-30 00:54:35
10.06,1,7,2026-04-30 00:54:39,37.08156,-121.59962,321.0,0.0,336.1,-12.6,0.0,,0.0,0.0,0.0,10.8,-0.7,16.7,0.0,235.0,0.1,-0.01,1.0,99.0,-71.0,27.0,0.0,29.89,1700.0,0.0,0.0,144.0,0.0,0.0,0.0,0.0,0.0,0.0,0.0,0.0,0.0,0.0,0.0,0.0,0.0,0.0,0.0,0.0,0.0,0.0,0.0,0.0,0.0,0.0,0.0,0.0,0.0,41.0,0.0,0.0,30.0,0.0,0.0,0.0,0.9,0.0,0.0,21.6,0.0,0.0,0.1,13.0,10.7,0.0,0.0,0.0,0.0,88.0,50.0,90.0,52.0,89.0,55.0,89.0,51.0,0.0,0.0,1.0,254.2,0.0,0.9,3.0,0.0,0.0,0.0,1.304,0.83,0.0,40.9,0.0,0.0,0.0,,0.0,80.6,105.8,0.0,0.0,0.0,0.0,190.4,122.0,194.0,125.6,192.2,131.0,192.2,123.8,0.0,0.0,105.61999999999999,0.0,192.2,111.6,25.019999999999996,0.0,0.0,0.0,381.2,True,2026-04-30 00:54:35
11.06,1,7,2026-04-30 00:54:40,37.08156,-121.59962,321.0,0.0,336.1,-12.6,0.0,,0.0,0.0,0.0,10.8,-0.7,16.7,0.0,235.0,0.1,-0.01,1.0,99.0,-51.0,27.0,0.0,29.89,1700.0,0.0,0.0,144.0,0.0,0.0,0.0,0.0,0.0,0.0,0.0,0.0,0.0,0.0,0.0,0.0,0.0,0.0,0.0,0.0,0.0,0.0,0.0,0.0,0.0,0.0,0.0,0.0,0.0,41.0,0.0,0.0,30.0,0.0,0.0,0.0,0.9,0.0,0.0,21.6,0.0,0.0,0.1,13.0,10.7,0.0,0.0,0.0,0.0,88.0,50.0,90.0,52.0,89.0,55.0,89.0,51.0,0.0,0.0,1.0,254.2,0.0,0.9,3.0,0.0,0.0,0.0,1.304,0.829,0.0,40.9,0.0,0.0,0.0,,0.0,80.6,105.8,0.0,0.0,0.0,0.0,190.4,122.0,194.0,125.6,192.2,131.0,192.2,123.8,0.0,0.0,105.61999999999999,0.0,192.2,111.6,25.019999999999996,0.0,0.0,0.0,381.2,True,2026-04-30 00:54:35
12.06,1,7,2026-04-30 00:54:41,37.08156,-121.59962,321.0,0.0,336.1,-12.6,0.0,,0.0,0.0,0.0,10.7,-0.7,16.7,0.0,235.0,0.1,-0.01,1.0,99.0,-31.0,27.0,0.0,29.89,1700.0,0.0,0.0,144.0,0.0,0.0,0.0,0.0,0.0,0.0,0.0,0.0,0.0,0.0,0.0,0.0,0.0,0.0,0.0,0.0,0.0,0.0,0.0,0.0,0.0,0.0,0.0,0.0,0.0,41.0,0.0,0.0,30.0,0.0,0.0,0.0,0.9,0.0,0.0,21.6,0.0,0.0,0.1,13.0,10.7,0.0,0.0,0.0,0.0,88.0,50.0,90.0,52.0,89.0,55.0,89.0,51.0,0.0,0.0,1.0,254.2,0.0,0.9,3.0,0.0,0.0,0.0,1.304,0.829,0.0,40.9,0.0,0.0,0.0,,0.0,80.6,105.8,0.0,0.0,0.0,0.0,190.4,122.0,194.0,125.6,192.2,131.0,192.2,123.8,0.0,0.0,105.61999999999999,0.0,192.2,111.6,25.019999999999996,0.0,0.0,0.0,381.2,True,2026-04-30 00:54:35
13.06,1,7,2026-04-30 00:54:42,37.08156,-121.59962,322.0,0.1,336.1,-12.6,0.0,,0.0,0.0,0.0,10.7,-0.7,16.7,0.0,235.0,0.1,-0.01,1.0,99.0,-4.0,27.0,0.0,29.89,1701.0,0.0,0.0,144.0,0.0,0.0,0.0,0.0,0.0,0.0,0.0,0.0,0.0,0.0,0.0,0.0,0.0,0.0,0.0,0.0,0.0,0.0,0.0,0.0,0.0,0.0,0.0,0.0,0.0,41.0,0.0,0.0,30.0,0.0,0.0,0.0,0.9,0.0,0.0,21.6,0.0,0.0,0.1,13.0,10.7,0.0,0.0,0.0,0.0,88.0,50.0,90.0,52.0,89.0,55.0,89.0,51.0,0.0,0.0,1.0,254.2,0.0,0.9,3.0,0.0,0.0,0.0,1.304,0.831,0.0,40.9,0.0,0.0,0.0,,0.0,80.6,105.8,0.0,0.0,0.0,0.0,190.4,122.0,194.0,125.6,192.2,131.0,192.2,123.8,0.0,0.0,105.61999999999999,0.0,192.2,111.6,25.019999999999996,0.0,0.08433333333333333,0.0,381.2,True,2026-04-30 00:54:35
14.06,1,7,2026-04-30 00:54:43,37.08156,-121.59962,322.0,0.0,336.1,-12.6,0.0,,0.0,0.0,0.0,10.8,-0.7,16.7,0.0,235.0,0.1,-0.01,1.0,99.0,6.0,27.0,0.0,29.89,1701.0,0.0,0.0,144.0,0.0,0.0,0.0,0.0,0.0,0.0,0.0,0.0,0.0,0.0,0.0,0.0,0.0,0.0,0.0,0.0,0.0,0.0,0.0,0.0,0.0,0.0,0.0,0.0,0.0,41.0,0.0,0.0,30.0,0.0,0.0,0.0,0.9,0.0,0.0,21.6,0.0,0.0,0.1,13.0,10.7,0.0,0.0,0.0,0.0,88.0,50.0,90.0,52.0,89.0,55.0,89.0,51.0,0.0,0.0,1.0,254.2,0.0,0.9,3.0,0.0,0.0,0.0,1.304,0.829,0.0,40.9,0.0,0.0,0.0,,0.0,80.6,105.8,0.0,0.0,0.0,0.0,190.4,122.0,194.0,125.6,192.2,131.0,192.2,123.8,0.0,0.0,105.61999999999999,0.0,192.2,111.6,25.019999999999996,0.0,0.16866666666666666,0.0,381.2,True,2026-04-30 00:54:35
15.06,1,7,2026-04-30 00:54:44,37.08156,-121.59962,321.0,0.0,336.1,-12.6,0.0,,0.0,0.0,0.0,10.8,-0.7,16.7,0.0,235.0,0.1,-0.01,1.0,99.0,23.0,27.0,0.0,29.89,1701.0,0.0,0.0,144.0,0.0,0.0,0.0,0.0,0.0,0.0,0.0,0.0,0.0,0.0,0.0,0.0,0.0,0.0,0.0,0.0,0.0,0.0,0.0,0.0,0.0,0.0,0.0,0.0,0.0,41.0,0.0,0.0,30.0,0.0,0.0,0.0,0.9,0.0,0.0,21.6,0.0,0.0,0.1,13.0,10.7,0.0,0.0,0.0,0.0,88.0,50.0,90.0,52.0,88.0,55.0,89.0,51.0,0.0,0.0,1.0,254.2,0.0,0.9,3.0,0.0,0.0,0.0,1.304,0.829,0.0,40.9,0.0,0.0,0.0,,0.0,80.6,105.8,0.0,0.0,0.0,0.0,190.4,122.0,194.0,125.6,190.4,131.0,192.2,123.8,0.0,0.0,105.61999999999999,0.0,191.75,111.15,25.019999999999996,0.0,0.16866666666666666,0.0,381.2,True,2026-04-30 00:54:35
16.06,1,7,2026-04-30 00:54:45,37.08156,-121.59962,321.0,0.0,336.1,-12.6,0.0,,0.0,0.0,0.0,10.8,-0.7,16.7,0.0,235.0,0.1,-0.01,1.0,99.0,5.0,27.0,0.0,29.89,1701.0,0.0,0.0,144.0,0.0,0.0,0.0,0.0,0.0,0.0,0.0,0.0,0.0,0.0,0.0,0.0,0.0,0.0,0.0,0.0,0.0,0.0,0.0,0.0,0.0,0.0,0.0,0.0,0.0,41.0,0.0,0.0,30.0,0.0,0.0,0.0,0.1,0.0,0.0,21.6,0.0,0.0,0.0,13.0,10.7,0.0,0.0,0.0,0.0,88.0,50.0,90.0,52.0,88.0,55.0,89.0,51.0,0.0,0.0,1.0,254.2,0.0,0.1,3.0,0.0,0.0,0.0,1.304,0.831,0.0,40.9,0.0,0.0,0.0,,0.0,80.6,105.8,0.0,0.0,0.0,0.0,190.4,122.0,194.0,125.6,190.4,131.0,192.2,123.8,0.0,0.0,105.61999999999999,0.0,191.75,111.15,25.019999999999996,0.0,0.16866666666666666,0.0,381.2,True,2026-04-30 00:54:35
17.06,1,7,2026-04-30 00:54:46,37.08156,-121.59961,320.0,0.1,336.1,-12.6,0.0,,0.0,0.0,0.0,10.8,-0.7,16.7,0.0,235.0,0.1,-0.01,1.0,99.0,4.0,27.0,0.0,29.89,1702.0,0.0,0.0,144.0,0.0,0.0,0.0,0.0,0.0,0.0,0.0,0.0,0.0,0.0,0.0,0.0,0.0,0.0,0.0,0.0,0.0,0.0,0.0,0.0,0.0,0.0,0.0,0.0,0.0,41.0,0.0,0.0,30.0,0.0,0.0,0.0,0.0,0.0,0.0,21.6,0.0,0.0,0.0,13.0,10.7,0.0,0.0,0.0,0.0,88.0,50.0,90.0,52.0,88.0,55.0,89.0,51.0,0.0,0.0,1.0,254.2,0.0,0.0,3.0,0.0,0.0,0.0,1.304,0.83,0.0,40.9,0.0,0.0,0.0,,0.0,80.6,105.8,0.0,0.0,0.0,0.0,190.4,122.0,194.0,125.6,190.4,131.0,192.2,123.8,0.0,0.0,105.61999999999999,0.0,191.75,111.15,25.019999999999996,0.0,0.253,0.0,381.2,True,2026-04-30 00:54:35
18.06,1,7,2026-04-30 00:54:47,37.08156,-121.59961,320.0,0.0,336.1,-12.6,0.0,,0.0,0.0,0.0,10.9,-0.7,16.8,0.0,235.0,0.1,-0.01,1.0,99.0,1.0,27.0,0.0,29.89,1702.0,0.0,0.0,144.0,0.0,0.0,0.0,0.0,0.0,0.0,0.0,0.0,0.0,0.0,0.0,0.0,0.0,0.0,0.0,0.0,0.0,0.0,0.0,0.0,0.0,0.0,0.0,0.0,0.0,41.0,0.0,0.0,30.0,0.1,0.0,0.1,0.0,0.0,0.0,21.6,0.0,0.0,0.0,13.0,10.7,0.0,0.0,0.0,0.0,88.0,50.0,90.0,52.0,88.0,55.0,89.0,51.0,0.0,0.0,1.0,254.2,0.0,0.0,3.0,0.0,0.0,0.0,1.304,0.829,0.0,41.0,0.0,0.0,0.0,,0.0,80.6,105.8,0.0,0.0,0.0,0.0,190.4,122.0,194.0,125.6,190.4,131.0,192.2,123.8,0.0,0.0,105.8,0.0,191.75,111.15,25.200000000000003,1.388888888888889e-05,0.3373333333333333,0.0,381.2,True,2026-04-30 00:54:35
19.06,1,7,2026-04-30 00:54:48,37.08156,-121.59961,319.0,0.0,336.1,-12.6,0.0,,0.0,0.0,0.0,10.8,-0.7,16.7,0.0,235.0,0.1,-0.01,1.0,99.0,9.0,27.0,0.0,29.89,1702.0,0.0,0.0,144.0,0.0,0.0,0.0,0.0,0.0,0.0,0.0,0.0,0.0,0.0,0.0,0.0,0.0,0.0,0.0,0.0,0.0,0.0,0.0,0.0,0.0,0.0,0.0,0.0,0.0,41.0,0.0,0.0,30.0,0.1,0.0,0.1,0.0,0.0,0.0,21.6,0.0,0.0,0.0,13.0,10.7,0.0,0.0,0.0,0.0,88.0,50.0,90.0,52.0,88.0,55.0,89.0,51.0,0.0,0.0,0.0,254.2,0.0,0.0,3.0,0.0,0.0,0.0,1.304,0.829,0.0,40.9,0.0,0.0,0.0,,0.0,80.6,105.8,0.0,0.0,0.0,0.0,190.4,122.0,194.0,125.6,190.4,131.0,192.2,123.8,0.0,0.0,105.61999999999999,0.0,191.75,111.15,25.019999999999996,4.166666666666667e-05,0.3373333333333333,0.0,381.2,True,2026-04-30 00:54:35
20.06,1,7,2026-04-30 00:54:49,37.08156,-121.59961,318.0,0.0,336.1,-12.6,0.0,,0.0,0.0,0.0,10.9,-0.7,16.8,0.0,235.0,0.1,-0.01,1.0,99.0,8.0,27.0,0.0,29.89,1711.0,0.0,0.0,144.0,0.0,0.0,0.0,0.0,0.0,0.0,0.0,0.0,0.0,0.0,0.0,0.0,0.0,0.0,0.0,0.0,0.0,0.0,0.0,0.0,0.0,0.0,0.0,0.0,0.0,41.0,0.0,0.0,30.0,0.0,0.0,0.0,0.0,0.0,0.0,21.6,0.0,0.0,0.0,13.0,10.7,0.0,0.0,0.0,0.0,88.0,50.0,90.0,52.0,88.0,55.0,89.0,51.0,0.0,0.0,0.0,254.2,0.0,0.0,3.0,0.0,0.0,0.0,1.304,0.829,0.0,41.0,0.0,0.0,0.0,,0.0,80.6,105.8,0.0,0.0,0.0,0.0,190.4,122.0,194.0,125.6,190.4,131.0,192.2,123.8,0.0,0.0,105.8,0.0,191.75,111.15,25.200000000000003,5.555555555555556e-05,0.3373333333333333,0.0,381.2,True,2026-04-30 00:54:35
21.06,1,7,2026-04-30 00:54:50,37.08156,-121.59961,317.0,0.0,336.1,-12.6,0.0,,0.0,0.0,0.0,10.8,-0.8,16.8,0.0,235.0,0.1,-0.01,1.0,99.0,19.0,27.0,0.0,29.89,1711.0,0.0,0.0,144.0,0.0,0.0,0.0,0.0,0.0,0.0,0.0,0.0,0.0,0.0,0.0,0.0,0.0,0.0,0.0,0.0,0.0,0.0,0.0,0.0,0.0,0.0,0.0,0.0,0.0,41.0,0.0,0.0,30.0,0.0,0.0,0.0,0.0,0.0,0.0,21.6,0.0,0.0,0.0,13.0,10.7,0.0,0.0,0.0,0.0,88.0,50.0,90.0,52.0,88.0,55.0,89.0,51.0,0.0,0.0,0.0,254.2,0.0,0.0,3.0,0.0,0.0,0.0,1.304,0.829,0.0,41.0,0.0,0.0,0.0,,0.0,80.6,105.8,0.0,0.0,0.0,0.0,190.4,122.0,194.0,125.6,190.4,131.0,192.2,123.8,0.0,0.0,105.8,0.0,191.75,111.15,25.200000000000003,5.555555555555556e-05,0.3373333333333333,0.0,381.2,True,2026-04-30 00:54:35
22.06,1,7,2026-04-30 00:54:51,37.08156,-121.59961,315.0,0.0,336.1,-12.6,0.0,,0.0,0.0,0.0,10.8,-0.8,16.7,0.0,235.0,0.1,-0.01,1.0,99.0,-22.0,27.0,0.0,29.89,1711.0,0.0,0.0,144.0,0.0,0.0,0.0,0.0,0.0,0.0,0.0,0.0,0.0,0.0,0.0,0.0,0.0,0.0,0.0,0.0,0.0,0.0,0.0,0.0,0.0,0.0,0.0,0.0,0.0,41.0,0.0,0.0,30.0,0.0,0.0,0.0,0.0,0.0,0.0,21.6,0.0,0.0,0.0,13.0,10.7,0.0,0.0,0.0,0.0,88.0,50.0,90.0,52.0,88.0,55.0,89.0,51.0,0.0,0.0,0.0,254.2,0.0,0.0,3.0,0.0,0.0,0.0,1.304,0.829,0.0,41.0,0.0,0.0,0.0,,0.0,80.6,105.8,0.0,0.0,0.0,0.0,190.4,122.0,194.0,125.6,190.4,131.0,192.2,123.8,0.0,0.0,105.8,0.0,191.75,111.15,25.200000000000003,5.555555555555556e-05,0.3373333333333333,0.0,381.2,True,2026-04-30 00:54:35
23.06,1,7,2026-04-30 00:54:52,37.08156,-121.59961,314.0,0.0,336.1,-12.6,0.0,,0.0,0.0,0.0,10.8,-0.8,16.7,0.0,235.0,0.1,-0.01,1.0,99.0,-59.0,27.0,0.0,29.89,1711.0,0.0,0.0,144.0,0.0,0.0,0.0,0.0,0.0,0.0,0.0,0.0,0.0,0.0,0.0,0.0,0.0,0.0,0.0,0.0,0.0,0.0,0.0,0.0,0.0,0.0,0.0,0.0,0.0,41.0,0.0,0.0,30.0,0.0,0.0,0.0,0.0,0.0,0.0,21.6,0.0,0.0,0.0,13.0,10.7,0.0,0.0,0.0,0.0,88.0,50.0,90.0,52.0,88.0,55.0,89.0,51.0,0.0,0.0,0.0,254.2,0.0,0.0,3.0,0.0,0.0,0.0,1.304,0.829,0.0,41.0,0.0,0.0,0.0,,0.0,80.6,105.8,0.0,0.0,0.0,0.0,190.4,122.0,194.0,125.6,190.4,131.0,192.2,123.8,0.0,0.0,105.8,0.0,191.75,111.15,25.200000000000003,5.555555555555556e-05,0.3373333333333333,0.0,381.2,True,2026-04-30 00:54:35
24.06,1,7,2026-04-30 00:54:53,37.08156,-121.59961,313.0,0.0,336.1,-12.6,0.0,,0.0,0.0,0.0,10.8,-0.8,16.7,0.0,235.0,0.1,-0.01,1.0,99.0,-69.0,27.0,0.0,29.89,1712.0,0.0,0.0,144.0,0.0,0.0,0.0,0.0,0.0,0.0,0.0,0.0,0.0,0.0,0.0,0.0,0.0,0.0,0.0,0.0,0.0,0.0,0.0,0.0,0.0,0.0,0.0,0.0,0.0,41.0,0.0,0.0,30.0,0.0,0.0,0.0,0.0,0.0,0.0,21.6,0.0,0.0,0.0,13.0,10.7,0.0,0.0,0.0,0.0,88.0,50.0,90.0,52.0,88.0,55.0,89.0,51.0,0.0,0.0,0.0,254.2,0.0,0.0,3.0,0.0,0.0,0.0,1.304,0.829,0.0,41.0,0.0,0.0,0.0,,0.0,80.6,105.8,0.0,0.0,0.0,0.0,190.4,122.0,194.0,125.6,190.4,131.0,192.2,123.8,0.0,0.0,105.8,0.0,191.75,111.15,25.200000000000003,5.555555555555556e-05,0.3373333333333333,0.0,381.2,True,2026-04-30 00:54:35
25.06,1,7,2026-04-30 00:54:54,37.08156,-121.59961,311.0,0.0,336.1,-12.6,0.0,,0.0,0.0,0.0,10.8,-0.8,16.6,0.0,234.0,0.1,-0.01,1.0,99.0,-52.0,27.0,0.0,29.89,1712.0,0.0,0.0,144.0,0.0,0.0,0.0,0.0,0.0,0.0,0.0,0.0,0.0,0.0,0.0,0.0,0.0,0.0,0.0,0.0,0.0,0.0,0.0,0.0,0.0,0.0,0.0,0.0,0.0,41.0,0.0,0.0,30.0,0.0,0.0,0.0,0.0,0.0,0.0,21.6,0.0,0.0,0.0,13.0,10.7,0.0,0.0,0.0,0.0,88.0,50.0,90.0,52.0,88.0,55.0,89.0,51.0,0.0,0.0,0.0,254.2,0.0,0.0,3.0,0.0,0.0,0.0,1.304,0.829,0.0,41.0,0.0,0.0,0.0,,0.0,80.6,105.8,0.0,0.0,0.0,0.0,190.4,122.0,194.0,125.6,190.4,131.0,192.2,123.8,0.0,0.0,105.8,0.0,191.75,111.15,25.200000000000003,5.555555555555556e-05,0.3373333333333333,0.0,381.2,True,2026-04-30 00:54:35
26.06,1,7,2026-04-30 00:54:55,37.08156,-121.59961,310.0,0.0,336.1,-12.6,0.0,,0.0,0.0,0.0,10.9,-0.8,16.6,0.0,234.0,0.1,-0.01,1.0,99.0,-44.0,27.0,0.0,29.89,1712.0,0.0,0.0,144.0,0.0,0.0,0.0,0.0,0.0,0.0,0.0,0.0,0.0,0.0,0.0,0.0,0.0,0.0,0.0,0.0,0.0,0.0,0.0,0.0,0.0,0.0,0.0,0.0,0.0,41.0,0.0,0.0,30.0,0.0,0.0,0.0,0.0,0.0,0.0,21.6,0.0,0.0,0.0,13.0,10.7,0.0,0.0,0.0,0.0,88.0,50.0,90.0,52.0,88.0,55.0,89.0,51.0,0.0,0.0,0.0,254.2,0.0,0.0,3.0,0.0,0.0,0.0,1.304,0.829,0.0,41.0,0.0,0.0,0.0,,0.0,80.6,105.8,0.0,0.0,0.0,0.0,190.4,122.0,194.0,125.6,190.4,131.0,192.2,123.8,0.0,0.0,105.8,0.0,191.75,111.15,25.200000000000003,5.555555555555556e-05,0.3373333333333333,0.0,381.2,True,2026-04-30 00:54:35
27.06,1,7,2026-04-30 00:54:56,37.08156,-121.59962,309.0,0.0,336.1,-12.6,0.0,,0.0,0.0,0.0,10.9,-0.8,16.6,0.0,233.0,0.1,-0.01,1.0,99.0,-52.0,27.0,0.0,29.89,1720.0,0.0,0.0,144.0,0.0,0.0,0.0,0.0,0.0,0.0,0.0,0.0,0.0,0.0,0.0,0.0,0.0,0.0,0.0,0.0,0.0,0.0,0.0,0.0,0.0,0.0,0.0,0.0,0.0,41.0,0.0,0.0,30.0,0.0,0.0,0.0,0.0,0.0,0.0,21.6,0.0,0.0,0.0,13.0,10.7,0.0,0.0,0.0,0.0,88.0,50.0,90.0,52.0,88.0,55.0,89.0,51.0,0.0,0.0,0.0,254.2,0.0,0.0,3.0,0.0,0.0,0.0,1.304,0.829,0.0,41.0,0.0,0.0,0.0,,0.0,80.6,105.8,0.0,0.0,0.0,0.0,190.4,122.0,194.0,125.6,190.4,131.0,192.2,123.8,0.0,0.0,105.8,0.0,191.75,111.15,25.200000000000003,5.555555555555556e-05,0.3373333333333333,0.0,381.2,True,2026-04-30 00:54:35
28.06,1,7,2026-04-30 00:54:57,37.08156,-121.59962,308.0,0.0,336.1,-12.6,0.0,,0.0,0.0,0.0,10.9,-0.8,16.6,0.0,232.0,0.1,-0.01,1.0,99.0,-50.0,27.0,0.0,29.89,1720.0,0.0,0.0,144.0,0.0,0.0,0.0,0.0,0.0,0.0,0.0,0.0,0.0,0.0,0.0,0.0,0.0,0.0,0.0,0.0,0.0,0.0,0.0,0.0,0.0,0.0,0.0,0.0,0.0,41.0,0.0,0.0,30.0,0.0,0.0,0.0,0.0,0.0,0.0,21.6,0.0,0.0,0.0,13.0,10.7,0.0,0.0,0.0,0.0,88.0,50.0,90.0,52.0,88.0,55.0,89.0,51.0,0.0,0.0,0.0,254.2,0.0,0.0,3.0,0.0,0.0,0.0,1.304,0.829,0.0,41.0,0.0,0.0,0.0,,0.0,80.6,105.8,0.0,0.0,0.0,0.0,190.4,122.0,194.0,125.6,190.4,131.0,192.2,123.8,0.0,0.0,105.8,0.0,191.75,111.15,25.200000000000003,5.555555555555556e-05,0.3373333333333333,0.0,381.2,True,2026-04-30 00:54:35
29.06,1,7,2026-04-30 00:54:58,37.08156,-121.59962,307.0,0.0,336.1,-12.6,0.0,,0.0,0.0,0.0,10.9,-0.8,16.6,0.0,230.0,0.1,-0.01,1.0,99.0,-88.0,27.0,0.0,29.89,1720.0,0.0,0.0,144.0,0.0,0.0,0.0,0.0,0.0,0.0,0.0,0.0,0.0,0.0,0.0,0.0,0.0,0.0,0.0,0.0,0.0,0.0,0.0,0.0,0.0,0.0,0.0,0.0,0.0,41.0,0.0,0.0,30.0,0.0,0.0,0.0,2.3,0.0,0.0,21.6,0.0,0.0,0.0,13.0,10.7,0.0,0.0,0.0,0.0,88.0,50.0,90.0,53.0,88.0,55.0,89.0,51.0,0.0,0.0,0.0,254.2,0.0,2.3,3.0,0.0,0.0,0.0,1.304,0.829,0.0,41.0,0.0,0.0,0.0,,0.0,80.6,105.8,0.0,0.0,0.0,0.0,190.4,122.0,194.0,127.4,190.4,131.0,192.2,123.8,0.0,0.0,105.8,0.0,191.75,111.15,25.200000000000003,5.555555555555556e-05,0.3373333333333333,0.0,381.2,True,2026-04-30 00:54:35
30.06,1,7,2026-04-30 00:54:59,37.08156,-121.59962,306.0,0.0,336.1,-12.6,0.0,,0.0,0.0,0.0,10.9,-0.7,16.6,0.0,229.0,0.1,-0.01,1.0,99.0,-92.0,27.0,0.0,29.89,1715.0,0.0,0.0,144.0,0.0,0.0,0.0,0.0,0.0,0.0,0.0,0.0,0.0,0.0,0.0,0.0,0.0,0.0,0.0,0.0,0.0,0.0,0.0,0.0,0.0,0.0,0.0,0.0,0.0,41.0,0.0,0.0,30.0,1.2,0.0,1.2,31.0,0.0,0.0,21.6,0.0,0.0,-0.0,13.0,10.7,0.0,0.0,0.0,0.0,88.0,50.0,90.0,53.0,88.0,55.0,89.0,51.0,0.0,0.0,0.0,254.2,0.0,31.0,3.0,0.0,0.0,0.0,1.304,0.829,0.0,41.0,0.0,0.0,0.0,,0.0,80.6,105.8,0.0,0.0,0.0,0.0,190.4,122.0,194.0,127.4,190.4,131.0,192.2,123.8,0.0,0.0,105.8,0.0,191.75,111.15,25.200000000000003,0.00022222222222222223,0.3373333333333333,0.0,381.2,True,2026-04-30 00:54:35
31.06,1,7,2026-04-30 00:55:00,37.08156,-121.59962,306.0,0.0,336.1,-12.6,0.0,,0.0,0.0,0.0,10.9,-0.7,16.6,0.0,226.0,0.1,-0.01,1.0,99.0,-110.0,27.0,0.0,29.89,1715.0,0.0,0.0,144.0,0.0,0.0,0.0,0.0,0.0,0.0,0.0,0.0,0.0,0.0,0.0,0.0,0.0,0.0,0.0,0.0,0.0,0.0,0.0,0.0,0.0,0.0,0.0,0.0,0.0,41.0,0.0,0.0,30.0,2.1,0.0,2.1,32.2,0.0,0.0,21.6,0.0,0.0,-0.0,13.0,10.7,0.0,0.0,0.0,0.0,88.0,50.0,90.0,52.0,88.0,55.0,89.0,51.0,0.0,0.0,0.0,254.2,0.0,32.2,3.0,0.0,0.0,0.0,1.304,0.829,0.0,41.0,0.0,0.0,0.0,,0.0,80.6,105.8,0.0,0.0,0.0,0.0,190.4,122.0,194.0,125.6,190.4,131.0,192.2,123.8,0.0,0.0,105.8,0.0,191.75,111.15,25.200000000000003,0.0006805555555555556,0.3373333333333333,0.0,381.2,True,2026-04-30 00:54:35
32.06,1,7,2026-04-30 00:55:01,37.08156,-121.59962,305.0,0.0,336.1,-12.6,0.0,,0.0,0.0,0.0,10.8,-0.7,16.6,0.0,224.0,0.0,-0.01,1.0,99.0,-129.0,27.0,0.0,29.89,1715.0,0.0,0.0,144.0,0.0,0.0,0.0,0.0,0.0,0.0,0.0,0.0,0.0,0.0,0.0,0.0,0.0,0.0,0.0,0.0,0.0,0.0,0.0,0.0,0.0,0.0,0.0,0.0,0.0,41.0,0.0,0.0,30.0,1.8,0.0,1.8,32.6,0.0,0.0,21.6,0.0,0.0,-0.0,13.0,10.7,0.0,0.0,0.0,0.0,88.0,50.0,90.0,52.0,88.0,55.0,89.0,51.0,0.0,0.0,0.0,254.2,0.0,32.6,3.0,0.0,0.0,0.0,1.304,0.829,0.0,41.0,0.0,0.0,0.0,,0.0,80.6,105.8,0.0,0.0,0.0,0.0,190.4,122.0,194.0,125.6,190.4,131.0,192.2,123.8,0.0,0.0,105.8,0.0,191.75,111.15,25.200000000000003,0.0012222222222222242,0.3373333333333333,0.0,381.2,True,2026-04-30 00:54:35
33.06,1,7,2026-04-30 00:55:02,37.08156,-121.59962,304.0,0.0,336.1,-12.6,0.0,,0.0,0.0,0.0,10.9,-0.7,16.7,0.0,224.0,0.1,-0.01,1.0,99.0,-78.0,27.0,0.0,29.89,1718.0,0.0,0.0,144.0,0.0,0.0,0.0,0.0,0.0,0.0,0.0,0.0,0.0,0.0,0.0,0.0,0.0,0.0,0.0,0.0,0.0,0.0,0.0,0.0,0.0,0.0,0.0,0.0,0.0,41.0,0.0,0.0,30.0,1.8,0.0,1.8,32.3,0.0,0.0,21.6,0.0,0.0,-0.0,13.0,10.7,0.0,0.0,0.0,0.0,88.0,50.0,90.0,52.0,88.0,55.0,89.0,51.0,0.0,0.0,0.0,254.2,0.0,32.3,3.0,0.0,0.0,0.0,1.304,0.829,0.0,41.0,0.0,0.0,0.0,,0.0,80.6,105.8,0.0,0.0,0.0,0.0,190.4,122.0,194.0,125.6,190.4,131.0,192.2,123.8,0.0,0.0,105.8,0.0,191.75,111.15,25.200000000000003,0.0017222222222222242,0.3373333333333333,0.0,381.2,True,2026-04-30 00:54:35
34.06,1,7,2026-04-30 00:55:03,37.08156,-121.59962,303.0,0.0,336.1,-12.6,0.0,,0.0,0.0,0.0,10.9,-0.7,16.7,0.0,222.0,0.1,-0.01,1.0,99.0,-83.0,27.0,0.0,29.89,1718.0,0.0,0.0,144.0,0.0,0.0,0.0,0.0,0.0,0.0,0.0,0.0,0.0,0.0,0.0,0.0,0.0,0.0,0.0,0.0,0.0,0.0,0.0,0.0,0.0,0.0,0.0,0.0,0.0,41.0,0.0,0.0,30.0,1.8,0.0,1.8,32.0,0.0,0.0,21.6,0.0,0.0,-0.0,13.0,10.7,0.0,0.0,0.0,0.0,88.0,50.0,90.0,53.0,88.0,55.0,89.0,51.0,0.0,0.0,0.0,254.2,0.0,32.0,3.0,0.0,0.0,0.0,1.304,0.829,0.0,41.0,0.0,0.0,0.0,,0.0,80.6,105.8,0.0,0.0,0.0,0.0,190.4,122.0,194.0,127.4,190.4,131.0,192.2,123.8,0.0,0.0,105.8,0.0,191.75,111.15,25.200000000000003,0.0022222222222222244,0.3373333333333333,0.0,381.2,True,2026-04-30 00:54:35
35.06,1,7,2026-04-30 00:55:04,37.08156,-121.59962,302.0,0.0,336.1,-12.6,0.0,,0.0,0.0,0.0,10.9,-0.7,16.7,0.0,221.0,0.1,-0.01,1.0,99.0,-107.0,27.0,0.0,29.89,1718.0,0.0,0.0,144.0,0.0,0.0,0.0,0.0,0.0,0.0,0.0,0.0,0.0,0.0,0.0,0.0,0.0,0.0,0.0,0.0,0.0,0.0,0.0,0.0,0.0,0.0,0.0,0.0,0.0,41.0,0.0,0.0,30.0,0.0,0.0,0.0,31.8,0.0,0.0,21.6,0.0,0.0,-0.0,13.0,10.7,0.0,0.0,0.0,0.0,88.0,50.0,90.0,52.0,88.0,55.0,89.0,51.0,0.0,0.0,0.0,254.2,0.0,31.8,3.0,0.0,0.0,0.0,1.304,0.829,0.0,41.0,0.0,0.0,0.0,,0.0,80.6,105.8,0.0,0.0,0.0,0.0,190.4,122.0,194.0,125.6,190.4,131.0,192.2,123.8,0.0,0.0,105.8,0.0,191.75,111.15,25.200000000000003,0.002472222222222224,0.3373333333333333,0.0,381.2,True,2026-04-30 00:54:35
36.06,1,7,2026-04-30 00:55:05,37.08156,-121.59962,301.0,0.1,336.1,-12.6,0.0,,0.0,0.0,0.0,10.9,-0.7,16.8,0.0,219.0,0.1,-0.01,1.0,99.0,-100.0,27.0,0.0,29.89,1713.0,0.0,0.0,144.0,0.0,0.0,0.0,0.0,0.0,0.0,0.0,0.0,0.0,0.0,0.0,0.0,0.0,0.0,0.0,0.0,0.0,0.0,0.0,0.0,0.0,0.0,0.0,0.0,0.0,41.0,0.0,0.0,30.0,0.0,0.0,0.0,31.6,0.0,0.0,21.6,0.0,0.0,-0.0,13.0,10.7,0.0,0.0,0.0,0.0,88.0,50.0,90.0,52.0,88.0,55.0,89.0,51.0,0.0,0.0,0.0,254.2,0.0,31.6,3.0,0.0,0.0,0.0,1.304,0.829,0.0,41.0,0.0,0.0,0.0,,0.0,80.6,105.8,0.0,0.0,0.0,0.0,190.4,122.0,194.0,125.6,190.4,131.0,192.2,123.8,0.0,0.0,105.8,0.0,191.75,111.15,25.200000000000003,0.002472222222222224,0.42166666666666663,0.0,381.2,True,2026-04-30 00:54:35
37.06,1,7,2026-04-30 00:55:06,37.08156,-121.59962,301.0,0.0,336.1,-12.6,0.0,,0.0,0.0,0.0,10.9,-0.7,16.8,0.0,217.0,0.1,-0.01,1.0,99.0,-95.0,27.0,0.0,29.89,1713.0,0.0,0.0,144.0,0.0,0.0,0.0,0.0,0.0,0.0,0.0,0.0,0.0,0.0,0.0,0.0,0.0,0.0,0.0,0.0,0.0,0.0,0.0,0.0,0.0,0.0,0.0,0.0,0.0,41.0,0.0,0.0,30.0,0.0,0.0,0.0,31.4,0.0,0.0,21.6,0.0,0.0,-0.0,13.0,10.7,0.0,0.0,0.0,0.0,88.0,50.0,90.0,53.0,88.0,55.0,89.0,51.0,0.0,0.0,0.0,254.2,0.0,31.4,3.0,0.0,0.0,0.0,1.304,0.829,0.0,41.0,0.0,0.0,0.0,,0.0,80.6,105.8,0.0,0.0,0.0,0.0,190.4,122.0,194.0,127.4,190.4,131.0,192.2,123.8,0.0,0.0,105.8,0.0,191.75,111.15,25.200000000000003,0.002472222222222224,0.506,0.0,381.2,True,2026-04-30 00:54:35
38.06,1,7,2026-04-30 00:55:07,37.08156,-121.59962,300.0,0.0,336.1,-12.6,0.0,,0.0,0.0,0.0,10.8,-0.7,16.8,0.0,216.0,0.1,-0.01,1.0,99.0,-86.0,27.0,0.0,29.89,1713.0,0.0,0.0,144.0,0.0,0.0,0.0,0.0,0.0,0.0,0.0,0.0,0.0,0.0,0.0,0.0,0.0,0.0,0.0,0.0,0.0,0.0,0.0,0.0,0.0,0.0,0.0,0.0,0.0,41.0,0.0,0.0,30.0,0.0,0.0,0.0,31.2,0.0,0.0,21.6,0.0,0.0,-0.0,13.0,10.7,0.0,0.0,0.0,0.0,88.0,50.0,90.0,52.0,88.0,55.0,89.0,51.0,0.0,0.0,0.0,254.2,0.0,31.2,3.0,0.0,0.0,0.0,1.304,0.829,0.0,41.0,0.0,0.0,0.0,,0.0,80.6,105.8,0.0,0.0,0.0,0.0,190.4,122.0,194.0,125.6,190.4,131.0,192.2,123.8,0.0,0.0,105.8,0.0,191.75,111.15,25.200000000000003,0.002472222222222224,0.506,0.0,381.2,True,2026-04-30 00:54:35
39.06,1,7,2026-04-30 00:55:08,37.08156,-121.59961,299.0,0.0,336.1,-12.6,0.0,,0.0,0.0,0.0,10.8,-0.7,16.7,0.0,216.0,0.0,-0.01,1.0,99.0,-32.0,27.0,0.0,29.89,1718.0,0.0,0.0,144.0,0.0,0.0,0.0,0.0,0.0,0.0,0.0,0.0,0.0,0.0,0.0,0.0,0.0,0.0,0.0,0.0,0.0,0.0,0.0,0.0,0.0,0.0,0.0,0.0,0.0,41.0,0.0,0.0,30.0,0.0,0.0,0.0,31.0,0.0,0.0,21.6,0.0,0.0,-0.0,13.0,10.7,0.0,0.0,0.0,0.0,88.0,50.0,90.0,52.0,88.0,55.0,89.0,51.0,0.0,0.0,0.0,254.2,0.0,31.0,3.0,0.0,0.0,0.0,1.304,0.829,0.0,41.1,0.0,0.0,0.0,,0.0,80.6,105.8,0.0,0.0,0.0,0.0,190.4,122.0,194.0,125.6,190.4,131.0,192.2,123.8,0.0,0.0,105.98,0.0,191.75,111.15,25.38000000000001,0.002472222222222224,0.506,0.0,381.2,True,2026-04-30 00:54:35
40.06,1,7,2026-04-30 00:55:09,37.08156,-121.59961,298.0,0.0,336.1,-12.6,0.0,,0.0,0.0,0.0,10.9,-0.7,16.8,0.0,216.0,0.1,-0.01,1.0,99.0,-48.0,27.0,0.0,29.89,1718.0,0.0,0.0,144.0,0.0,0.0,0.0,0.0,0.0,0.0,0.0,0.0,0.0,0.0,0.0,0.0,0.0,0.0,0.0,0.0,0.0,0.0,0.0,0.0,0.0,0.0,0.0,0.0,0.0,41.0,0.0,0.0,30.0,0.0,0.0,0.0,30.9,0.0,0.0,21.6,0.0,0.0,-0.0,13.0,10.7,0.0,0.0,0.0,0.0,88.0,50.0,90.0,52.0,88.0,55.0,89.0,51.0,0.0,0.0,0.0,231.5,0.0,30.9,3.0,0.0,0.0,0.0,1.304,0.829,0.0,41.1,0.0,0.0,0.0,,0.0,80.6,105.8,0.0,0.0,0.0,0.0,190.4,122.0,194.0,125.6,190.4,131.0,192.2,123.8,0.0,0.0,105.98,0.0,191.75,111.15,25.38000000000001,0.002472222222222224,0.506,0.0,381.2,True,2026-04-30 00:54:35
41.06,1,7,2026-04-30 00:55:10,37.08156,-121.59961,298.0,0.0,336.1,-12.6,0.0,,0.0,0.0,0.0,10.9,-0.7,16.8,0.0,216.0,0.1,-0.01,1.0,99.0,-14.0,27.0,0.0,29.89,1719.0,0.0,0.0,144.0,0.0,0.0,0.0,0.0,0.0,0.0,0.0,0.0,0.0,0.0,0.0,0.0,0.0,0.0,0.0,0.0,0.0,0.0,0.0,0.0,0.0,0.0,0.0,0.0,0.0,41.0,0.0,0.0,30.0,0.0,0.0,0.0,30.7,0.0,0.0,21.6,0.0,0.0,-0.0,13.0,10.7,0.0,0.0,0.0,0.0,88.0,50.0,90.0,52.0,88.0,55.0,89.0,51.0,0.0,0.0,0.0,180.2,0.0,30.7,3.0,0.0,0.0,0.0,1.304,0.828,0.0,41.1,0.0,0.0,0.0,,0.0,80.6,105.8,0.0,0.0,0.0,0.0,190.4,122.0,194.0,125.6,190.4,131.0,192.2,123.8,0.0,0.0,105.98,0.0,191.75,111.15,25.38000000000001,0.002472222222222224,0.506,0.0,381.2,True,2026-04-30 00:54:35
42.06,1,7,2026-04-30 00:55:11,37.08156,-121.59961,297.0,0.0,336.1,-12.6,0.0,,0.0,0.0,0.0,10.9,-0.7,16.8,0.0,215.0,0.1,-0.01,1.0,99.0,-59.0,27.0,0.0,29.89,1719.0,0.0,0.0,144.0,0.0,0.0,0.0,0.0,0.0,0.0,0.0,0.0,0.0,0.0,0.0,0.0,0.0,0.0,0.0,0.0,0.0,0.0,0.0,0.0,0.0,0.0,0.0,0.0,0.0,41.0,0.0,0.0,30.0,0.0,0.0,0.0,30.6,0.0,0.0,21.6,0.0,0.0,-0.0,13.0,10.7,0.0,0.0,0.0,0.0,88.0,50.0,90.0,52.0,88.0,55.0,89.0,51.0,0.0,0.0,0.0,140.3,0.0,30.6,3.0,0.0,0.0,0.0,1.304,0.828,0.0,41.1,0.0,0.0,0.0,,0.0,80.6,105.8,0.0,0.0,0.0,0.0,190.4,122.0,194.0,125.6,190.4,131.0,192.2,123.8,0.0,0.0,105.98,0.0,191.75,111.15,25.38000000000001,0.002472222222222224,0.506,0.0,381.2,True,2026-04-30 00:54:35
43.06,1,7,2026-04-30 00:55:12,37.08156,-121.59961,296.0,0.0,336.1,-12.6,0.0,,0.0,0.0,0.0,10.9,-0.6,16.9,0.0,214.0,0.1,-0.01,1.0,99.0,-65.0,27.0,0.0,29.89,1719.0,0.0,0.0,144.0,0.0,0.0,0.0,0.0,0.0,0.0,0.0,0.0,0.0,0.0,0.0,0.0,0.0,0.0,0.0,0.0,0.0,0.0,0.0,0.0,0.0,0.0,0.0,0.0,0.0,34.0,0.0,0.0,30.0,0.0,0.0,0.0,30.5,0.0,0.0,21.6,0.0,0.0,-0.0,13.0,10.7,0.0,0.0,0.0,0.0,83.0,44.0,85.0,46.0,83.0,48.0,84.0,45.0,0.0,0.0,0.0,109.2,0.0,30.5,3.0,0.0,0.0,0.0,1.302,0.828,0.0,34.2,0.0,0.0,0.0,,0.0,80.6,93.2,0.0,0.0,0.0,0.0,181.4,111.2,185.0,114.8,181.4,118.4,183.2,113.0,0.0,0.0,93.56,0.0,182.75,102.15,12.960000000000008,0.002472222222222224,0.506,0.0,381.2,True,2026-04-30 00:54:35
44.06,1,7,2026-04-30 00:55:13,37.08156,-121.59961,296.0,0.0,336.1,-12.6,0.0,,0.0,0.0,0.0,10.8,-0.6,16.9,0.0,213.0,0.1,-0.01,1.0,99.0,-52.0,27.0,0.0,29.89,1727.0,0.0,0.0,144.0,0.0,0.0,0.0,0.0,0.0,0.0,0.0,0.0,0.0,0.0,0.0,0.0,0.0,0.0,0.0,0.0,0.0,0.0,0.0,0.0,0.0,0.0,0.0,0.0,0.0,37.0,188.0,188.0,29.9,0.8,0.0,0.8,25.6,0.0,0.0,21.6,0.0,0.0,-0.1,13.0,10.7,0.0,0.0,0.0,0.0,85.0,47.0,87.0,49.0,86.0,52.0,86.0,48.0,0.0,0.0,0.0,85.1,0.0,25.6,3.0,0.0,0.0,0.0,1.304,0.829,0.4,37.1,0.0,0.0,0.0,,0.0,80.6,98.6,0.0,0.0,0.0,0.0,185.0,116.6,188.6,120.2,186.8,125.6,186.8,118.4,0.0,0.0,98.78,188.0,186.8,106.20000000000002,18.180000000000007,0.0025833333333333355,0.506,0.0,381.2,True,2026-04-30 00:54:35
45.06,1,7,2026-04-30 00:55:14,37.08156,-121.59961,295.0,0.0,336.1,-12.6,0.0,,0.0,0.0,0.0,10.8,-0.6,16.9,0.0,212.0,0.1,-0.01,1.0,99.0,-52.0,27.0,0.0,29.89,1727.0,0.0,0.0,144.0,0.0,0.0,0.0,0.0,0.0,0.0,0.0,0.0,0.0,0.0,0.0,0.0,0.0,0.0,0.0,0.0,0.0,0.0,0.0,0.0,0.0,0.0,0.0,0.0,2.0,37.0,194.0,194.0,29.8,1.4,0.0,1.4,20.1,0.0,0.0,21.6,0.0,0.0,-0.1,13.0,10.7,0.0,0.0,0.0,0.0,85.0,47.0,87.0,50.0,86.0,52.0,86.0,48.0,0.0,0.0,0.0,66.4,0.0,20.1,3.0,0.0,0.0,0.0,1.302,0.83,1.7,37.2,0.0,0.0,0.0,,0.0,80.6,98.6,0.0,0.0,0.0,0.0,185.0,116.6,188.6,122.0,186.8,125.6,186.8,118.4,0.0,0.0,98.96000000000001,194.0,186.8,106.20000000000002,18.360000000000014,0.002888888888888891,0.506,0.0,381.2,True,2026-04-30 00:54:35
46.06,1,7,2026-04-30 00:55:15,37.08156,-121.59961,295.0,0.1,336.1,-12.6,0.0,,0.0,0.0,0.0,10.9,-0.7,17.0,0.0,212.0,0.1,-0.01,1.0,99.0,-59.0,27.0,0.0,29.89,1727.0,0.0,0.0,144.0,0.0,0.0,0.0,0.0,0.0,0.0,0.0,0.0,0.0,0.0,0.0,0.0,0.0,0.0,0.0,0.0,0.0,0.0,0.0,0.0,0.0,0.0,0.0,0.0,8.0,37.0,195.0,195.0,29.8,2.1,0.0,2.1,21.3,0.0,0.0,21.6,0.0,0.0,-0.2,13.0,10.7,0.0,0.0,0.0,0.0,85.0,48.0,87.0,50.0,86.0,52.0,86.0,49.0,0.0,0.0,0.0,51.8,0.0,21.3,3.0,0.0,0.0,0.0,1.302,0.829,8.4,37.2,0.0,0.0,0.0,,0.0,80.6,98.6,0.0,0.0,0.0,0.0,185.0,118.4,188.6,122.0,186.8,125.6,186.8,120.2,0.0,0.0,98.96000000000001,195.0,186.8,106.20000000000002,18.360000000000014,0.003375000000000002,0.5903333333333333,0.047619047619047616,381.2,True,2026-04-30 00:54:35
47.06,1,7,2026-04-30 00:55:16,37.08155,-121.5996,295.0,0.0,336.1,-12.6,0.0,,0.0,0.0,0.0,10.9,-0.7,17.0,0.0,212.0,0.1,-0.01,1.0,99.0,-39.0,27.0,0.0,29.89,1723.0,0.0,0.0,144.0,0.0,0.0,0.0,0.0,0.0,0.0,0.0,0.0,0.0,0.0,0.0,0.0,0.0,0.0,0.0,0.0,0.0,0.0,0.0,0.0,0.0,0.0,0.0,0.0,23.0,37.0,194.0,194.0,29.6,2.7,0.0,2.7,18.0,0.0,0.0,21.6,0.0,0.0,-0.2,13.0,10.7,0.0,0.0,0.0,0.0,85.0,49.0,87.0,51.0,86.0,53.0,86.0,49.0,0.0,0.0,0.0,40.5,0.0,18.0,3.0,0.0,0.0,0.0,1.302,0.828,23.4,37.1,0.0,0.0,9.0,L,0.0,80.6,98.6,0.0,0.0,0.0,0.0,185.0,120.2,188.6,123.8,186.8,127.4,186.8,120.2,0.0,0.0,98.78,194.0,186.8,106.20000000000002,18.180000000000007,0.004041666666666669,0.6746666666666666,0.0,381.2,True,2026-04-30 00:54:35
48.06,1,7,2026-04-30 00:55:17,37.08155,-121.5996,294.0,0.0,336.1,-12.6,0.0,,0.0,0.0,0.0,10.9,-0.7,16.9,0.0,212.0,0.1,-0.01,1.0,99.0,-8.0,27.0,0.0,29.89,1723.0,0.0,0.0,144.0,0.0,0.0,0.0,0.0,0.0,0.0,0.0,0.0,0.0,0.0,0.0,0.0,0.0,0.0,0.0,0.0,0.0,0.0,0.0,0.0,0.0,0.0,0.0,0.0,37.0,37.0,193.0,193.0,29.6,3.1,0.0,3.1,20.5,0.0,0.0,21.6,0.0,0.0,-0.2,13.0,10.7,0.0,0.0,0.0,0.0,85.0,49.0,87.0,51.0,86.0,53.0,86.0,50.0,0.0,0.0,0.0,31.7,0.0,20.5,3.0,0.0,0.0,0.0,1.302,0.826,37.1,37.2,0.0,0.0,18.0,L,0.0,80.6,98.6,0.0,0.0,0.0,0.0,185.0,120.2,188.6,123.8,186.8,127.4,186.8,122.0,0.0,0.0,98.96000000000001,193.0,186.8,106.20000000000002,18.360000000000014,0.004847222222222224,0.6746666666666666,0.0,381.2,True,2026-04-30 00:54:35
49.06,1,7,2026-04-30 00:55:18,37.08155,-121.5996,295.0,0.0,336.1,-12.6,0.0,,0.0,0.0,0.0,10.9,-0.8,16.9,0.0,212.0,0.1,-0.01,1.1,99.0,30.0,27.0,0.0,29.89,1723.0,0.0,0.0,144.0,0.0,0.0,0.0,0.0,0.0,0.0,0.0,0.0,0.0,0.0,0.0,0.0,0.0,0.0,0.0,0.0,0.0,0.0,0.0,0.0,0.0,0.0,0.0,0.0,42.0,37.0,192.0,192.0,29.6,3.5,0.0,3.5,20.0,0.0,0.0,21.5,0.0,0.0,-0.2,13.0,10.7,0.0,0.0,0.0,0.0,85.0,50.0,87.0,52.0,85.0,53.0,86.0,50.0,0.0,0.0,0.0,24.8,0.0,20.0,3.0,0.0,0.0,0.0,1.304,0.826,41.9,37.2,0.0,0.0,24.0,P,0.0,80.6,98.6,0.0,0.0,0.0,0.0,185.0,122.0,188.6,125.6,185.0,127.4,186.8,122.0,0.0,0.0,98.96000000000001,192.0,186.35,105.75,18.360000000000014,0.005763888888888891,0.6746666666666666,0.0,381.2,True,2026-04-30 00:54:35
50.06,1,7,2026-04-30 00:55:19,37.08155,-121.5996,295.0,0.0,336.1,-12.6,0.0,,0.0,0.0,0.0,10.9,-0.7,16.7,0.0,212.0,0.1,-0.01,1.0,99.0,32.0,27.0,0.0,29.89,1723.0,0.0,0.0,144.0,0.0,0.0,0.0,0.0,0.0,0.0,0.0,0.0,0.0,0.0,0.0,0.0,0.0,0.0,0.0,0.0,0.0,0.0,0.0,0.0,0.0,0.0,0.0,0.0,43.0,37.0,192.0,192.0,29.6,3.8,0.0,3.8,17.6,0.0,0.0,21.5,0.0,0.0,-0.2,13.0,10.7,0.0,0.0,0.0,0.0,85.0,50.0,87.0,52.0,85.0,53.0,86.0,50.0,0.0,0.0,0.0,19.5,0.0,17.6,3.0,0.0,0.0,0.0,1.304,0.826,42.8,37.2,0.0,0.0,28.0,P,0.0,80.6,98.6,0.0,0.0,0.0,0.0,185.0,122.0,188.6,125.6,185.0,127.4,186.8,122.0,0.0,0.0,98.96000000000001,192.0,186.35,105.75,18.360000000000014,0.00677777777777778,0.6746666666666666,0.0,381.2,True,2026-04-30 00:54:35
51.06,1,7,2026-04-30 00:55:20,37.08155,-121.5996,295.0,0.0,336.1,-12.6,0.0,,0.0,0.0,0.0,10.9,-0.7,16.7,0.0,212.0,0.1,-0.01,1.0,99.0,20.0,27.0,0.0,29.89,1724.0,0.0,0.0,144.0,0.0,0.0,0.0,0.0,0.0,0.0,0.0,0.0,0.0,0.0,0.0,0.0,0.0,0.0,0.0,0.0,0.0,0.0,0.0,0.0,0.0,0.0,0.0,0.0,42.0,41.0,107.0,107.0,29.6,3.3,0.0,3.3,24.7,0.0,0.0,21.5,0.0,0.0,-0.2,13.0,10.7,0.0,0.0,0.0,0.0,88.0,54.0,90.0,56.0,88.0,57.0,89.0,54.0,0.0,0.0,0.0,15.4,0.0,24.7,3.0,0.0,0.0,0.0,1.304,0.829,42.2,41.3,0.0,0.0,29.0,P,0.0,80.6,105.8,0.0,0.0,0.0,0.0,190.4,129.2,194.0,132.8,190.4,134.6,192.2,129.2,0.0,0.0,106.34,107.0,191.75,111.15,25.74000000000001,0.0077638888888888905,0.6746666666666666,0.0,381.2,True,2026-04-30 00:54:35
52.06,1,7,2026-04-30 00:55:21,37.08155,-121.5996,296.0,0.1,336.1,-12.6,0.0,,0.0,0.0,0.0,10.9,-0.7,16.7,0.0,212.0,0.1,-0.0,1.0,99.0,36.0,27.0,0.0,29.89,1724.0,0.0,0.0,144.0,0.0,0.0,0.0,0.0,0.0,0.0,0.0,0.0,0.0,0.0,0.0,0.0,0.0,0.0,0.0,0.0,0.0,0.0,0.0,0.0,0.0,0.0,0.0,0.0,29.0,41.0,107.0,107.0,29.8,2.9,0.0,2.9,24.3,0.0,0.0,21.5,0.0,0.0,-0.1,13.0,10.7,0.0,0.0,0.0,0.0,88.0,54.0,90.0,56.0,88.0,57.0,88.0,54.0,0.0,0.0,0.0,12.2,0.0,24.3,3.0,0.0,0.0,0.0,1.304,0.828,28.6,41.2,0.0,0.0,26.0,L,0.0,80.6,105.8,0.0,0.0,0.0,0.0,190.4,129.2,194.0,132.8,190.4,134.6,190.4,129.2,0.0,0.0,106.16,107.0,191.29999999999998,110.69999999999999,25.560000000000002,0.008625000000000002,0.759,0.034482758620689655,381.2,True,2026-04-30 00:54:35
53.06,1,7,2026-04-30 00:55:22,37.08155,-121.59959,296.0,0.0,336.1,-12.6,0.0,,0.0,0.0,0.0,10.9,-0.6,16.8,0.0,212.0,0.1,-0.01,1.0,99.0,45.0,27.0,0.0,29.89,1724.0,0.0,0.0,144.0,0.0,0.0,0.0,0.0,0.0,0.0,0.0,0.0,0.0,0.0,0.0,0.0,0.0,0.0,0.0,0.0,0.0,0.0,0.0,0.0,0.0,0.0,0.0,0.0,21.0,41.0,0.0,0.0,29.8,2.9,0.0,2.9,24.2,0.0,0.0,21.5,0.0,0.0,-0.1,13.0,10.7,0.0,0.0,0.0,0.0,88.0,54.0,90.0,56.0,88.0,57.0,88.0,54.0,0.0,0.0,0.0,9.7,0.0,24.2,3.0,0.0,0.0,0.0,1.304,0.828,20.9,41.2,0.0,0.0,25.0,P,0.0,80.6,105.8,0.0,0.0,0.0,0.0,190.4,129.2,194.0,132.8,190.4,134.6,190.4,129.2,0.0,0.0,106.16,0.0,191.29999999999998,110.69999999999999,25.560000000000002,0.009430555555555557,0.8433333333333333,0.0,381.2,True,2026-04-30 00:54:35
54.06,1,7,2026-04-30 00:55:23,37.08155,-121.59959,297.0,0.0,336.1,-12.6,0.0,,0.0,0.0,0.0,10.9,-0.8,16.7,0.0,212.0,0.1,-0.01,1.0,99.0,60.0,27.0,0.0,29.89,1734.0,0.0,0.0,144.0,0.0,0.0,0.0,0.0,0.0,0.0,0.0,0.0,0.0,0.0,0.0,0.0,0.0,0.0,0.0,0.0,0.0,0.0,0.0,0.0,0.0,0.0,0.0,0.0,16.0,41.0,0.0,0.0,29.8,0.0,0.0,0.0,24.0,0.0,0.0,21.5,0.0,0.0,-0.1,13.0,10.7,0.0,0.0,0.0,0.0,88.0,54.0,90.0,56.0,88.0,57.0,88.0,54.0,0.0,0.0,0.0,7.7,0.0,24.0,3.0,0.0,0.0,0.0,1.304,0.828,16.1,41.2,0.0,0.0,0.0,,0.0,80.6,105.8,0.0,0.0,0.0,0.0,190.4,129.2,194.0,132.8,190.4,134.6,190.4,129.2,0.0,0.0,106.16,0.0,191.29999999999998,110.69999999999999,25.560000000000002,0.009833333333333335,0.8433333333333333,0.0,381.2,True,2026-04-30 00:54:35
55.06,1,7,2026-04-30 00:55:24,37.08155,-121.59959,297.0,0.1,336.1,-12.6,0.0,,0.0,0.0,0.0,10.9,-0.7,16.8,0.0,212.0,0.1,-0.01,1.0,99.0,65.0,27.0,0.0,29.89,1734.0,0.0,0.0,144.0,0.0,0.0,0.0,0.0,0.0,0.0,0.0,0.0,0.0,0.0,0.0,0.0,0.0,0.0,0.0,0.0,0.0,0.0,0.0,0.0,0.0,0.0,0.0,0.0,13.0,41.0,0.0,0.0,30.0,0.0,0.0,0.0,23.9,0.0,0.0,21.5,0.0,0.0,-0.1,13.0,10.7,0.0,0.0,0.0,0.0,88.0,54.0,89.0,56.0,88.0,57.0,88.0,54.0,0.0,0.0,0.0,6.2,0.0,23.9,3.0,0.0,0.0,0.0,1.304,0.828,13.0,41.2,0.0,0.0,0.0,,0.0,80.6,105.8,0.0,0.0,0.0,0.0,190.4,129.2,192.2,132.8,190.4,134.6,190.4,129.2,0.0,0.0,106.16,0.0,190.85,110.25,25.560000000000002,0.009833333333333335,0.9276666666666666,0.0,381.2,True,2026-04-30 00:54:35
56.06,1,7,2026-04-30 00:55:25,37.08155,-121.59959,298.0,0.0,336.1,-12.6,0.0,,0.0,0.0,0.0,10.9,-0.7,16.7,0.0,212.0,0.1,-0.01,1.0,99.0,26.0,27.0,0.0,29.89,1734.0,0.0,0.0,144.0,0.0,0.0,0.0,0.0,0.0,0.0,0.0,0.0,0.0,0.0,0.0,0.0,0.0,0.0,0.0,0.0,0.0,0.0,0.0,0.0,0.0,0.0,0.0,0.0,11.0,41.0,0.0,0.0,30.0,0.0,0.0,0.0,23.9,0.0,0.0,21.5,0.0,0.0,-0.1,13.0,10.7,0.0,0.0,0.0,0.0,87.0,54.0,90.0,56.0,88.0,57.0,88.0,54.0,0.0,0.0,0.0,5.1,0.0,23.9,3.0,0.0,0.0,0.0,1.304,0.828,10.7,41.2,0.0,0.0,0.0,,0.0,80.6,105.8,0.0,0.0,0.0,0.0,188.6,129.2,194.0,132.8,190.4,134.6,190.4,129.2,0.0,0.0,106.16,0.0,190.85,110.25,25.560000000000002,0.009833333333333335,1.012,0.0,381.2,True,2026-04-30 00:54:35
57.06,1,7,2026-04-30 00:55:26,37.08155,-121.59959,299.0,0.0,336.1,-12.6,0.0,,0.0,0.0,0.0,10.9,-0.7,16.7,0.0,212.0,0.1,-0.01,1.0,99.0,-18.0,27.0,0.0,29.89,1734.0,0.0,0.0,144.0,0.0,0.0,0.0,0.0,0.0,0.0,0.0,0.0,0.0,0.0,0.0,0.0,0.0,0.0,0.0,0.0,0.0,0.0,0.0,0.0,0.0,0.0,0.0,0.0,9.0,41.0,0.0,0.0,30.0,0.0,0.0,0.0,23.8,0.0,0.0,21.5,0.0,0.0,-0.1,13.0,10.7,0.0,0.0,0.0,0.0,87.0,54.0,89.0,56.0,88.0,57.0,88.0,54.0,0.0,0.0,0.0,4.1,0.0,23.8,3.0,0.0,0.0,0.0,1.304,0.826,9.0,41.2,0.0,0.0,0.0,,0.0,80.6,105.8,0.0,0.0,0.0,0.0,188.6,129.2,192.2,132.8,190.4,134.6,190.4,129.2,0.0,0.0,106.16,0.0,190.4,109.80000000000001,25.560000000000002,0.009833333333333335,1.012,0.0,381.2,True,2026-04-30 00:54:35
58.06,1,7,2026-04-30 00:55:27,37.08155,-121.59959,300.0,0.0,336.1,-12.6,0.0,,0.0,0.0,0.0,10.9,-0.7,16.8,0.0,212.0,0.1,-0.01,1.0,99.0,-33.0,27.0,0.0,29.89,1734.0,0.0,0.0,144.0,0.0,0.0,0.0,0.0,0.0,0.0,0.0,0.0,0.0,0.0,0.0,0.0,0.0,0.0,0.0,0.0,0.0,0.0,0.0,0.0,0.0,0.0,0.0,0.0,8.0,41.0,0.0,0.0,30.0,0.0,0.0,0.0,23.7,0.0,0.0,21.5,0.0,0.0,-0.1,13.0,10.7,0.0,0.0,0.0,0.0,87.0,54.0,89.0,56.0,88.0,57.0,88.0,54.0,0.0,0.0,0.0,3.4,0.0,23.7,3.0,0.0,0.0,0.0,1.304,0.828,7.7,41.2,0.0,0.0,0.0,,0.0,80.6,105.8,0.0,0.0,0.0,0.0,188.6,129.2,192.2,132.8,190.4,134.6,190.4,129.2,0.0,0.0,106.16,0.0,190.4,109.80000000000001,25.560000000000002,0.009833333333333335,1.012,0.0,381.2,True,2026-04-30 00:54:35
59.06,1,7,2026-04-30 00:55:28,37.08155,-121.59959,300.0,0.0,336.1,-12.6,0.0,,0.0,0.0,0.0,10.9,-0.7,16.8,0.0,212.0,0.1,-0.01,1.0,99.0,-20.0,28.0,0.0,29.89,1735.0,0.0,0.0,144.0,0.0,0.0,0.0,0.0,0.0,0.0,0.0,0.0,0.0,0.0,0.0,0.0,0.0,0.0,0.0,0.0,0.0,0.0,0.0,0.0,0.0,0.0,0.0,0.0,7.0,41.0,0.0,0.0,30.0,0.0,0.0,0.0,23.6,0.0,0.0,21.5,0.0,0.0,-0.1,13.0,10.7,0.0,0.0,0.0,0.0,87.0,54.0,89.0,56.0,87.0,57.0,88.0,54.0,0.0,0.0,0.0,2.9,0.0,23.6,3.0,0.0,0.0,0.0,1.304,0.828,6.6,41.2,0.0,0.0,0.0,,0.0,82.4,105.8,0.0,0.0,0.0,0.0,188.6,129.2,192.2,132.8,188.6,134.6,190.4,129.2,0.0,0.0,106.16,0.0,189.95000000000002,107.55000000000001,23.75999999999999,0.009833333333333335,1.012,0.0,381.2,True,2026-04-30 00:54:35
60.06,1,7,2026-04-30 00:55:29,37.08155,-121.59959,301.0,0.0,336.1,-12.6,0.0,,0.0,0.0,0.0,10.8,-0.7,16.8,0.0,212.0,0.1,-0.01,1.0,99.0,-28.0,28.0,0.0,29.89,1735.0,0.0,0.0,144.0,0.0,0.0,0.0,0.0,0.0,0.0,0.0,0.0,0.0,0.0,0.0,0.0,0.0,0.0,0.0,0.0,0.0,0.0,0.0,0.0,0.0,0.0,0.0,0.0,6.0,41.0,0.0,0.0,30.0,0.0,0.0,0.0,23.5,0.0,0.0,21.5,0.0,0.0,-0.1,13.0,10.7,0.0,0.0,0.0,0.0,87.0,54.0,89.0,56.0,87.0,57.0,88.0,54.0,0.0,0.0,0.0,2.5,0.0,23.5,3.0,0.0,0.0,0.0,1.304,0.826,5.7,41.2,0.0,0.0,0.0,,0.0,82.4,105.8,0.0,0.0,0.0,0.0,188.6,129.2,192.2,132.8,188.6,134.6,190.4,129.2,0.0,0.0,106.16,0.0,189.95000000000002,107.55000000000001,23.75999999999999,0.009833333333333335,1.012,0.0,381.2,True,2026-04-30 00:54:35
61.06,1,7,2026-04-30 00:55:30,37.08155,-121.59959,302.0,0.0,336.1,-12.6,0.0,,0.0,0.0,0.0,10.9,-0.7,16.8,0.0,212.0,0.1,-0.01,1.0,99.0,-27.0,28.0,0.0,29.89,1735.0,0.0,0.0,144.0,0.0,0.0,0.0,0.0,0.0,0.0,0.0,0.0,0.0,0.0,0.0,0.0,0.0,0.0,0.0,0.0,0.0,0.0,0.0,0.0,0.0,0.0,0.0,0.0,5.0,41.0,0.0,0.0,30.0,0.0,0.0,0.0,23.5,0.0,0.0,21.5,0.0,0.0,-0.1,13.0,10.7,0.0,0.0,0.0,0.0,87.0,53.0,89.0,56.0,87.0,57.0,88.0,54.0,0.0,0.0,0.0,2.1,0.0,23.5,3.0,0.0,0.0,0.0,1.304,0.826,5.0,41.2,0.0,0.0,0.0,,0.0,82.4,105.8,0.0,0.0,0.0,0.0,188.6,127.4,192.2,132.8,188.6,134.6,190.4,129.2,0.0,0.0,106.16,0.0,189.95000000000002,107.55000000000001,23.75999999999999,0.009833333333333335,1.012,0.0,381.2,True,2026-04-30 00:54:35
62.06,1,7,2026-04-30 00:55:31,37.08155,-121.59959,303.0,0.0,336.1,-12.6,0.0,,0.0,0.0,0.0,10.9,-0.7,16.7,0.0,212.0,0.1,-0.01,1.0,99.0,-16.0,28.0,0.0,29.89,1744.0,0.0,0.0,144.0,0.0,0.0,0.0,0.0,0.0,0.0,0.0,0.0,0.0,0.0,0.0,0.0,0.0,0.0,0.0,0.0,0.0,0.0,0.0,0.0,0.0,0.0,0.0,0.0,4.0,41.0,0.0,0.0,30.0,0.0,0.0,0.0,23.4,0.0,0.0,21.5,0.0,0.0,-0.1,13.0,10.7,0.0,0.0,0.0,0.0,88.0,53.0,89.0,56.0,88.0,57.0,88.0,54.0,0.0,0.0,0.0,1.9,0.0,23.4,3.0,0.0,0.0,0.0,1.304,0.826,4.4,41.1,0.0,0.0,0.0,,0.0,82.4,105.8,0.0,0.0,0.0,0.0,190.4,127.4,192.2,132.8,190.4,134.6,190.4,129.2,0.0,0.0,105.98,0.0,190.85,108.44999999999999,23.58,0.009833333333333335,1.012,0.0,381.2,True,2026-04-30 00:54:35
63.06,1,7,2026-04-30 00:55:32,37.08155,-121.59959,303.0,0.0,336.1,-12.6,0.0,,0.0,0.0,0.0,10.9,-0.7,16.7,0.0,212.0,0.1,-0.01,1.0,99.0,-3.0,28.0,0.0,29.89,1745.0,0.0,0.0,144.0,0.0,0.0,0.0,0.0,0.0,0.0,0.0,0.0,0.0,0.0,0.0,0.0,0.0,0.0,0.0,0.0,0.0,0.0,0.0,0.0,0.0,0.0,0.0,0.0,4.0,41.0,0.0,0.0,30.0,0.0,0.0,0.0,23.3,0.0,0.0,21.5,0.0,0.0,-0.1,13.0,10.7,0.0,0.0,0.0,0.0,88.0,53.0,89.0,55.0,88.0,57.0,88.0,54.0,0.0,0.0,0.0,1.7,0.0,23.3,3.0,0.0,0.0,0.0,1.304,0.826,3.8,41.1,0.0,0.0,0.0,,0.0,82.4,105.8,0.0,0.0,0.0,0.0,190.4,127.4,192.2,131.0,190.4,134.6,190.4,129.2,0.0,0.0,105.98,0.0,190.85,108.44999999999999,23.58,0.009833333333333335,1.012,0.0,381.2,True,2026-04-30 00:54:35
64.06,1,7,2026-04-30 00:55:33,37.08155,-121.59959,304.0,0.0,336.1,-12.6,0.0,,0.0,0.0,0.0,10.8,-0.7,16.7,0.0,212.0,0.1,-0.01,1.0,99.0,2.0,28.0,0.0,29.89,1745.0,0.0,0.0,144.0,0.0,0.0,0.0,0.0,0.0,0.0,0.0,0.0,0.0,0.0,0.0,0.0,0.0,0.0,0.0,0.0,0.0,0.0,0.0,0.0,0.0,0.0,0.0,0.0,3.0,41.0,0.0,0.0,30.0,0.0,0.0,0.0,23.3,0.0,0.0,21.5,0.0,0.0,-0.1,13.0,10.7,0.0,0.0,0.0,0.0,87.0,53.0,89.0,55.0,88.0,57.0,88.0,53.0,0.0,0.0,0.0,1.5,0.0,23.3,3.0,0.0,0.0,0.0,1.304,0.826,3.3,41.1,0.0,0.0,0.0,,0.0,82.4,105.8,0.0,0.0,0.0,0.0,188.6,127.4,192.2,131.0,190.4,134.6,190.4,127.4,0.0,0.0,105.98,0.0,190.4,108.0,23.58,0.009833333333333335,1.012,0.0,381.2,True,2026-04-30 00:54:35
65.06,1,7,2026-04-30 00:55:34,37.08155,-121.59959,305.0,0.0,336.1,-12.6,0.0,,0.0,0.0,0.0,10.9,-0.8,16.8,0.0,212.0,0.1,-0.01,1.0,99.0,11.0,28.0,0.0,29.89,1745.0,0.0,0.0,144.0,0.0,0.0,0.0,0.0,0.0,0.0,0.0,0.0,0.0,0.0,0.0,0.0,0.0,0.0,0.0,0.0,0.0,0.0,0.0,0.0,0.0,0.0,0.0,0.0,3.0,35.0,136.0,136.0,30.0,0.0,0.0,0.0,23.4,0.0,0.0,21.5,0.0,0.0,-0.1,13.0,10.7,0.0,0.0,0.0,0.0,84.0,48.0,86.0,50.0,84.0,52.0,84.0,48.0,0.0,0.0,0.0,1.4,0.0,23.4,3.0,0.0,0.0,0.0,1.302,0.825,3.1,35.3,0.0,0.0,0.0,,0.0,82.4,95.0,0.0,0.0,0.0,0.0,183.2,118.4,186.8,122.0,183.2,125.6,183.2,118.4,0.0,0.0,95.53999999999999,136.0,184.10000000000002,101.70000000000002,13.139999999999986,0.009833333333333335,1.012,0.0,381.2,True,2026-04-30 00:54:35
66.06,1,7,2026-04-30 00:55:35,37.08154,-121.59956,310.0,0.0,336.1,-12.6,0.0,,0.0,0.0,0.0,10.9,-0.8,16.7,0.0,212.0,0.0,-0.01,1.0,99.0,9.0,28.0,0.0,29.89,1755.0,0.0,0.0,144.0,0.0,0.0,0.0,0.0,0.0,0.0,0.0,0.0,0.0,0.0,0.0,0.0,0.0,0.0,0.0,0.0,0.0,0.0,0.0,0.0,0.0,0.0,0.0,0.0,5.0,37.0,257.0,257.0,29.9,0.1,0.0,0.1,25.3,0.0,0.0,21.5,0.0,0.0,-0.2,13.0,10.7,0.0,0.0,0.0,0.0,85.0,51.0,87.0,52.0,85.0,55.0,86.0,51.0,0.0,0.0,0.0,1.3,0.0,25.3,3.0,0.0,0.0,0.0,1.304,0.826,5.4,37.4,0.0,0.0,0.0,,0.0,82.4,98.6,0.0,0.0,0.0,0.0,185.0,123.8,188.6,125.6,185.0,131.0,186.8,123.8,0.0,0.0,99.32,257.0,186.35,103.94999999999999,16.919999999999987,0.009847222222222224,1.012,0.0,381.2,True,2026-04-30 00:54:35
67.06,1,7,2026-04-30 00:55:36,37.08154,-121.59956,311.0,0.0,336.1,-12.6,0.0,,0.0,0.0,0.0,10.8,-0.8,16.7,0.0,212.0,0.0,-0.01,1.0,99.0,-15.0,28.0,0.0,29.89,1755.0,0.0,0.0,144.0,0.0,0.0,0.0,0.0,0.0,0.0,0.0,0.0,0.0,0.0,0.0,0.0,0.0,0.0,0.0,0.0,0.0,0.0,0.0,0.0,0.0,0.0,0.0,0.0,24.0,39.0,951.0,951.0,26.1,1.4,0.0,1.4,22.8,0.0,0.0,21.5,0.0,0.0,-0.1,13.0,10.7,0.0,0.0,0.0,0.0,86.0,70.0,88.0,63.0,86.0,96.0,87.0,96.0,0.0,0.0,0.0,1.3,0.0,22.8,3.0,0.0,0.0,0.0,1.304,0.828,24.0,38.5,0.0,0.0,2.0,L,0.0,82.4,102.2,0.0,0.0,0.0,0.0,186.8,158.0,190.4,145.4,186.8,204.8,188.6,204.8,0.0,0.0,101.3,951.0,188.14999999999998,105.74999999999997,18.89999999999999,0.010055555555555557,1.012,0.0,381.2,True,2026-04-30 00:54:35
68.06,1,7,2026-04-30 00:55:37,37.08154,-121.59956,313.0,0.1,336.1,-12.6,0.0,,0.0,0.0,0.0,10.9,-0.8,16.7,0.0,212.0,0.1,-0.01,1.0,99.0,-8.0,28.0,0.0,29.89,1755.0,0.0,0.0,144.0,0.0,0.0,0.0,0.0,0.0,0.0,0.0,0.0,0.0,0.0,0.0,0.0,0.0,0.0,0.0,0.0,0.0,0.0,0.0,0.0,0.0,0.0,0.0,0.0,50.0,41.0,801.0,801.0,25.9,2.3,0.0,2.3,24.1,0.0,0.0,21.5,0.0,0.0,-0.1,13.0,10.7,0.0,0.0,0.0,0.0,87.0,72.0,89.0,65.0,88.0,129.0,88.0,122.0,0.0,0.0,0.0,1.2,0.0,24.1,3.0,0.0,0.0,0.0,1.277,0.834,50.0,41.0,0.0,0.0,10.0,L,0.0,82.4,105.8,0.0,0.0,0.0,0.0,188.6,161.6,192.2,149.0,190.4,264.2,190.4,251.6,0.0,0.0,105.8,801.0,190.4,108.0,23.39999999999999,0.010569444444444446,1.0963333333333334,0.04347826086956522,381.2,True,2026-04-30 00:54:35
69.06,1,7,2026-04-30 00:55:38,37.08154,-121.59956,314.0,0.0,336.1,-12.6,0.0,,0.0,0.0,0.0,10.8,-0.8,16.6,0.0,212.0,0.0,-0.01,1.0,99.0,-48.0,28.0,0.0,29.89,1755.0,0.0,0.0,144.0,0.0,0.0,0.0,0.0,0.0,0.0,0.0,0.0,0.0,0.0,0.0,0.0,0.0,0.0,0.0,0.0,0.0,0.0,0.0,0.0,0.0,0.0,0.0,0.0,63.0,41.0,1145.0,1145.0,24.2,2.9,0.0,2.9,25.0,0.0,0.0,21.5,0.0,0.0,-0.1,13.0,10.7,0.0,0.0,0.0,0.0,87.0,75.0,89.0,67.0,88.0,180.0,88.0,166.0,0.0,0.0,0.0,1.1,0.0,25.0,3.0,0.0,0.0,0.0,1.277,0.934,63.5,40.8,0.0,0.0,18.0,L,0.0,82.4,105.8,0.0,0.0,0.0,0.0,188.6,167.0,192.2,152.6,190.4,356.0,190.4,330.8,0.0,0.0,105.44,1145.0,190.4,108.0,23.039999999999992,0.011291666666666669,1.1806666666666665,0.0,381.2,True,2026-04-30 00:54:35
70.06,1,7,2026-04-30 00:55:39,37.08154,-121.59956,315.0,0.0,336.1,-12.6,0.0,,0.0,0.0,0.0,10.8,-0.8,16.6,0.0,212.0,0.1,-0.01,0.9,99.0,-72.0,28.0,0.0,29.89,1755.0,0.0,0.0,144.0,0.0,0.0,0.0,0.0,0.0,0.0,0.0,0.0,0.0,0.0,0.0,0.0,0.0,0.0,0.0,0.0,0.0,0.0,0.0,0.0,0.0,0.0,0.0,0.0,73.0,41.0,1423.0,1423.0,21.2,2.9,0.0,2.9,25.3,0.0,0.0,21.5,0.0,0.0,-0.1,13.0,10.7,0.0,0.0,0.0,0.0,87.0,122.0,89.0,94.0,88.0,236.0,89.0,219.0,0.0,0.0,0.0,1.1,0.0,25.3,3.0,0.0,0.0,0.0,1.305,0.934,73.3,40.7,0.0,0.0,22.0,P,0.0,82.4,105.8,0.0,0.0,0.0,0.0,188.6,251.6,192.2,201.2,190.4,456.8,192.2,426.2,0.0,0.0,105.26,1423.0,190.85,108.44999999999999,22.86,0.012097222222222224,1.1806666666666665,0.0,381.2,True,2026-04-30 00:54:35
71.06,1,7,2026-04-30 00:55:40,37.08154,-121.59956,316.0,0.0,336.1,-12.6,0.0,,0.0,0.0,0.0,10.9,-0.7,16.7,0.0,210.0,0.1,-0.01,1.0,99.0,-96.0,28.0,0.0,29.89,1755.0,0.0,0.0,144.0,0.0,0.0,0.0,0.0,0.0,0.0,0.0,0.0,0.0,0.0,0.0,0.0,0.0,0.0,0.0,0.0,0.0,0.0,0.0,0.0,0.0,0.0,0.0,0.0,76.0,41.0,1438.0,1438.0,19.5,2.9,0.0,2.9,25.4,0.0,0.0,21.5,0.0,0.0,-0.1,13.0,10.7,0.0,0.0,0.0,0.0,87.0,197.0,90.0,161.0,88.0,300.0,90.0,246.0,0.0,0.0,0.0,1.1,0.0,25.4,3.0,0.0,0.0,0.0,1.305,0.848,75.9,40.7,0.0,0.0,21.0,R,0.0,82.4,105.8,0.0,0.0,0.0,0.0,188.6,386.6,194.0,321.8,190.4,572.0,194.0,474.8,0.0,0.0,105.26,1438.0,191.75,109.35,22.86,0.01290277777777778,1.1806666666666665,0.0,381.2,True,2026-04-30 00:54:35
72.06,1,7,2026-04-30 00:55:41,37.08154,-121.59956,317.0,0.1,336.1,-12.6,0.0,,0.0,0.0,0.0,10.9,-0.7,16.7,0.0,208.0,0.1,-0.01,0.9,99.0,-87.0,28.0,0.0,29.89,1755.0,0.0,0.0,144.0,0.0,0.0,0.0,0.0,0.0,0.0,0.0,0.0,0.0,0.0,0.0,0.0,0.0,0.0,0.0,0.0,0.0,0.0,0.0,0.0,0.0,0.0,0.0,0.0,71.0,41.0,1256.0,1256.0,20.2,3.0,0.0,3.0,25.3,0.0,0.0,21.5,0.0,0.0,-0.1,13.0,10.7,0.0,0.0,0.0,0.0,88.0,254.0,90.0,224.0,88.0,325.0,89.0,246.0,0.0,0.0,0.0,1.0,0.0,25.3,3.0,0.0,0.0,0.0,1.305,0.833,70.8,40.6,0.0,0.0,17.0,R,0.0,82.4,105.8,0.0,0.0,0.0,0.0,190.4,489.2,194.0,435.2,190.4,617.0,192.2,474.8,0.0,0.0,105.08000000000001,1256.0,191.75,109.35,22.680000000000007,0.013722222222222224,1.265,0.03333333333333333,381.2,True,2026-04-30 00:54:35
73.06,1,7,2026-04-30 00:55:42,37.08154,-121.59956,318.0,0.1,336.1,-12.6,0.0,,0.0,0.0,0.0,10.9,-0.7,16.7,0.0,208.0,0.1,-0.02,1.0,99.0,-61.0,28.0,0.0,29.89,1761.0,0.0,0.0,144.0,0.0,0.0,0.0,0.0,0.0,0.0,0.0,0.0,0.0,0.0,0.0,0.0,0.0,0.0,0.0,0.0,0.0,0.0,0.0,0.0,0.0,0.0,0.0,0.0,70.0,41.0,1269.0,1269.0,20.4,2.9,0.0,2.9,25.3,0.0,0.0,21.5,0.0,0.0,-0.1,13.0,10.7,0.0,0.0,0.0,0.0,88.0,309.0,90.0,274.0,89.0,320.0,90.0,288.0,0.0,0.0,0.0,1.0,0.0,25.3,3.0,0.0,0.0,0.0,1.305,0.829,69.6,40.5,0.0,0.0,17.0,R,0.0,82.4,105.8,0.0,0.0,0.0,0.0,190.4,588.2,194.0,525.2,192.2,608.0,194.0,550.4,0.0,0.0,104.9,1269.0,192.65,110.25,22.5,0.014541666666666668,1.4336666666666666,0.034482758620689655,381.2,True,2026-04-30 00:54:35
74.06,1,7,2026-04-30 00:55:43,37.08154,-121.59956,318.0,0.1,336.1,-12.6,0.0,,0.0,0.0,0.0,10.9,-0.7,16.8,0.0,208.0,0.1,-0.02,1.0,99.0,-57.0,28.0,0.0,29.89,1761.0,0.0,0.0,144.0,0.0,0.0,0.0,0.0,0.0,0.0,0.0,0.0,0.0,0.0,0.0,0.0,0.0,0.0,0.0,0.0,0.0,0.0,0.0,0.0,0.0,0.0,0.0,0.0,72.0,40.0,1325.0,1325.0,17.1,2.9,0.0,2.9,25.5,0.0,0.0,21.5,0.0,0.0,-0.1,13.0,10.7,0.0,0.0,0.0,0.0,88.0,352.0,91.0,323.0,89.0,373.0,90.0,344.0,0.0,0.0,0.0,1.0,0.0,25.5,3.0,0.0,0.0,0.0,1.306,0.829,71.9,40.5,0.0,0.0,0.0,,0.0,82.4,104.0,0.0,0.0,0.0,0.0,190.4,665.6,195.8,613.4,192.2,703.4,194.0,651.2,0.0,0.0,104.9,1325.0,193.1,110.69999999999999,22.5,0.015347222222222224,1.6023333333333332,0.034482758620689655,381.2,True,2026-04-30 00:54:35
75.06,1,7,2026-04-30 00:55:44,37.08154,-121.59956,319.0,0.1,336.1,-12.6,0.0,,0.0,0.0,0.0,10.9,-0.6,16.8,0.0,208.0,0.1,-0.01,1.0,99.0,-42.0,28.0,0.0,29.89,1762.0,0.0,0.0,144.0,0.0,0.0,0.0,0.0,0.0,0.0,0.0,0.0,0.0,0.0,0.0,0.0,0.0,0.0,0.0,0.0,0.0,0.0,0.0,0.0,0.0,0.0,0.0,0.0,71.0,40.0,1331.0,1331.0,15.5,2.8,0.0,2.8,25.5,0.0,0.0,21.5,0.0,0.0,-0.1,13.0,10.7,0.0,0.0,0.0,0.0,89.0,390.0,91.0,367.0,89.0,405.0,90.0,379.0,0.0,0.0,0.0,1.0,0.0,25.5,3.0,0.0,0.0,0.0,1.306,0.828,71.4,40.5,0.0,0.0,0.0,,0.0,82.4,104.0,0.0,0.0,0.0,0.0,192.2,734.0,195.8,692.6,192.2,761.0,194.0,714.2,0.0,0.0,104.9,1331.0,193.55,111.15,22.5,0.01613888888888889,1.771,0.03571428571428572,381.2,True,2026-04-30 00:54:35
76.06,1,7,2026-04-30 00:55:45,37.08155,-121.59956,319.0,0.0,336.1,-12.6,0.0,,0.0,0.0,0.0,10.9,-0.7,16.8,0.0,208.0,0.1,-0.01,0.9,99.0,-32.0,28.0,0.0,29.89,1762.0,0.0,0.0,144.0,0.0,0.0,0.0,0.0,0.0,0.0,0.0,0.0,0.0,0.0,0.0,0.0,0.0,0.0,0.0,0.0,0.0,0.0,0.0,0.0,0.0,0.0,0.0,0.0,71.0,40.0,1290.0,1290.0,14.6,2.7,0.0,2.7,25.5,0.0,0.0,21.5,0.0,0.0,-0.1,13.0,10.7,0.0,0.0,0.0,0.0,89.0,421.0,91.0,397.0,89.0,432.0,90.0,413.0,0.0,0.0,0.0,1.0,0.0,25.5,3.0,0.0,0.0,0.0,1.304,0.828,71.0,40.5,0.0,0.0,0.0,,0.0,82.4,104.0,0.0,0.0,0.0,0.0,192.2,789.8,195.8,746.6,192.2,809.6,194.0,775.4,0.0,0.0,104.9,1290.0,193.55,111.15,22.5,0.01690277777777778,1.8553333333333333,0.0,381.2,True,2026-04-30 00:54:35
77.06,1,7,2026-04-30 00:55:46,37.08155,-121.59956,320.0,0.1,336.1,-12.6,0.0,,0.0,0.0,0.0,10.9,-0.7,16.8,0.0,208.0,0.1,-0.01,1.0,99.0,-35.0,28.0,0.0,29.89,1762.0,0.0,0.0,144.0,0.0,0.0,0.0,0.0,0.0,0.0,0.0,0.0,0.0,0.0,0.0,0.0,0.0,0.0,0.0,0.0,0.0,0.0,0.0,0.0,0.0,0.0,0.0,0.0,70.0,40.0,1241.0,1241.0,14.3,2.6,0.0,2.6,25.5,0.0,0.0,21.5,0.0,0.0,-0.1,13.0,10.7,0.0,0.0,0.0,0.0,89.0,447.0,92.0,424.0,89.0,464.0,91.0,438.0,0.0,0.0,0.0,1.0,0.0,25.5,3.0,0.0,0.0,0.0,1.304,0.831,69.6,40.5,0.0,0.0,0.0,,0.0,82.4,104.0,0.0,0.0,0.0,0.0,192.2,836.6,197.6,795.2,192.2,867.2,195.8,820.4,0.0,0.0,104.9,1241.0,194.45,112.04999999999998,22.5,0.01763888888888889,1.9396666666666667,0.038461538461538464,381.2,True,2026-04-30 00:54:35
78.06,1,7,2026-04-30 00:55:47,37.08155,-121.59956,320.0,0.0,336.1,-12.6,0.0,,0.0,0.0,0.0,10.9,-0.8,16.7,0.0,208.0,0.1,-0.01,1.0,99.0,12.0,28.0,0.0,29.89,1770.0,0.0,0.0,144.0,0.0,0.0,0.0,0.0,0.0,0.0,0.0,0.0,0.0,0.0,0.0,0.0,0.0,0.0,0.0,0.0,0.0,0.0,0.0,0.0,0.0,0.0,0.0,0.0,70.0,40.0,1241.0,1241.0,14.0,2.6,0.0,2.6,25.5,0.0,0.0,21.5,0.0,0.0,-0.1,13.0,10.7,0.0,0.0,0.0,0.0,90.0,470.0,92.0,444.0,90.0,486.0,91.0,459.0,0.0,0.0,0.0,1.0,0.0,25.5,3.0,0.0,0.0,0.0,1.304,0.831,70.1,40.5,0.0,0.0,0.0,,0.0,82.4,104.0,0.0,0.0,0.0,0.0,194.0,878.0,197.6,831.2,194.0,906.8,195.8,858.2,0.0,0.0,104.9,1241.0,195.35,112.94999999999999,22.5,0.018361111111111113,2.024,0.0,381.2,True,2026-04-30 00:54:35
79.06,1,7,2026-04-30 00:55:48,37.08155,-121.59956,321.0,0.1,336.1,-12.6,0.0,,0.0,0.0,0.0,10.9,-0.7,16.8,0.0,208.0,0.1,-0.01,1.0,99.0,4.0,28.0,0.0,29.89,1771.0,0.0,0.0,144.0,0.0,0.0,0.0,0.0,0.0,0.0,0.0,0.0,0.0,0.0,0.0,0.0,0.0,0.0,0.0,0.0,0.0,0.0,0.0,0.0,0.0,0.0,0.0,0.0,69.0,41.0,1243.0,1243.0,13.8,2.5,0.0,2.5,25.5,0.0,0.0,21.5,0.0,0.0,-0.1,13.0,10.7,0.0,0.0,0.0,0.0,90.0,477.0,92.0,462.0,90.0,506.0,91.0,478.0,0.0,0.0,0.0,1.0,0.0,25.5,3.0,0.0,0.0,0.0,1.304,0.854,69.5,40.5,0.0,0.0,0.0,,0.0,82.4,105.8,0.0,0.0,0.0,0.0,194.0,890.6,197.6,863.6,194.0,942.8,195.8,892.4,0.0,0.0,104.9,1243.0,195.35,112.94999999999999,22.5,0.019069444444444448,2.1083333333333334,0.04,381.2,True,2026-04-30 00:54:35
80.06,1,7,2026-04-30 00:55:49,37.08155,-121.59956,321.0,0.1,336.1,-12.6,0.0,,0.0,0.0,0.0,11.0,-0.6,16.8,0.0,208.0,0.1,-0.01,1.0,99.0,73.0,28.0,0.0,29.89,1771.0,0.0,0.0,144.0,0.0,0.0,0.0,0.0,0.0,0.0,0.0,0.0,0.0,0.0,0.0,0.0,0.0,0.0,0.0,0.0,0.0,0.0,0.0,0.0,0.0,0.0,0.0,0.0,69.0,43.0,1235.0,1235.0,14.0,2.5,0.0,2.5,25.5,0.0,0.0,21.5,0.0,0.0,15.7,13.0,10.7,0.0,0.0,0.0,0.0,92.0,491.0,94.0,477.0,92.0,520.0,93.0,494.0,0.0,0.0,0.0,1.0,0.0,25.5,3.0,0.001,0.0,0.0,1.304,0.83,68.6,43.1,0.0,0.0,0.0,,0.0,82.4,109.4,0.0,0.0,0.0,0.0,197.6,915.8,201.2,890.6,197.6,968.0,199.4,921.2,0.0,0.0,109.58000000000001,1235.0,198.95000000000002,116.55000000000001,27.180000000000007,0.01976388888888889,2.2769999999999997,0.04,381.2,True,2026-04-30 00:54:35
81.06,1,7,2026-04-30 00:55:50,37.08155,-121.59956,321.0,0.1,336.1,-12.6,0.0,,0.0,0.0,0.0,11.1,-0.7,16.8,0.0,208.0,0.1,-0.01,1.0,99.0,22.0,28.0,0.0,29.89,1771.0,0.0,0.0,144.0,0.0,0.0,0.0,0.0,0.0,0.0,0.0,0.0,0.0,0.0,0.0,0.0,-1.0,0.0,0.0,58.0,0.0,0.0,0.0,0.0,0.0,0.0,0.0,0.0,68.0,43.0,1188.0,1188.0,14.2,2.4,0.0,2.4,25.5,0.0,0.0,21.5,0.0,0.0,37.4,13.0,10.7,0.0,0.0,0.0,0.0,92.0,498.0,95.0,485.0,92.0,535.0,93.0,511.0,0.0,0.0,0.0,1.0,0.0,25.5,3.0,0.001,0.0,0.0,1.304,0.831,67.7,43.1,0.0,0.0,0.0,,0.0,82.4,109.4,0.0,0.0,0.0,0.0,197.6,928.4,203.0,905.0,197.6,995.0,199.4,951.8,0.0,0.0,109.58000000000001,1188.0,199.4,117.0,27.180000000000007,0.020444444444444446,2.4456666666666664,0.04166666666666667,381.2,True,2026-04-30 00:54:35
82.06,1,7,2026-04-30 00:55:51,37.08155,-121.59956,322.0,0.1,336.1,-12.6,0.0,,0.0,0.0,0.0,11.0,-0.7,16.7,0.0,208.0,0.1,-0.01,0.9,99.0,46.0,28.0,0.0,29.89,1781.0,0.0,0.0,144.0,0.0,0.0,0.0,0.0,0.0,0.0,0.0,0.0,0.0,0.0,0.0,0.0,-1.0,0.0,0.0,58.0,0.0,0.0,0.0,0.0,0.0,0.0,0.0,0.0,69.0,43.0,1236.0,1236.0,14.0,2.5,0.0,2.5,25.4,0.0,0.0,21.5,0.0,0.0,50.7,13.0,10.7,0.0,0.0,0.0,0.0,93.0,508.0,95.0,495.0,92.0,544.0,94.0,519.0,0.0,0.0,0.0,1.0,0.0,25.4,3.0,0.001,0.0,0.0,1.304,0.867,68.7,43.1,0.0,0.0,0.0,,0.0,82.4,109.4,0.0,0.0,0.0,0.0,199.4,946.4,203.0,923.0,197.6,1011.2,201.2,966.2,0.0,0.0,109.58000000000001,1236.0,200.29999999999998,117.89999999999998,27.180000000000007,0.021125,2.614333333333333,0.04,381.2,True,2026-04-30 00:54:35
83.06,1,7,2026-04-30 00:55:52,37.08155,-121.59956,322.0,0.0,336.1,-12.6,0.0,,0.0,0.0,0.0,10.9,-0.6,16.6,0.0,208.0,0.0,-0.01,1.0,99.0,3.0,28.0,0.0,29.89,1782.0,0.0,0.0,144.0,0.0,0.0,0.0,0.0,0.0,0.0,0.0,0.0,0.0,0.0,0.0,0.0,-1.0,0.0,0.0,7.0,0.0,0.0,0.0,0.0,0.0,0.0,0.0,0.0,69.0,43.0,1243.0,1243.0,13.9,2.5,0.0,2.5,25.4,0.0,0.0,21.5,0.0,0.0,58.9,13.0,10.7,0.0,0.0,0.0,0.0,93.0,514.0,96.0,505.0,93.0,554.0,94.0,529.0,0.0,0.0,0.0,1.0,0.0,25.4,3.0,0.001,0.0,0.0,1.304,0.828,69.1,43.1,0.0,0.0,0.0,,0.0,82.4,109.4,0.0,0.0,0.0,0.0,199.4,957.2,204.8,941.0,199.4,1029.2,201.2,984.2,0.0,0.0,109.58000000000001,1243.0,201.20000000000002,118.80000000000001,27.180000000000007,0.021819444444444447,2.6986666666666665,0.0,381.2,True,2026-04-30 00:54:35
84.06,1,7,2026-04-30 00:55:53,37.08155,-121.59956,322.0,0.0,336.1,-12.6,0.0,,0.0,0.0,0.0,10.9,-0.7,16.6,0.0,208.0,0.0,-0.01,1.0,99.0,-32.0,28.0,0.0,29.89,1782.0,0.0,0.0,144.0,0.0,0.0,0.0,0.0,0.0,0.0,0.0,0.0,0.0,0.0,0.0,0.0,-2.0,0.0,0.0,2.0,0.0,0.0,0.0,0.0,3.0,0.0,0.0,1200.0,69.0,43.0,1244.0,1244.0,13.9,2.6,0.0,2.6,25.4,0.0,0.0,21.5,0.0,0.0,63.8,13.0,10.7,0.0,0.0,0.0,0.0,93.0,520.0,96.0,513.0,93.0,562.0,95.0,539.0,0.0,0.0,0.0,1.0,0.0,25.4,3.0,0.001,0.0,0.0,1.304,0.841,69.0,43.2,0.0,0.0,0.0,,0.0,82.4,109.4,0.0,0.0,0.0,0.0,199.4,968.0,204.8,955.4,199.4,1043.6,203.0,1002.2,0.0,0.0,109.76,1244.0,201.65,119.25,27.36,0.02252777777777778,2.6986666666666665,0.0,381.2,True,2026-04-30 00:54:35
85.06,1,7,2026-04-30 00:55:54,37.08155,-121.59956,323.0,0.0,336.1,-12.6,0.0,,0.0,0.0,0.0,11.0,-0.7,16.6,0.0,208.0,0.1,-0.01,1.0,99.0,6.0,28.0,0.0,29.89,1782.0,0.0,0.0,144.0,0.0,0.0,0.0,0.0,0.0,0.0,0.0,0.0,0.0,0.0,0.0,0.0,-1.0,0.0,0.0,0.0,0.0,0.0,0.0,0.0,1.0,0.0,0.0,1200.0,69.0,43.0,1231.0,1231.0,13.9,2.6,0.0,2.6,25.4,0.0,0.0,21.5,0.0,0.0,66.7,13.0,10.7,0.0,0.0,0.0,0.0,94.0,524.0,96.0,520.0,93.0,569.0,95.0,551.0,0.0,0.0,0.0,0.0,0.0,25.4,3.0,0.001,0.0,0.0,1.304,0.833,68.9,43.2,0.0,0.0,0.0,,0.0,82.4,109.4,0.0,0.0,0.0,0.0,201.2,975.2,204.8,968.0,199.4,1056.2,203.0,1023.8,0.0,0.0,109.76,1231.0,202.10000000000002,119.70000000000002,27.36,0.023250000000000003,2.6986666666666665,0.0,381.2,True,2026-04-30 00:54:35
86.06,1,7,2026-04-30 00:55:55,37.08155,-121.59956,323.0,0.0,336.1,-12.6,0.0,,0.0,0.0,0.0,10.9,-0.7,16.6,0.0,208.0,0.1,-0.01,1.0,99.0,-32.0,28.0,0.0,29.89,1791.0,0.0,0.0,144.0,0.0,0.0,0.0,0.0,0.0,0.0,0.0,0.0,0.0,0.0,0.0,0.0,-1.0,0.0,0.0,-2.0,0.0,0.0,0.0,0.0,1.0,0.0,0.0,1200.0,70.0,43.0,1254.0,1254.0,13.7,2.6,0.0,2.6,25.5,0.0,0.0,21.5,0.0,0.0,68.5,13.0,10.7,0.0,0.0,0.0,0.0,94.0,528.0,97.0,530.0,94.0,576.0,95.0,556.0,0.0,0.0,0.0,0.0,0.0,25.5,3.0,0.0,0.0,0.0,1.304,0.829,69.6,43.2,0.0,0.0,0.0,,0.0,82.4,109.4,0.0,0.0,0.0,0.0,201.2,982.4,206.6,986.0,201.2,1068.8,203.0,1032.8,0.0,0.0,109.76,1254.0,203.0,120.6,27.36,0.023972222222222225,2.6986666666666665,0.0,381.2,True,2026-04-30 00:54:35
87.06,1,7,2026-04-30 00:55:56,37.08155,-121.59956,323.0,0.0,336.1,-12.6,0.0,,0.0,0.0,0.0,10.9,-0.7,16.5,0.0,208.0,0.0,-0.01,1.0,99.0,-40.0,28.0,0.0,29.89,1791.0,0.0,0.0,144.0,0.0,0.0,0.0,0.0,0.0,0.0,0.0,0.0,0.0,0.0,0.0,0.0,-2.0,0.0,0.0,-5.0,0.0,0.0,0.0,0.0,1.0,0.0,0.0,1200.0,69.0,43.0,1249.0,1249.0,13.6,2.7,0.0,2.7,25.5,0.0,0.0,21.5,0.0,0.0,69.5,13.0,10.7,0.0,0.0,0.0,0.0,95.0,535.0,97.0,538.0,94.0,581.0,96.0,564.0,0.0,0.0,0.0,0.0,0.0,25.5,3.0,0.001,0.0,0.0,1.304,0.829,69.4,43.2,0.0,0.0,0.0,,0.0,82.4,109.4,0.0,0.0,0.0,0.0,203.0,995.0,206.6,1000.4,201.2,1077.8,204.8,1047.2,0.0,0.0,109.76,1249.0,203.9,121.5,27.36,0.024708333333333336,2.6986666666666665,0.0,381.2,True,2026-04-30 00:54:35
88.06,1,7,2026-04-30 00:55:57,37.08155,-121.59956,323.0,0.0,336.1,-12.6,0.0,,0.0,0.0,0.0,10.9,-0.8,16.5,0.0,208.0,0.0,-0.01,1.0,99.0,1.0,28.0,0.0,29.89,1791.0,0.0,0.0,144.0,0.0,0.0,0.0,0.0,0.0,0.0,0.0,0.0,0.0,0.0,0.0,0.0,-2.0,0.0,0.0,-6.0,0.0,0.0,0.0,0.0,0.0,0.0,0.0,0.0,69.0,43.0,1252.0,1252.0,13.6,2.7,0.0,2.7,25.4,0.0,0.0,21.5,0.0,0.0,70.1,13.0,10.7,0.0,0.0,0.0,0.0,95.0,540.0,97.0,543.0,95.0,587.0,96.0,570.0,0.0,0.0,0.0,0.0,0.0,25.4,3.0,0.0,0.0,0.0,1.304,0.829,69.3,43.2,0.0,0.0,0.0,,0.0,82.4,109.4,0.0,0.0,0.0,0.0,203.0,1004.0,206.6,1009.4,203.0,1088.6,204.8,1058.0,0.0,0.0,109.76,1252.0,204.35,121.94999999999999,27.36,0.025458333333333336,2.6986666666666665,0.0,381.2,True,2026-04-30 00:54:35
