Session Time,GPS Fix Quality,Number of Satellites,GPS Date & Time,Latitude (deg),Longitude (deg),GPS Altitude (feet),Ground Speed (knots),Ground Track (deg),Mag Var (deg),Cross Track Error (NM),Destination Waypoint ID,Range to Destination (NM),Bearing to Destination (deg),System Time,Pitch (deg),Roll (deg),Magnetic Heading (deg),Indicated Airspeed (knots),Pressure Altitude (ft),Turn Rate (deg/s),Lateral Accel (g),Vertical Accel(g),Angle of Attack (%),Vertical Speed (ft/min),OAT (deg C),True Airspeed (knots),Barometer Setting (inHg),Density Altitude (ft),Wind Direction (deg),Wind Speed (knots),Heading Bug (deg),Altitude Bug (ft),Airspeed Bug (knots),Vertical Speed Bug (ft/min),Course (deg),CDI Source Type,CDI Source Port,CDI Scale (NM),CDI Deflection (%),Glideslope (%),AP Engaged,AP Roll Mode,AP Roll Force,AP Roll Position (steps),AP Roll Slip (bool),AP Pitch Force,AP Pitch Position (steps),AP Pitch Slip (bool),AP Yaw Force,AP Yaw Position,AP Yaw Slip (bool),Transponder Status,Transponder Reply (bool),Transponder Identing (bool),Transponder Code (octal),Oil Pressure (PSI),Oil Temp (deg C),RPM L,RPM R,Manifold Pressure (inHg),Fuel Flow 1 (gal/hr),Fuel Flow 2 (gal/hr),Total Fuel Flow (gal/hr),Fuel Pressure (PSI),Fuel Level L (gal),Fuel Level R (gal),Fuel Remaining (gal),Volts 1,Volts 2,Amps,Hobbs Time,Tach Time,Thermocouple 1 (deg C),Thermocouple 2 (deg C),Thermocouple 3 (deg C),Thermocouple 4 (deg C),CHT 4 (deg C),EGT 4 (deg C),CHT 3 (deg C),EGT 3 (deg C),CHT 2 (deg C),EGT 2 (deg C),CHT 1 (deg C),EGT 1 (deg C),Thermocouple 13 (deg C),Thermocouple 14 (deg C),ELEV POSITION (%),CO PPM PRESSURE (PSI),GP Input 3,FUEL PRESSURE (PSI),AILERN POSITION (%),CANOPY CONTACT (V),GP Input 7,GP Input 8,LEFT LEVEL (Sensor V),RIGHT LEVEL (Sensor V),OIL PRESSURE (PSI),OIL TEMPERATURE (deg C),GP Input 13,Contacts,Percent Power,EGT Leaning State,Unnamed: 103,source_file,Unnamed: 0,press_alt,ias,hdg,gps_gs,gps_trk,OAT (deg F),Oil Temp (deg F),Thermocouple 1 (deg F),Thermocouple 2 (deg F),Thermocouple 3 (deg F),Thermocouple 4 (deg F),CHT 4 (deg F),EGT 4 (deg F),CHT 3 (deg F),EGT 3 (deg F),CHT 2 (deg F),EGT 2 (deg F),CHT 1 (deg F),EGT 1 (deg F),Thermocouple 13 (deg F),Thermocouple 14 (deg F),OIL TEMPERATURE (deg F),RPM,AVG_CHT,CHT_OAT_Ratio,OIL_OAT_Ratio,Fuel Flow Integral,Distance Traveled,Max CHT,Engine Run,Flight ID,efficiency
4.06,1.0,9.0,2026-02-28 17:33:49,37.08169,-121.59971,396.0,0.0,157.3,-12.6,,,,,0.0,10.7,-0.7,34.3,0.0,258.0,0.1,-0.01,1.0,,-138.0,19.0,0.0,30.24,831.0,,,336.0,,110.0,500.0,,0.0,0.0,,,,,,,,,,,,,,,,,,,,,0.0,0.0,,0.0,,0.0,,,,25.3,0.0,0.0,-0.4,2.9,1.8,,,,,15.0,16.0,15.0,17.0,15.0,16.0,16.0,17.0,,,13.0,254.4,,0.0,21.0,4.998,,,0.929,0.823,0.0,14.5,,,,,,2026-02-28-N890GF-SN35347-17.4.0.23677-USER_LOG_DATA.csv,,,,,,,66.2,,,,,,59.0,60.8,59.0,62.6,59.0,60.8,60.8,62.6,,,58.1,0.0,59.45,0.898036253776435,,0.0,0.0,419.0,True,2026-02-28 17:33:49 - Flight 14,
5.06,1.0,9.0,2026-02-28 17:33:50,37.08167,-121.59969,361.0,0.0,157.3,-12.6,,,,,0.0,10.7,-0.7,34.3,0.0,257.0,0.0,-0.01,1.0,,-116.0,19.0,0.0,30.24,831.0,,,336.0,,,,,0.0,0.0,,,,,,,,,,,,,,,,,,,0.0,14.0,0.0,0.0,30.1,0.0,,0.0,0.0,,,25.3,0.0,0.0,-0.4,2.9,1.8,,,,,15.0,16.0,15.0,17.0,15.0,16.0,16.0,17.0,,,13.0,254.4,,0.0,21.0,4.998,,,0.929,0.823,0.0,14.4,,,,,,2026-02-28-N890GF-SN35347-17.4.0.23677-USER_LOG_DATA.csv,,,,,,,66.2,57.2,,,,,59.0,60.8,59.0,62.6,59.0,60.8,60.8,62.6,,,57.92,0.0,59.45,0.898036253776435,0.8640483383685801,0.0,0.0,419.0,True,2026-02-28 17:33:49 - Flight 14,
6.06,1.0,9.0,2026-02-28 17:33:51,37.08167,-121.59969,364.0,0.0,157.3,-12.6,,,,,0.0,10.8,-0.7,34.3,0.0,255.0,0.0,-0.01,1.0,,-92.0,19.0,0.0,30.24,831.0,,,336.0,,,,,0.0,0.0,,,,,,,,,,,,,,,,,,,0.0,14.0,0.0,0.0,30.1,0.0,,0.0,0.0,,,25.3,0.0,0.0,-0.4,2.9,1.8,,,,,15.0,16.0,15.0,17.0,15.0,16.0,16.0,17.0,,,12.0,254.4,,0.0,21.0,4.998,,,0.929,0.823,0.0,14.4,,,,,,2026-02-28-N890GF-SN35347-17.4.0.23677-USER_LOG_DATA.csv,,,,,,,66.2,57.2,,,,,59.0,60.8,59.0,62.6,59.0,60.8,60.8,62.6,,,57.92,0.0,59.45,0.898036253776435,0.8640483383685801,0.0,0.0,419.0,True,2026-02-28 17:33:49 - Flight 14,
7.06,1.0,9.0,2026-02-28 17:33:52,37.08167,-121.59969,366.0,0.1,157.3,-12.6,,,,,0.0,10.8,-0.7,34.3,0.0,255.0,0.0,-0.01,1.0,,-52.0,19.0,0.0,30.24,828.0,,,336.0,,,,,0.0,0.0,,,,,,,,,,,,,,,,,,,0.0,14.0,0.0,0.0,30.1,0.0,,0.0,0.0,,,25.3,0.0,0.0,-0.4,2.9,1.8,,,,,15.0,16.0,15.0,17.0,15.0,16.0,16.0,17.0,,,12.0,254.4,,0.0,21.0,4.998,,,0.929,0.823,0.0,14.4,,,,,,2026-02-28-N890GF-SN35347-17.4.0.23677-USER_LOG_DATA.csv,,,,,,,66.2,57.2,,,,,59.0,60.8,59.0,62.6,59.0,60.8,60.8,62.6,,,57.92,0.0,59.45,0.898036253776435,0.8640483383685801,0.0,0.08433333333333333,419.0,True,2026-02-28 17:33:49 - Flight 14,
8.06,1.0,9.0,2026-02-28 17:33:53,37.08167,-121.59969,368.0,0.0,157.3,-12.6,,,,,0.0,10.8,-0.7,34.3,0.0,255.0,0.0,-0.01,1.0,,-45.0,19.0,0.0,30.24,829.0,,,336.0,,,,,0.0,0.0,,,,,,,,,,,,,,,,,,,0.0,14.0,0.0,0.0,30.1,0.0,,0.0,0.0,,,25.3,0.0,0.0,-0.4,2.9,1.8,,,,,15.0,16.0,15.0,17.0,15.0,16.0,16.0,17.0,,,12.0,254.4,,0.0,21.0,4.998,,,0.93,0.824,0.0,14.4,,,,,,2026-02-28-N890GF-SN35347-17.4.0.23677-USER_LOG_DATA.csv,,,,,,,66.2,57.2,,,,,59.0,60.8,59.0,62.6,59.0,60.8,60.8,62.6,,,57.92,0.0,59.45,0.898036253776435,0.8640483383685801,0.0,0.16866666666666674,419.0,True,2026-02-28 17:33:49 - Flight 14,
9.06,1.0,9.0,2026-02-28 17:33:54,37.08167,-121.59969,370.0,0.0,157.3,-12.6,,,,,0.0,10.7,-0.7,34.3,0.0,255.0,0.0,-0.01,1.0,,-26.0,19.0,0.0,30.24,829.0,,,336.0,,,,,0.0,0.0,,,,,,,,,,,,,,,,,,,0.0,14.0,0.0,0.0,30.1,0.0,,0.0,0.0,,,25.3,0.0,0.0,-0.4,2.9,1.8,,,,,15.0,16.0,15.0,17.0,15.0,16.0,16.0,17.0,,,12.0,254.4,,0.0,21.0,4.998,,,0.93,0.824,0.0,14.4,,,,,,2026-02-28-N890GF-SN35347-17.4.0.23677-USER_LOG_DATA.csv,,,,,,,66.2,57.2,,,,,59.0,60.8,59.0,62.6,59.0,60.8,60.8,62.6,,,57.92,0.0,59.45,0.898036253776435,0.8640483383685801,0.0,0.16866666666666674,419.0,True,2026-02-28 17:33:49 - Flight 14,
10.06,1.0,9.0,2026-02-28 17:33:55,37.08167,-121.59969,372.0,0.0,157.3,-12.6,,,,,0.0,10.7,-0.7,34.3,0.0,254.0,0.0,-0.01,1.0,,-51.0,19.0,0.0,30.24,829.0,,,336.0,,,,,0.0,0.0,,,,,,,,,,,,,,,,,,,0.0,14.0,0.0,0.0,30.1,0.0,,0.0,0.0,,,25.3,0.0,0.0,-0.4,2.9,1.8,,,,,15.0,16.0,15.0,17.0,15.0,16.0,16.0,17.0,,,14.0,254.4,,0.0,21.0,4.998,,,0.929,0.824,0.0,14.4,,,,,,2026-02-28-N890GF-SN35347-17.4.0.23677-USER_LOG_DATA.csv,,,,,,,66.2,57.2,,,,,59.0,60.8,59.0,62.6,59.0,60.8,60.8,62.6,,,57.92,0.0,59.45,0.898036253776435,0.8640483383685801,0.0,0.16866666666666674,419.0,True,2026-02-28 17:33:49 - Flight 14,
11.06,1.0,9.0,2026-02-28 17:33:56,37.08167,-121.59969,374.0,0.1,157.3,-12.6,,,,,0.0,10.8,-0.7,34.2,0.0,252.0,0.0,-0.02,1.0,,-80.0,19.0,0.0,30.24,835.0,,,336.0,,,,,0.0,0.0,,,,,,,,,,,,,,,,,,,0.0,14.0,0.0,0.0,30.1,0.0,,0.0,0.0,,,25.3,0.0,0.0,-0.5,2.9,1.8,,,,,15.0,16.0,15.0,17.0,15.0,16.0,16.0,17.0,,,13.0,254.4,,0.0,21.0,4.998,,,0.93,0.824,0.0,14.4,,,,,,2026-02-28-N890GF-SN35347-17.4.0.23677-USER_LOG_DATA.csv,,,,,,,66.2,57.2,,,,,59.0,60.8,59.0,62.6,59.0,60.8,60.8,62.6,,,57.92,0.0,59.45,0.898036253776435,0.8640483383685801,0.0,0.25300000000000006,419.0,True,2026-02-28 17:33:49 - Flight 14,
12.06,1.0,9.0,2026-02-28 17:33:57,37.08167,-121.59969,375.0,0.0,157.3,-12.6,,,,,0.0,10.8,-0.8,34.2,0.0,251.0,0.0,-0.01,1.0,,-79.0,19.0,0.0,30.24,835.0,,,336.0,,,,,0.0,0.0,,,,,,,,,,,,,,,,,,,0.0,14.0,0.0,0.0,30.1,0.0,,0.0,0.0,,,25.3,0.0,0.0,-0.5,2.9,1.8,,,,,15.0,16.0,15.0,17.0,15.0,16.0,16.0,17.0,,,11.0,254.4,,0.0,21.0,4.998,,,0.93,0.824,0.0,14.3,,,,,,2026-02-28-N890GF-SN35347-17.4.0.23677-USER_LOG_DATA.csv,,,,,,,66.2,57.2,,,,,59.0,60.8,59.0,62.6,59.0,60.8,60.8,62.6,,,57.74,0.0,59.45,0.898036253776435,0.8640483383685801,0.0,0.3373333333333334,419.0,True,2026-02-28 17:33:49 - Flight 14,
13.06,1.0,9.0,2026-02-28 17:33:58,37.08167,-121.59969,377.0,0.0,157.3,-12.6,,,,,0.0,10.7,-0.8,34.2,0.0,250.0,0.1,-0.01,1.0,,-75.0,19.0,0.0,30.24,835.0,,,336.0,,,,,0.0,0.0,,,,,,,,,,,,,,,,,,,0.0,14.0,0.0,0.0,30.1,0.0,,0.0,0.0,,,25.3,0.0,0.0,-0.5,2.9,1.8,,,,,15.0,16.0,15.0,17.0,15.0,16.0,16.0,17.0,,,11.0,254.4,,0.0,21.0,4.998,,,0.93,0.824,0.0,14.3,,,,,,2026-02-28-N890GF-SN35347-17.4.0.23677-USER_LOG_DATA.csv,,,,,,,66.2,57.2,,,,,59.0,60.8,59.0,62.6,59.0,60.8,60.8,62.6,,,57.74,0.0,59.45,0.898036253776435,0.8640483383685801,0.0,0.3373333333333334,419.0,True,2026-02-28 17:33:49 - Flight 14,
14.06,1.0,9.0,2026-02-28 17:33:59,37.08167,-121.59969,379.0,0.0,157.3,-12.6,,,,,0.0,10.7,-0.8,34.3,0.0,249.0,0.1,-0.01,1.0,,-47.0,19.0,0.0,30.24,832.0,,,336.0,,,,,0.0,0.0,,,,,,,,,,,,,,,,,,,0.0,14.0,0.0,0.0,30.1,0.0,,0.0,0.0,,,25.3,0.0,0.0,-0.5,2.9,1.8,,,,,15.0,16.0,15.0,17.0,15.0,16.0,16.0,17.0,,,12.0,254.4,,0.0,21.0,4.998,,,0.93,0.824,0.0,14.3,,,,,,2026-02-28-N890GF-SN35347-17.4.0.23677-USER_LOG_DATA.csv,,,,,,,66.2,57.2,,,,,59.0,60.8,59.0,62.6,59.0,60.8,60.8,62.6,,,57.74,0.0,59.45,0.898036253776435,0.8640483383685801,0.0,0.3373333333333334,419.0,True,2026-02-28 17:33:49 - Flight 14,
15.06,1.0,9.0,2026-02-28 17:34:00,37.08167,-121.59969,380.0,0.0,157.3,-12.6,,,,,0.0,10.7,-0.8,34.3,0.0,249.0,0.1,-0.01,1.0,,-22.0,19.0,0.0,30.24,832.0,,,336.0,,,,,0.0,0.0,,,,,,,,,,,,,,,,,,,0.0,14.0,0.0,0.0,30.1,0.0,,0.0,0.0,,,25.3,0.0,0.0,-0.5,2.9,1.8,,,,,15.0,16.0,15.0,17.0,15.0,16.0,16.0,17.0,,,11.0,254.4,,0.0,21.0,4.998,,,0.93,0.824,0.0,14.3,,,,,,2026-02-28-N890GF-SN35347-17.4.0.23677-USER_LOG_DATA.csv,,,,,,,66.2,57.2,,,,,59.0,60.8,59.0,62.6,59.0,60.8,60.8,62.6,,,57.74,0.0,59.45,0.898036253776435,0.8640483383685801,0.0,0.3373333333333334,419.0,True,2026-02-28 17:33:49 - Flight 14,
16.06,1.0,9.0,2026-02-28 17:34:01,37.08167,-121.59969,382.0,0.0,157.3,-12.6,,,,,0.0,10.7,-0.8,34.3,0.0,249.0,0.1,-0.01,1.0,,-14.0,20.0,0.0,30.24,832.0,,,336.0,,,,,0.0,0.0,,,,,,,,,,,,,,,,,,,0.0,14.0,0.0,0.0,30.1,0.0,,0.0,0.0,,,25.3,0.0,0.0,-0.5,2.9,1.8,,,,,15.0,16.0,15.0,17.0,15.0,16.0,16.0,17.0,,,12.0,254.4,,0.0,21.0,4.998,,,0.93,0.825,0.0,14.3,,,,,,2026-02-28-N890GF-SN35347-17.4.0.23677-USER_LOG_DATA.csv,,,,,,,68.0,57.2,,,,,59.0,60.8,59.0,62.6,59.0,60.8,60.8,62.6,,,57.74,0.0,59.45,0.8742647058823529,0.8411764705882353,0.0,0.3373333333333334,419.0,True,2026-02-28 17:33:49 - Flight 14,
17.06,1.0,9.0,2026-02-28 17:34:02,37.08167,-121.59969,383.0,0.0,157.3,-12.6,,,,,0.0,10.7,-0.8,34.2,0.0,249.0,0.0,-0.01,1.0,,-20.0,20.0,0.0,30.24,841.0,,,336.0,,,,,0.0,0.0,,,,,,,,,,,,,,,,,,,0.0,14.0,0.0,0.0,30.1,0.0,,0.0,0.0,,,25.3,0.0,0.0,-0.5,2.9,1.8,,,,,15.0,16.0,15.0,17.0,15.0,16.0,16.0,17.0,,,12.0,254.4,,0.0,21.0,4.998,,,0.93,0.825,0.0,14.3,,,,,,2026-02-28-N890GF-SN35347-17.4.0.23677-USER_LOG_DATA.csv,,,,,,,68.0,57.2,,,,,59.0,60.8,59.0,62.6,59.0,60.8,60.8,62.6,,,57.74,0.0,59.45,0.8742647058823529,0.8411764705882353,0.0,0.3373333333333334,419.0,True,2026-02-28 17:33:49 - Flight 14,
18.06,1.0,9.0,2026-02-28 17:34:03,37.08167,-121.59969,384.0,0.0,157.3,-12.6,,,,,0.0,10.7,-0.8,34.2,0.0,249.0,0.0,-0.01,1.0,,4.0,20.0,0.0,30.24,841.0,,,336.0,,,,,0.0,0.0,,,,,,,,,,,,,,,,,,,0.0,14.0,0.0,0.0,30.1,0.0,,0.0,0.0,,,25.3,0.0,0.0,-0.5,2.9,1.8,,,,,15.0,16.0,15.0,17.0,15.0,16.0,16.0,17.0,,,13.0,254.4,,0.0,21.0,4.998,,,0.93,0.825,0.0,14.3,,,,,,2026-02-28-N890GF-SN35347-17.4.0.23677-USER_LOG_DATA.csv,,,,,,,68.0,57.2,,,,,59.0,60.8,59.0,62.6,59.0,60.8,60.8,62.6,,,57.74,0.0,59.45,0.8742647058823529,0.8411764705882353,0.0,0.3373333333333334,419.0,True,2026-02-28 17:33:49 - Flight 14,
19.06,1.0,9.0,2026-02-28 17:34:04,37.08167,-121.59969,385.0,0.0,157.3,-12.6,,,,,0.0,10.7,-0.8,34.2,0.0,249.0,0.0,-0.01,1.0,,-20.0,20.0,0.0,30.24,841.0,,,336.0,,,,,0.0,0.0,,,,,,,,,,,,,,,,,,,0.0,14.0,0.0,0.0,30.1,0.0,,0.0,0.0,,,25.3,0.0,0.0,-0.5,2.9,1.8,,,,,15.0,16.0,15.0,17.0,15.0,16.0,16.0,17.0,,,13.0,254.4,,0.0,21.0,4.998,,,0.93,0.825,0.0,14.3,,,,,,2026-02-28-N890GF-SN35347-17.4.0.23677-USER_LOG_DATA.csv,,,,,,,68.0,57.2,,,,,59.0,60.8,59.0,62.6,59.0,60.8,60.8,62.6,,,57.74,0.0,59.45,0.8742647058823529,0.8411764705882353,0.0,0.3373333333333334,419.0,True,2026-02-28 17:33:49 - Flight 14,
20.06,1.0,9.0,2026-02-28 17:34:05,37.08167,-121.59969,386.0,0.0,157.3,-12.6,,,,,0.0,10.7,-0.7,34.3,0.0,249.0,0.0,-0.01,1.0,,-50.0,20.0,0.0,30.24,842.0,,,336.0,,,,,0.0,0.0,,,,,,,,,,,,,,,,,,,0.0,14.0,0.0,0.0,30.1,0.0,,0.0,0.0,,,25.3,0.0,0.0,-0.5,2.9,1.8,,,,,15.0,16.0,15.0,17.0,15.0,16.0,16.0,17.0,,,14.0,254.4,,0.0,21.0,4.998,,,0.93,0.825,0.0,14.3,,,,,,2026-02-28-N890GF-SN35347-17.4.0.23677-USER_LOG_DATA.csv,,,,,,,68.0,57.2,,,,,59.0,60.8,59.0,62.6,59.0,60.8,60.8,62.6,,,57.74,0.0,59.45,0.8742647058823529,0.8411764705882353,0.0,0.3373333333333334,419.0,True,2026-02-28 17:33:49 - Flight 14,
21.06,1.0,9.0,2026-02-28 17:34:06,37.08167,-121.59969,387.0,0.0,157.3,-12.6,,,,,0.0,10.7,-0.7,34.3,0.0,247.0,0.1,-0.01,1.0,,-74.0,20.0,0.0,30.24,842.0,,,336.0,,,,,0.0,0.0,,,,,,,,,,,,,,,,,,,0.0,14.0,0.0,0.0,30.1,0.0,,0.0,0.0,,,25.3,0.0,0.0,-0.5,2.9,1.8,,,,,15.0,16.0,15.0,17.0,15.0,16.0,16.0,17.0,,,14.0,254.4,,0.0,21.0,4.998,,,0.93,0.825,0.0,14.3,,,,,,2026-02-28-N890GF-SN35347-17.4.0.23677-USER_LOG_DATA.csv,,,,,,,68.0,57.2,,,,,59.0,60.8,59.0,62.6,59.0,60.8,60.8,62.6,,,57.74,0.0,59.45,0.8742647058823529,0.8411764705882353,0.0,0.3373333333333334,419.0,True,2026-02-28 17:33:49 - Flight 14,
22.06,1.0,9.0,2026-02-28 17:34:07,37.08167,-121.59969,388.0,0.0,157.3,-12.6,,,,,0.0,10.7,-0.8,34.2,0.0,245.0,0.0,-0.01,1.0,,-86.0,20.0,0.0,30.24,842.0,,,336.0,,,,,0.0,0.0,,,,,,,,,,,,,,,,,,,0.0,14.0,0.0,0.0,30.1,0.0,,0.0,0.0,,,25.3,0.0,0.0,-0.5,2.9,1.8,,,,,15.0,16.0,15.0,17.0,15.0,16.0,16.0,17.0,,,12.0,254.4,,0.0,21.0,4.998,,,0.93,0.825,0.0,14.3,,,,,,2026-02-28-N890GF-SN35347-17.4.0.23677-USER_LOG_DATA.csv,,,,,,,68.0,57.2,,,,,59.0,60.8,59.0,62.6,59.0,60.8,60.8,62.6,,,57.74,0.0,59.45,0.8742647058823529,0.8411764705882353,0.0,0.3373333333333334,419.0,True,2026-02-28 17:33:49 - Flight 14,
23.06,1.0,9.0,2026-02-28 17:34:08,37.08167,-121.59969,388.0,0.0,157.3,-12.6,,,,,0.0,10.7,-0.8,34.2,0.0,244.0,0.0,-0.01,1.0,,-77.0,20.0,0.0,30.24,847.0,,,336.0,,,,,0.0,0.0,,,,,,,,,,,,,,,,,,,0.0,14.0,0.0,0.0,30.1,0.0,,0.0,0.0,,,25.3,0.0,0.0,-0.5,2.9,1.8,,,,,15.0,16.0,15.0,17.0,15.0,16.0,16.0,17.0,,,13.0,254.4,,0.0,21.0,4.998,,,0.93,0.825,0.0,14.3,,,,,,2026-02-28-N890GF-SN35347-17.4.0.23677-USER_LOG_DATA.csv,,,,,,,68.0,57.2,,,,,59.0,60.8,59.0,62.6,59.0,60.8,60.8,62.6,,,57.74,0.0,59.45,0.8742647058823529,0.8411764705882353,0.0,0.3373333333333334,419.0,True,2026-02-28 17:33:49 - Flight 14,
24.06,1.0,9.0,2026-02-28 17:34:09,37.08167,-121.59969,389.0,0.0,157.3,-12.6,,,,,0.0,10.7,-0.8,34.2,0.0,243.0,0.0,-0.01,1.0,,-92.0,20.0,0.0,30.24,847.0,,,336.0,,,,,0.0,0.0,,,,,,,,,,,,,,,,,,,0.0,14.0,0.0,0.0,30.1,0.0,,0.0,0.0,,,25.3,0.0,0.0,-0.5,2.9,1.8,,,,,15.0,16.0,15.0,17.0,15.0,16.0,16.0,17.0,,,12.0,254.4,,0.0,21.0,4.998,,,0.93,0.825,0.0,14.3,,,,,,2026-02-28-N890GF-SN35347-17.4.0.23677-USER_LOG_DATA.csv,,,,,,,68.0,57.2,,,,,59.0,60.8,59.0,62.6,59.0,60.8,60.8,62.6,,,57.74,0.0,59.45,0.8742647058823529,0.8411764705882353,0.0,0.3373333333333334,419.0,True,2026-02-28 17:33:49 - Flight 14,
25.06,1.0,9.0,2026-02-28 17:34:10,37.08167,-121.59969,389.0,0.0,157.3,-12.6,,,,,0.0,10.8,-0.8,34.2,0.0,241.0,0.0,-0.01,1.0,,-80.0,20.0,0.0,30.24,847.0,,,336.0,,,,,0.0,0.0,,,,,,,,,,,,,,,,,,,0.0,14.0,0.0,0.0,30.1,0.0,,0.0,0.0,,,25.3,0.0,0.0,-0.5,2.9,1.8,,,,,15.0,16.0,15.0,17.0,15.0,16.0,16.0,17.0,,,13.0,254.4,,0.0,21.0,4.998,,,0.93,0.825,0.0,14.3,,,,,,2026-02-28-N890GF-SN35347-17.4.0.23677-USER_LOG_DATA.csv,,,,,,,68.0,57.2,,,,,59.0,60.8,59.0,62.6,59.0,60.8,60.8,62.6,,,57.74,0.0,59.45,0.8742647058823529,0.8411764705882353,0.0,0.3373333333333334,419.0,True,2026-02-28 17:33:49 - Flight 14,
26.06,1.0,9.0,2026-02-28 17:34:11,37.08168,-121.59969,389.0,0.0,157.3,-12.6,,,,,0.0,10.8,-0.8,34.2,0.0,239.0,0.1,-0.01,1.0,,-106.0,20.0,0.0,30.24,841.0,,,336.0,,,,,0.0,0.0,,,,,,,,,,,,,,,,,,,0.0,14.0,0.0,0.0,30.1,0.0,,0.0,0.0,,,25.3,0.0,0.0,-0.5,2.9,1.8,,,,,15.0,16.0,15.0,17.0,15.0,16.0,16.0,17.0,,,14.0,254.4,,0.0,21.0,4.998,,,0.93,0.825,0.0,14.3,,,,,,2026-02-28-N890GF-SN35347-17.4.0.23677-USER_LOG_DATA.csv,,,,,,,68.0,57.2,,,,,59.0,60.8,59.0,62.6,59.0,60.8,60.8,62.6,,,57.74,0.0,59.45,0.8742647058823529,0.8411764705882353,0.0,0.3373333333333334,419.0,True,2026-02-28 17:33:49 - Flight 14,
27.06,1.0,9.0,2026-02-28 17:34:12,37.08168,-121.59969,389.0,0.0,157.3,-12.6,,,,,0.0,10.8,-0.8,34.2,0.0,236.0,0.0,-0.01,1.0,,-151.0,20.0,0.0,30.24,841.0,,,336.0,,,,,0.0,0.0,,,,,,,,,,,,,,,,,,,0.0,14.0,0.0,0.0,30.1,0.0,,0.0,0.0,,,25.3,0.0,0.0,-0.5,2.9,1.8,,,,,15.0,16.0,15.0,17.0,15.0,16.0,16.0,17.0,,,15.0,254.4,,0.0,21.0,4.998,,,0.93,0.825,0.0,14.3,,,,,,2026-02-28-N890GF-SN35347-17.4.0.23677-USER_LOG_DATA.csv,,,,,,,68.0,57.2,,,,,59.0,60.8,59.0,62.6,59.0,60.8,60.8,62.6,,,57.74,0.0,59.45,0.8742647058823529,0.8411764705882353,0.0,0.3373333333333334,419.0,True,2026-02-28 17:33:49 - Flight 14,
28.06,1.0,9.0,2026-02-28 17:34:13,37.08168,-121.5997,389.0,0.0,157.3,-12.6,,,,,0.0,10.8,-0.8,34.2,0.0,234.0,0.0,-0.01,1.0,,-161.0,20.0,0.0,30.24,841.0,,,336.0,,,,,0.0,0.0,,,,,,,,,,,,,,,,,,,0.0,14.0,0.0,0.0,30.1,0.0,,0.0,0.0,,,25.3,0.0,0.0,-0.5,2.9,1.8,,,,,15.0,16.0,15.0,17.0,15.0,16.0,16.0,17.0,,,15.0,254.4,,0.0,21.0,4.998,,,0.93,0.825,0.0,14.3,,,,,,2026-02-28-N890GF-SN35347-17.4.0.23677-USER_LOG_DATA.csv,,,,,,,68.0,57.2,,,,,59.0,60.8,59.0,62.6,59.0,60.8,60.8,62.6,,,57.74,0.0,59.45,0.8742647058823529,0.8411764705882353,0.0,0.3373333333333334,419.0,True,2026-02-28 17:33:49 - Flight 14,
29.06,1.0,9.0,2026-02-28 17:34:14,37.08168,-121.5997,389.0,0.0,157.3,-12.6,,,,,0.0,10.8,-0.8,34.2,0.0,229.0,0.0,-0.01,1.0,,-203.0,20.0,0.0,30.24,837.0,,,336.0,,,,,0.0,0.0,,,,,,,,,,,,,,,,,,,0.0,14.0,0.0,0.0,30.1,0.0,,0.0,0.0,,,25.3,0.0,0.0,-0.5,2.9,1.8,,,,,15.0,16.0,15.0,17.0,15.0,16.0,16.0,17.0,,,14.0,254.4,,0.0,21.0,4.998,,,0.93,0.825,0.0,14.3,,,,,,2026-02-28-N890GF-SN35347-17.4.0.23677-USER_LOG_DATA.csv,,,,,,,68.0,57.2,,,,,59.0,60.8,59.0,62.6,59.0,60.8,60.8,62.6,,,57.74,0.0,59.45,0.8742647058823529,0.8411764705882353,0.0,0.3373333333333334,419.0,True,2026-02-28 17:33:49 - Flight 14,
30.06,1.0,9.0,2026-02-28 17:34:15,37.08168,-121.5997,389.0,0.1,157.3,-12.6,,,,,0.0,10.8,-0.7,34.2,0.0,226.0,0.1,-0.01,1.0,,-189.0,20.0,0.0,30.24,834.0,,,336.0,,,,,0.0,0.0,,,,,,,,,,,,,,,,,,,0.0,14.0,0.0,0.0,30.1,0.0,,0.0,0.0,,,25.3,0.0,0.0,-0.5,2.9,1.8,,,,,15.0,16.0,15.0,17.0,15.0,16.0,16.0,17.0,,,15.0,254.4,,0.0,21.0,4.998,,,0.93,0.826,0.0,14.3,,,,,,2026-02-28-N890GF-SN35347-17.4.0.23677-USER_LOG_DATA.csv,,,,,,,68.0,57.2,,,,,59.0,60.8,59.0,62.6,59.0,60.8,60.8,62.6,,,57.74,0.0,59.45,0.8742647058823529,0.8411764705882353,0.0,0.42166666666666675,419.0,True,2026-02-28 17:33:49 - Flight 14,
31.06,1.0,9.0,2026-02-28 17:34:16,37.08168,-121.5997,389.0,0.0,157.3,-12.6,,,,,0.0,10.8,-0.7,34.3,0.0,225.0,0.1,-0.01,1.0,,-149.0,20.0,0.0,30.24,834.0,,,336.0,,,,,0.0,0.0,,,,,,,,,,,,,,,,,,,0.0,14.0,0.0,0.0,30.1,0.0,,0.0,0.0,,,25.3,0.0,0.0,-0.5,2.9,1.8,,,,,15.0,16.0,15.0,17.0,15.0,16.0,16.0,17.0,,,14.0,254.4,,0.0,21.0,4.998,,,0.93,0.825,0.0,14.3,,,,,,2026-02-28-N890GF-SN35347-17.4.0.23677-USER_LOG_DATA.csv,,,,,,,68.0,57.2,,,,,59.0,60.8,59.0,62.6,59.0,60.8,60.8,62.6,,,57.74,0.0,59.45,0.8742647058823529,0.8411764705882353,0.0,0.506,419.0,True,2026-02-28 17:33:49 - Flight 14,
32.06,1.0,9.0,2026-02-28 17:34:17,37.08168,-121.5997,389.0,0.0,157.3,-12.6,,,,,0.0,10.8,-0.8,34.2,0.0,224.0,0.1,-0.01,1.0,,-108.0,20.0,0.0,30.24,834.0,,,336.0,,,,,0.0,0.0,,,,,,,,,,,,,,,,,,,0.0,14.0,0.0,0.0,30.1,0.0,,0.0,0.0,,,25.3,0.0,0.0,-0.5,2.9,1.8,,,,,15.0,16.0,15.0,17.0,15.0,16.0,16.0,17.0,,,14.0,254.4,,0.0,21.0,4.998,,,0.93,0.826,0.0,14.3,,,,,,2026-02-28-N890GF-SN35347-17.4.0.23677-USER_LOG_DATA.csv,,,,,,,68.0,57.2,,,,,59.0,60.8,59.0,62.6,59.0,60.8,60.8,62.6,,,57.74,0.0,59.45,0.8742647058823529,0.8411764705882353,0.0,0.506,419.0,True,2026-02-28 17:33:49 - Flight 14,
33.06,1.0,9.0,2026-02-28 17:34:18,37.08169,-121.5997,390.0,0.0,157.3,-12.6,,,,,0.0,10.8,-0.8,34.2,0.0,223.0,0.1,-0.01,1.0,,-91.0,20.0,0.0,30.24,831.0,,,336.0,,,,,0.0,0.0,,,,,,,,,,,,,,,,,,,0.0,14.0,0.0,0.0,30.1,0.0,,0.0,0.0,,,25.3,0.0,0.0,-0.5,2.9,1.8,,,,,15.0,16.0,15.0,17.0,15.0,16.0,16.0,17.0,,,15.0,254.4,,0.0,21.0,4.998,,,0.93,0.826,0.0,14.3,,,,,,2026-02-28-N890GF-SN35347-17.4.0.23677-USER_LOG_DATA.csv,,,,,,,68.0,57.2,,,,,59.0,60.8,59.0,62.6,59.0,60.8,60.8,62.6,,,57.74,0.0,59.45,0.8742647058823529,0.8411764705882353,0.0,0.506,419.0,True,2026-02-28 17:33:49 - Flight 14,
34.06,1.0,9.0,2026-02-28 17:34:19,37.08169,-121.5997,390.0,0.0,157.3,-12.6,,,,,0.0,10.8,-0.8,34.2,0.0,223.0,0.1,-0.01,1.0,,-55.0,20.0,0.0,30.24,831.0,,,336.0,,,,,0.0,0.0,,,,,,,,,,,,,,,,,,,0.0,14.0,0.0,0.0,30.1,0.0,,0.0,0.0,,,25.3,0.0,0.0,-0.5,2.9,1.8,,,,,15.0,16.0,15.0,17.0,15.0,16.0,16.0,17.0,,,15.0,254.4,,0.0,21.0,4.998,,,0.93,0.826,0.0,14.3,,,,,,2026-02-28-N890GF-SN35347-17.4.0.23677-USER_LOG_DATA.csv,,,,,,,68.0,57.2,,,,,59.0,60.8,59.0,62.6,59.0,60.8,60.8,62.6,,,57.74,0.0,59.45,0.8742647058823529,0.8411764705882353,0.0,0.506,419.0,True,2026-02-28 17:33:49 - Flight 14,
35.06,1.0,9.0,2026-02-28 17:34:20,37.08169,-121.5997,390.0,0.1,157.3,-12.6,,,,,0.0,10.7,-0.8,34.2,0.0,221.0,0.1,-0.01,1.0,,-101.0,20.0,0.0,30.24,831.0,,,336.0,,,,,0.0,0.0,,,,,,,,,,,,,,,,,,,0.0,14.0,0.0,0.0,30.1,0.0,,0.0,0.0,,,25.3,0.0,0.0,-0.5,2.9,1.8,,,,,15.0,16.0,15.0,17.0,15.0,16.0,16.0,17.0,,,15.0,254.4,,0.0,21.0,4.998,,,0.93,0.826,0.0,14.3,,,,,,2026-02-28-N890GF-SN35347-17.4.0.23677-USER_LOG_DATA.csv,,,,,,,68.0,57.2,,,,,59.0,60.8,59.0,62.6,59.0,60.8,60.8,62.6,,,57.74,0.0,59.45,0.8742647058823529,0.8411764705882353,0.0,0.5903333333333334,419.0,True,2026-02-28 17:33:49 - Flight 14,
36.06,1.0,9.0,2026-02-28 17:34:21,37.08168,-121.5997,389.0,0.0,157.3,-12.6,,,,,0.0,10.7,-0.8,34.2,0.0,220.0,0.0,-0.01,1.0,,-88.0,20.0,0.0,30.24,836.0,,,336.0,,,,,0.0,0.0,,,,,,,,,,,,,,,,,,,0.0,14.0,0.0,0.0,30.1,0.0,,0.0,0.0,,,25.3,0.0,0.0,-0.5,2.9,1.8,,,,,15.0,16.0,15.0,17.0,15.0,16.0,16.0,17.0,,,15.0,254.4,,0.0,21.0,4.998,,,0.93,0.826,0.0,14.3,,,,,,2026-02-28-N890GF-SN35347-17.4.0.23677-USER_LOG_DATA.csv,,,,,,,68.0,57.2,,,,,59.0,60.8,59.0,62.6,59.0,60.8,60.8,62.6,,,57.74,0.0,59.45,0.8742647058823529,0.8411764705882353,0.0,0.6746666666666667,419.0,True,2026-02-28 17:33:49 - Flight 14,
37.06,1.0,9.0,2026-02-28 17:34:22,37.08168,-121.5997,389.0,0.0,157.3,-12.6,,,,,0.0,10.7,-0.8,34.2,0.0,219.0,0.0,-0.01,1.0,,-73.0,20.0,0.0,30.24,835.0,,,336.0,,,,,0.0,0.0,,,,,,,,,,,,,,,,,,,0.0,14.0,0.0,0.0,30.1,0.0,,0.0,0.0,,,25.3,0.0,0.0,-0.5,2.9,1.8,,,,,15.0,16.0,15.0,17.0,16.0,16.0,16.0,17.0,,,15.0,254.4,,0.0,21.0,4.998,,,0.93,0.826,0.0,14.3,,,,,,2026-02-28-N890GF-SN35347-17.4.0.23677-USER_LOG_DATA.csv,,,,,,,68.0,57.2,,,,,59.0,60.8,59.0,62.6,60.8,60.8,60.8,62.6,,,57.74,0.0,59.9,0.8808823529411764,0.8411764705882353,0.0,0.6746666666666667,419.0,True,2026-02-28 17:33:49 - Flight 14,
38.06,1.0,9.0,2026-02-28 17:34:23,37.08168,-121.5997,390.0,0.0,157.3,-12.6,,,,,0.0,10.8,-0.8,34.2,0.0,219.0,0.1,-0.01,1.0,,-41.0,20.0,0.0,30.24,835.0,,,336.0,,,,,0.0,0.0,,,,,,,,,,,,,,,,,,,0.0,14.0,0.0,0.0,30.1,0.0,,0.0,0.0,,,25.3,0.0,0.0,-0.5,2.9,1.8,,,,,15.0,16.0,15.0,17.0,16.0,16.0,16.0,17.0,,,15.0,254.4,,0.0,21.0,4.998,,,0.93,0.826,0.0,14.3,,,,,,2026-02-28-N890GF-SN35347-17.4.0.23677-USER_LOG_DATA.csv,,,,,,,68.0,57.2,,,,,59.0,60.8,59.0,62.6,60.8,60.8,60.8,62.6,,,57.74,0.0,59.9,0.8808823529411764,0.8411764705882353,0.0,0.6746666666666667,419.0,True,2026-02-28 17:33:49 - Flight 14,
39.06,1.0,9.0,2026-02-28 17:34:24,37.08168,-121.5997,390.0,0.0,157.3,-12.6,,,,,0.0,10.8,-0.8,34.1,0.0,219.0,0.0,-0.01,1.0,,-10.0,20.0,0.0,30.24,835.0,,,336.0,,,,,0.0,0.0,,,,,,,,,,,,,,,,,,,0.0,14.0,0.0,0.0,30.1,0.0,,0.0,0.0,,,25.3,0.0,0.0,-0.5,2.9,1.8,,,,,15.0,16.0,15.0,17.0,15.0,16.0,16.0,17.0,,,14.0,254.4,,0.0,21.0,4.998,,,0.93,0.826,0.0,14.3,,,,,,2026-02-28-N890GF-SN35347-17.4.0.23677-USER_LOG_DATA.csv,,,,,,,68.0,57.2,,,,,59.0,60.8,59.0,62.6,59.0,60.8,60.8,62.6,,,57.74,0.0,59.45,0.8742647058823529,0.8411764705882353,0.0,0.6746666666666667,419.0,True,2026-02-28 17:33:49 - Flight 14,
40.06,1.0,9.0,2026-02-28 17:34:25,37.08169,-121.5997,388.0,0.0,157.3,-12.6,,,,,0.0,10.7,-0.8,34.1,0.0,219.0,0.0,-0.01,1.0,,16.0,20.0,0.0,30.24,836.0,,,336.0,,,,,0.0,0.0,,,,,,,,,,,,,,,,,,,0.0,14.0,0.0,0.0,30.1,0.0,,0.0,0.0,,,25.3,0.0,0.0,-0.5,2.9,1.8,,,,,15.0,16.0,15.0,17.0,15.0,16.0,16.0,17.0,,,14.0,254.4,,0.0,21.0,4.998,,,0.93,0.826,0.0,14.3,,,,,,2026-02-28-N890GF-SN35347-17.4.0.23677-USER_LOG_DATA.csv,,,,,,,68.0,57.2,,,,,59.0,60.8,59.0,62.6,59.0,60.8,60.8,62.6,,,57.74,0.0,59.45,0.8742647058823529,0.8411764705882353,0.0,0.6746666666666667,419.0,True,2026-02-28 17:33:49 - Flight 14,
41.06,1.0,9.0,2026-02-28 17:34:26,37.0817,-121.5997,391.0,0.0,157.3,-12.6,,,,,0.0,10.7,-0.8,34.1,0.0,219.0,0.0,-0.01,1.0,,42.0,20.0,0.0,30.24,836.0,,,336.0,,,,,0.0,0.0,,,,,,,,,,,,,,,,,,,0.0,14.0,0.0,0.0,30.1,0.0,,0.0,0.0,,,25.3,0.0,0.0,-0.5,2.9,1.8,,,,,15.0,16.0,15.0,17.0,15.0,16.0,16.0,17.0,,,14.0,254.4,,0.0,21.0,4.998,,,0.93,0.826,0.0,14.3,,,,,,2026-02-28-N890GF-SN35347-17.4.0.23677-USER_LOG_DATA.csv,,,,,,,68.0,57.2,,,,,59.0,60.8,59.0,62.6,59.0,60.8,60.8,62.6,,,57.74,0.0,59.45,0.8742647058823529,0.8411764705882353,0.0,0.6746666666666667,419.0,True,2026-02-28 17:33:49 - Flight 14,
42.06,1.0,9.0,2026-02-28 17:34:27,37.0817,-121.5997,391.0,0.0,157.3,-12.6,,,,,0.0,10.8,-0.8,34.1,0.0,219.0,0.1,-0.01,1.0,,18.0,20.0,0.0,30.24,836.0,,,336.0,,,,,0.0,0.0,,,,,,,,,,,,,,,,,,,0.0,14.0,0.0,0.0,30.1,0.0,,0.0,0.0,,,25.3,0.0,0.0,-0.5,2.9,1.8,,,,,15.0,16.0,15.0,17.0,15.0,16.0,16.0,17.0,,,14.0,224.9,,0.0,21.0,4.998,,,0.93,0.826,0.0,14.3,,,,,,2026-02-28-N890GF-SN35347-17.4.0.23677-USER_LOG_DATA.csv,,,,,,,68.0,57.2,,,,,59.0,60.8,59.0,62.6,59.0,60.8,60.8,62.6,,,57.74,0.0,59.45,0.8742647058823529,0.8411764705882353,0.0,0.6746666666666667,419.0,True,2026-02-28 17:33:49 - Flight 14,
43.06,1.0,9.0,2026-02-28 17:34:28,37.0817,-121.5997,391.0,0.0,157.3,-12.6,,,,,0.0,10.8,-0.8,34.1,0.0,219.0,0.1,-0.01,1.0,,20.0,20.0,0.0,30.24,837.0,,,336.0,,,,,0.0,0.0,,,,,,,,,,,,,,,,,,,0.0,14.0,0.0,0.0,30.1,0.0,,0.0,0.0,,,25.3,0.0,0.0,-0.5,2.9,1.8,,,,,15.0,16.0,15.0,17.0,15.0,17.0,16.0,17.0,,,17.0,175.1,,0.0,21.0,4.998,,,0.93,0.826,0.0,14.3,,,,,,2026-02-28-N890GF-SN35347-17.4.0.23677-USER_LOG_DATA.csv,,,,,,,68.0,57.2,,,,,59.0,60.8,59.0,62.6,59.0,62.6,60.8,62.6,,,57.74,0.0,59.45,0.8742647058823529,0.8411764705882353,0.0,0.6746666666666667,419.0,True,2026-02-28 17:33:49 - Flight 14,
44.06,1.0,9.0,2026-02-28 17:34:29,37.0817,-121.5997,391.0,0.1,157.3,-12.6,,,,,0.0,10.8,-0.8,34.2,0.0,219.0,0.1,-0.01,1.0,,32.0,20.0,0.0,30.24,837.0,,,336.0,,,,,0.0,0.0,,,,,,,,,,,,,,,,,,,0.0,14.0,0.0,0.0,30.1,0.0,,0.0,0.0,,,25.3,0.0,0.0,-0.5,2.9,1.8,,,,,15.0,16.0,15.0,17.0,15.0,17.0,16.0,17.0,,,17.0,136.3,,0.0,21.0,4.998,,,0.93,0.826,0.0,14.3,,,,,,2026-02-28-N890GF-SN35347-17.4.0.23677-USER_LOG_DATA.csv,,,,,,,68.0,57.2,,,,,59.0,60.8,59.0,62.6,59.0,62.6,60.8,62.6,,,57.74,0.0,59.45,0.8742647058823529,0.8411764705882353,0.0,0.759,419.0,True,2026-02-28 17:33:49 - Flight 14,
45.06,1.0,9.0,2026-02-28 17:34:30,37.0817,-121.5997,390.0,0.0,157.3,-12.6,,,,,0.0,10.8,-0.8,34.2,0.0,219.0,0.1,-0.01,1.0,,65.0,20.0,0.0,30.24,837.0,,,336.0,,,,,0.0,0.0,,,,,,,,,,,,,,,,,,,0.0,14.0,0.0,0.0,30.1,0.0,,0.0,0.0,,,25.3,0.0,0.0,-0.5,2.9,1.8,,,,,15.0,16.0,15.0,17.0,15.0,17.0,16.0,17.0,,,17.0,106.1,,0.0,21.0,4.998,,,0.93,0.826,0.0,14.3,,,,,,2026-02-28-N890GF-SN35347-17.4.0.23677-USER_LOG_DATA.csv,,,,,,,68.0,57.2,,,,,59.0,60.8,59.0,62.6,59.0,62.6,60.8,62.6,,,57.74,0.0,59.45,0.8742647058823529,0.8411764705882353,0.0,0.8433333333333334,419.0,True,2026-02-28 17:33:49 - Flight 14,
46.06,1.0,9.0,2026-02-28 17:34:31,37.0817,-121.5997,390.0,0.0,157.3,-12.6,,,,,0.0,10.8,-0.7,34.2,0.0,219.0,0.1,-0.01,1.0,,47.0,20.0,0.0,30.24,847.0,,,336.0,,,,,0.0,0.0,,,,,,,,,,,,,,,,,,,0.0,14.0,0.0,0.0,30.1,0.0,,0.0,0.0,,,25.3,0.0,0.0,-0.5,2.9,1.8,,,,,15.0,16.0,15.0,17.0,15.0,17.0,16.0,17.0,,,17.0,82.7,,0.0,21.0,4.998,,,0.93,0.826,0.0,14.3,,,,,,2026-02-28-N890GF-SN35347-17.4.0.23677-USER_LOG_DATA.csv,,,,,,,68.0,57.2,,,,,59.0,60.8,59.0,62.6,59.0,62.6,60.8,62.6,,,57.74,0.0,59.45,0.8742647058823529,0.8411764705882353,0.0,0.8433333333333334,419.0,True,2026-02-28 17:33:49 - Flight 14,
47.06,1.0,9.0,2026-02-28 17:34:32,37.0817,-121.5997,390.0,0.0,157.3,-12.6,,,,,0.0,10.8,-0.8,34.2,0.0,219.0,0.1,-0.01,1.0,,43.0,20.0,0.0,30.24,847.0,,,336.0,,,,,0.0,0.0,,,,,,,,,,,,,,,,,,,0.0,14.0,0.0,0.0,30.1,0.0,,0.0,0.0,,,25.3,0.0,0.0,-0.5,2.9,1.8,,,,,15.0,16.0,15.0,17.0,15.0,17.0,16.0,17.0,,,17.0,64.5,,0.0,21.0,4.998,,,0.93,0.826,0.0,14.3,,,,,,2026-02-28-N890GF-SN35347-17.4.0.23677-USER_LOG_DATA.csv,,,,,,,68.0,57.2,,,,,59.0,60.8,59.0,62.6,59.0,62.6,60.8,62.6,,,57.74,0.0,59.45,0.8742647058823529,0.8411764705882353,0.0,0.8433333333333334,419.0,True,2026-02-28 17:33:49 - Flight 14,
48.06,1.0,9.0,2026-02-28 17:34:33,37.0817,-121.5997,390.0,0.0,157.3,-12.6,,,,,0.0,10.8,-0.8,34.1,0.0,219.0,0.0,-0.01,1.0,,18.0,20.0,0.0,30.24,847.0,,,336.0,,,,,0.0,0.0,,,,,,,,,,,,,,,,,,,0.0,14.0,0.0,0.0,30.1,0.0,,0.0,0.0,,,25.3,0.0,0.0,-0.5,2.9,1.8,,,,,15.0,16.0,15.0,17.0,15.0,17.0,16.0,17.0,,,17.0,50.4,,0.0,21.0,4.998,,,0.93,0.828,0.0,14.3,,,,,,2026-02-28-N890GF-SN35347-17.4.0.23677-USER_LOG_DATA.csv,,,,,,,68.0,57.2,,,,,59.0,60.8,59.0,62.6,59.0,62.6,60.8,62.6,,,57.74,0.0,59.45,0.8742647058823529,0.8411764705882353,0.0,0.8433333333333334,419.0,True,2026-02-28 17:33:49 - Flight 14,
49.06,1.0,9.0,2026-02-28 17:34:34,37.0817,-121.5997,390.0,0.0,157.3,-12.6,,,,,0.0,10.8,-0.9,34.1,0.0,219.0,0.0,-0.01,1.0,,-32.0,20.0,0.0,30.24,847.0,,,336.0,,,,,0.0,0.0,,,,,,,,,,,,,,,,,,,0.0,14.0,0.0,0.0,30.1,0.0,,0.0,0.0,,,25.3,0.0,0.0,-0.5,2.9,1.8,,,,,15.0,16.0,15.0,17.0,15.0,17.0,16.0,17.0,,,17.0,39.3,,0.0,21.0,4.998,,,0.93,0.828,0.0,14.3,,,,,,2026-02-28-N890GF-SN35347-17.4.0.23677-USER_LOG_DATA.csv,,,,,,,68.0,57.2,,,,,59.0,60.8,59.0,62.6,59.0,62.6,60.8,62.6,,,57.74,0.0,59.45,0.8742647058823529,0.8411764705882353,0.0,0.8433333333333334,419.0,True,2026-02-28 17:33:49 - Flight 14,
50.06,1.0,9.0,2026-02-28 17:34:35,37.0817,-121.5997,390.0,0.0,157.3,-12.6,,,,,0.0,10.8,-0.8,34.1,0.0,219.0,0.0,-0.01,1.0,,-49.0,20.0,0.0,30.24,847.0,,,336.0,,,,,0.0,0.0,,,,,,,,,,,,,,,,,,,0.0,14.0,0.0,0.0,30.1,0.0,,0.0,0.0,,,25.3,0.0,0.0,-0.5,2.9,1.8,,,,,15.0,16.0,16.0,17.0,16.0,17.0,16.0,17.0,,,17.0,30.8,,0.0,21.0,4.998,,,0.93,0.828,0.0,14.3,,,,,,2026-02-28-N890GF-SN35347-17.4.0.23677-USER_LOG_DATA.csv,,,,,,,68.0,57.2,,,,,59.0,60.8,60.8,62.6,60.8,62.6,60.8,62.6,,,57.74,0.0,60.349999999999994,0.8875,0.8411764705882353,0.0,0.8433333333333334,419.0,True,2026-02-28 17:33:49 - Flight 14,
51.06,1.0,9.0,2026-02-28 17:34:36,37.0817,-121.5997,390.0,0.0,157.3,-12.6,,,,,0.0,10.8,-0.8,34.1,0.0,219.0,0.0,-0.01,1.0,,-50.0,20.0,0.0,30.24,848.0,,,336.0,,,,,0.0,0.0,,,,,,,,,,,,,,,,,,,0.0,14.0,0.0,0.0,30.1,0.0,,0.0,0.0,,,25.3,0.0,0.0,-0.5,2.9,1.8,,,,,15.0,16.0,16.0,17.0,16.0,17.0,16.0,17.0,,,16.0,24.2,,0.0,21.0,4.998,,,0.93,0.828,0.0,14.3,,,,,,2026-02-28-N890GF-SN35347-17.4.0.23677-USER_LOG_DATA.csv,,,,,,,68.0,57.2,,,,,59.0,60.8,60.8,62.6,60.8,62.6,60.8,62.6,,,57.74,0.0,60.349999999999994,0.8875,0.8411764705882353,0.0,0.8433333333333334,419.0,True,2026-02-28 17:33:49 - Flight 14,
52.06,1.0,9.0,2026-02-28 17:34:37,37.0817,-121.5997,390.0,0.0,157.3,-12.6,,,,,0.0,10.8,-0.8,34.1,0.0,219.0,0.0,-0.01,1.0,,-79.0,20.0,0.0,30.24,848.0,,,336.0,,,,,0.0,0.0,,,,,,,,,,,,,,,,,,,0.0,14.0,0.0,0.0,30.1,0.0,,0.0,0.0,,,25.3,0.0,0.0,-0.5,2.9,1.8,,,,,15.0,16.0,16.0,17.0,16.0,17.0,16.0,17.0,,,16.0,19.0,,0.0,21.0,4.998,,,0.93,0.828,0.0,14.3,,,,,,2026-02-28-N890GF-SN35347-17.4.0.23677-USER_LOG_DATA.csv,,,,,,,68.0,57.2,,,,,59.0,60.8,60.8,62.6,60.8,62.6,60.8,62.6,,,57.74,0.0,60.349999999999994,0.8875,0.8411764705882353,0.0,0.8433333333333334,419.0,True,2026-02-28 17:33:49 - Flight 14,
53.06,1.0,9.0,2026-02-28 17:34:38,37.0817,-121.5997,390.0,0.0,157.3,-12.6,,,,,0.0,10.8,-0.8,34.2,0.0,219.0,0.1,-0.01,1.0,,-102.0,20.0,0.0,30.24,848.0,,,336.0,,,,,0.0,0.0,,,,,,,,,,,,,,,,,,,0.0,14.0,0.0,0.0,30.1,0.0,,0.0,0.0,,,25.3,0.0,0.0,-0.5,2.9,1.8,,,,,15.0,16.0,16.0,17.0,16.0,17.0,16.0,17.0,,,16.0,15.0,,0.0,21.0,4.998,,,0.93,0.828,0.0,14.3,,,,,,2026-02-28-N890GF-SN35347-17.4.0.23677-USER_LOG_DATA.csv,,,,,,,68.0,57.2,,,,,59.0,60.8,60.8,62.6,60.8,62.6,60.8,62.6,,,57.74,0.0,60.349999999999994,0.8875,0.8411764705882353,0.0,0.8433333333333334,419.0,True,2026-02-28 17:33:49 - Flight 14,
54.06,1.0,9.0,2026-02-28 17:34:39,37.0817,-121.5997,390.0,0.0,157.3,-12.6,,,,,0.0,10.8,-0.7,34.2,0.0,219.0,0.1,-0.01,1.0,,-54.0,20.0,0.0,30.24,858.0,,,336.0,,,,,0.0,0.0,,,,,,,,,,,,,,,,,,,0.0,14.0,0.0,0.0,30.1,0.0,,0.0,0.0,,,25.3,0.0,0.0,-0.5,2.9,1.8,,,,,15.0,16.0,16.0,17.0,16.0,17.0,16.0,17.0,,,15.0,11.9,,0.0,21.0,4.998,,,0.93,0.828,0.0,14.3,,,,,,2026-02-28-N890GF-SN35347-17.4.0.23677-USER_LOG_DATA.csv,,,,,,,68.0,57.2,,,,,59.0,60.8,60.8,62.6,60.8,62.6,60.8,62.6,,,57.74,0.0,60.349999999999994,0.8875,0.8411764705882353,0.0,0.8433333333333334,419.0,True,2026-02-28 17:33:49 - Flight 14,
55.06,1.0,9.0,2026-02-28 17:34:40,37.0817,-121.5997,390.0,0.1,157.3,-12.6,,,,,0.0,10.8,-0.8,34.2,0.0,217.0,0.1,-0.01,1.0,,-98.0,20.0,0.0,30.24,858.0,,,336.0,,,,,0.0,0.0,,,,,,,,,,,,,,,,,,,0.0,14.0,0.0,0.0,30.1,0.0,,0.0,0.0,,,25.3,0.0,0.0,-0.5,2.9,1.8,,,,,15.0,16.0,16.0,17.0,16.0,17.0,16.0,17.0,,,15.0,9.4,,0.0,21.0,4.998,,,0.93,0.828,0.0,14.3,,,,,,2026-02-28-N890GF-SN35347-17.4.0.23677-USER_LOG_DATA.csv,,,,,,,68.0,57.2,,,,,59.0,60.8,60.8,62.6,60.8,62.6,60.8,62.6,,,57.74,0.0,60.349999999999994,0.8875,0.8411764705882353,0.0,0.9276666666666666,419.0,True,2026-02-28 17:33:49 - Flight 14,
56.06,1.0,9.0,2026-02-28 17:34:41,37.0817,-121.5997,389.0,0.0,157.3,-12.6,,,,,0.0,10.8,-0.8,34.2,0.0,216.0,0.0,-0.01,1.0,,-101.0,20.0,0.0,30.24,858.0,,,336.0,,,,,0.0,0.0,,,,,,,,,,,,,,,,,,,0.0,14.0,0.0,0.0,30.1,0.0,,0.0,0.0,,,25.3,0.0,0.0,-0.5,2.9,1.8,,,,,15.0,16.0,16.0,17.0,16.0,16.0,16.0,17.0,,,15.0,7.5,,0.0,21.0,4.998,,,0.93,0.828,0.0,14.3,,,,,,2026-02-28-N890GF-SN35347-17.4.0.23677-USER_LOG_DATA.csv,,,,,,,68.0,57.2,,,,,59.0,60.8,60.8,62.6,60.8,60.8,60.8,62.6,,,57.74,0.0,60.349999999999994,0.8875,0.8411764705882353,0.0,1.012,419.0,True,2026-02-28 17:33:49 - Flight 14,
57.06,1.0,9.0,2026-02-28 17:34:42,37.0817,-121.5997,389.0,0.0,157.3,-12.6,0.14,C83,44.8,358.4,0.0,10.8,-0.9,34.1,0.0,215.0,0.0,-0.01,1.0,,-75.0,20.0,0.0,30.24,852.0,,,336.0,,,,346.0,0.0,0.0,5.0,3.0,,,,,,,,,,,,,,,,,0.0,14.0,0.0,0.0,30.1,0.0,,0.0,0.0,,,25.3,0.0,0.0,-0.5,2.9,1.8,,,,,15.0,16.0,16.0,17.0,16.0,16.0,16.0,17.0,,,14.0,6.1,,0.0,21.0,4.998,,,0.93,0.829,0.0,14.3,,,,,,2026-02-28-N890GF-SN35347-17.4.0.23677-USER_LOG_DATA.csv,,,,,,,68.0,57.2,,,,,59.0,60.8,60.8,62.6,60.8,60.8,60.8,62.6,,,57.74,0.0,60.349999999999994,0.8875,0.8411764705882353,0.0,1.012,419.0,True,2026-02-28 17:33:49 - Flight 14,
58.06,1.0,9.0,2026-02-28 17:34:43,37.0817,-121.5997,389.0,0.0,157.3,-12.6,0.14,C83,44.8,358.4,0.0,10.8,-0.9,34.0,0.0,215.0,0.0,-0.01,1.0,,-65.0,20.0,0.0,30.24,853.0,,,336.0,,,,346.0,0.0,0.0,5.0,3.0,,,,,,,,,,,,,,,,,0.0,14.0,0.0,0.0,30.1,0.0,,0.0,0.0,,,25.3,0.0,0.0,-0.5,2.9,1.8,,,,,15.0,16.0,16.0,17.0,16.0,16.0,16.0,17.0,,,13.0,4.9,,0.0,21.0,4.998,,,0.93,0.829,0.0,14.3,,,,,,2026-02-28-N890GF-SN35347-17.4.0.23677-USER_LOG_DATA.csv,,,,,,,68.0,57.2,,,,,59.0,60.8,60.8,62.6,60.8,60.8,60.8,62.6,,,57.74,0.0,60.349999999999994,0.8875,0.8411764705882353,0.0,1.012,419.0,True,2026-02-28 17:33:49 - Flight 14,
59.06,1.0,9.0,2026-02-28 17:34:44,37.0817,-121.5997,389.0,0.0,157.3,-12.6,0.14,C83,44.8,358.4,0.0,10.8,-0.9,34.0,0.0,213.0,0.0,-0.01,1.0,,-62.0,20.0,0.0,30.24,853.0,,,336.0,,,,346.0,0.0,0.0,5.0,3.0,,,,,,,,,,,,,,,,,0.0,14.0,0.0,0.0,30.1,0.0,,0.0,0.0,,,25.3,0.0,0.0,-0.5,2.9,1.8,,,,,15.0,16.0,16.0,17.0,16.0,16.0,16.0,17.0,,,14.0,4.0,,0.0,21.0,4.998,,,0.93,0.829,0.0,14.3,,,,,,2026-02-28-N890GF-SN35347-17.4.0.23677-USER_LOG_DATA.csv,,,,,,,68.0,57.2,,,,,59.0,60.8,60.8,62.6,60.8,60.8,60.8,62.6,,,57.74,0.0,60.349999999999994,0.8875,0.8411764705882353,0.0,1.012,419.0,True,2026-02-28 17:33:49 - Flight 14,
60.06,1.0,9.0,2026-02-28 17:34:45,37.0817,-121.5997,389.0,0.1,157.3,-12.6,0.14,C83,44.8,358.4,0.0,10.8,-0.9,34.0,0.0,213.0,0.1,-0.01,1.0,,-23.0,20.0,0.0,30.24,853.0,,,336.0,,,,346.0,0.0,0.0,5.0,3.0,,,,,,,,,,,,,,,,,0.0,14.0,0.0,0.0,30.1,0.0,,0.0,0.0,,,25.3,0.0,0.0,-0.5,2.9,1.8,,,,,15.0,16.0,16.0,17.0,16.0,16.0,16.0,17.0,,,13.0,3.4,,0.0,21.0,4.998,,,0.93,0.829,0.0,14.3,,,,,,2026-02-28-N890GF-SN35347-17.4.0.23677-USER_LOG_DATA.csv,,,,,,,68.0,57.2,,,,,59.0,60.8,60.8,62.6,60.8,60.8,60.8,62.6,,,57.74,0.0,60.349999999999994,0.8875,0.8411764705882353,0.0,1.0963333333333334,419.0,True,2026-02-28 17:33:49 - Flight 14,
61.06,1.0,9.0,2026-02-28 17:34:46,37.0817,-121.5997,389.0,0.0,157.3,-12.6,0.14,C83,44.8,358.4,0.0,10.8,-0.9,34.0,0.0,213.0,0.1,-0.01,1.0,,2.0,20.0,0.0,30.24,861.0,,,336.0,,,,346.0,0.0,0.0,5.0,3.0,,,,,,,,,,,,,,,,,0.0,14.0,0.0,0.0,30.1,0.0,,0.0,0.0,,,25.3,0.0,0.0,-0.5,2.9,1.8,,,,,15.0,16.0,16.0,17.0,16.0,16.0,16.0,17.0,,,14.0,2.8,,0.0,21.0,4.998,,,0.93,0.829,0.0,14.3,,,,,,2026-02-28-N890GF-SN35347-17.4.0.23677-USER_LOG_DATA.csv,,,,,,,68.0,57.2,,,,,59.0,60.8,60.8,62.6,60.8,60.8,60.8,62.6,,,57.74,0.0,60.349999999999994,0.8875,0.8411764705882353,0.0,1.1806666666666668,419.0,True,2026-02-28 17:33:49 - Flight 14,
62.06,1.0,9.0,2026-02-28 17:34:47,37.0817,-121.5997,388.0,0.0,157.3,-12.6,0.14,C83,44.8,358.4,0.0,10.8,-0.8,34.0,0.0,213.0,0.1,-0.01,1.0,,2.0,20.0,0.0,30.24,861.0,,,336.0,,,,346.0,0.0,0.0,5.0,3.0,,,,,,,,,,,,,,,,,0.0,14.0,0.0,0.0,30.1,0.0,,0.0,0.0,,,25.3,0.0,0.0,-0.5,2.9,1.8,,,,,15.0,16.0,16.0,17.0,16.0,16.0,16.0,17.0,,,14.0,2.4,,0.0,21.0,4.998,,,0.93,0.829,0.0,14.3,,,,,,2026-02-28-N890GF-SN35347-17.4.0.23677-USER_LOG_DATA.csv,,,,,,,68.0,57.2,,,,,59.0,60.8,60.8,62.6,60.8,60.8,60.8,62.6,,,57.74,0.0,60.349999999999994,0.8875,0.8411764705882353,0.0,1.1806666666666668,419.0,True,2026-02-28 17:33:49 - Flight 14,
63.06,1.0,9.0,2026-02-28 17:34:48,37.0817,-121.5997,388.0,0.0,157.3,-12.6,0.14,C83,44.8,358.4,0.0,10.8,-0.8,34.0,0.0,213.0,0.1,-0.01,1.0,,23.0,20.0,0.0,30.24,862.0,,,336.0,,,,346.0,0.0,0.0,5.0,3.0,,,,,,,,,,,,,,,,,0.0,14.0,0.0,0.0,30.1,0.0,,0.0,0.0,,,25.3,0.0,0.0,-0.5,2.9,1.8,,,,,15.0,16.0,16.0,17.0,16.0,16.0,16.0,17.0,,,13.0,2.1,,0.0,21.0,4.998,,,0.93,0.829,0.0,14.3,,,,,,2026-02-28-N890GF-SN35347-17.4.0.23677-USER_LOG_DATA.csv,,,,,,,68.0,57.2,,,,,59.0,60.8,60.8,62.6,60.8,60.8,60.8,62.6,,,57.74,0.0,60.349999999999994,0.8875,0.8411764705882353,0.0,1.1806666666666668,419.0,True,2026-02-28 17:33:49 - Flight 14,
64.06,2.0,9.0,2026-02-28 17:34:49,37.08172,-121.59969,386.0,0.0,157.3,-12.6,0.14,C83,44.8,358.4,0.0,10.8,-0.9,34.1,0.0,213.0,0.1,-0.01,1.0,,-23.0,20.0,0.0,30.24,862.0,,,336.0,,,,346.0,0.0,0.0,5.0,3.0,,,,,,,,,,,,,,,,,0.0,14.0,0.0,0.0,30.1,0.0,,0.0,0.0,,,25.3,0.0,0.0,-0.5,2.9,1.8,,,,,15.0,16.0,16.0,17.0,16.0,16.0,16.0,17.0,,,16.0,1.8,,0.0,21.0,4.998,,,0.93,0.83,0.0,14.3,,,,,,2026-02-28-N890GF-SN35347-17.4.0.23677-USER_LOG_DATA.csv,,,,,,,68.0,57.2,,,,,59.0,60.8,60.8,62.6,60.8,60.8,60.8,62.6,,,57.74,0.0,60.349999999999994,0.8875,0.8411764705882353,0.0,1.1806666666666668,419.0,True,2026-02-28 17:33:49 - Flight 14,
65.06,2.0,9.0,2026-02-28 17:34:50,37.08172,-121.59969,386.0,0.0,157.3,-12.6,0.14,C83,44.8,358.4,0.0,10.8,-0.9,34.0,0.0,213.0,0.0,-0.01,1.0,,-37.0,20.0,0.0,30.24,862.0,,,336.0,,,,346.0,0.0,0.0,5.0,3.0,,,,,,,,,,,,,,,,,0.0,14.0,0.0,0.0,30.1,0.0,,0.0,0.0,,,25.3,0.0,0.0,-0.5,2.9,1.8,,,,,15.0,16.0,16.0,17.0,16.0,17.0,16.0,17.0,,,16.0,1.7,,0.0,21.0,4.998,,,0.93,0.83,0.0,14.3,,,,,,2026-02-28-N890GF-SN35347-17.4.0.23677-USER_LOG_DATA.csv,,,,,,,68.0,57.2,,,,,59.0,60.8,60.8,62.6,60.8,62.6,60.8,62.6,,,57.74,0.0,60.349999999999994,0.8875,0.8411764705882353,0.0,1.1806666666666668,419.0,True,2026-02-28 17:33:49 - Flight 14,
66.06,2.0,9.0,2026-02-28 17:34:51,37.08172,-121.59969,386.0,0.0,157.3,-12.6,0.14,C83,44.8,358.4,0.0,10.8,-0.9,34.0,0.0,213.0,0.0,-0.01,1.0,,-23.0,20.0,0.0,30.24,872.0,,,336.0,,,,346.0,0.0,0.0,5.0,3.0,,,,,,,,,,,,,,,,,0.0,14.0,0.0,0.0,30.1,0.0,,0.0,0.0,,,25.3,0.0,0.0,-0.5,2.9,1.8,,,,,15.0,16.0,16.0,17.0,16.0,17.0,16.0,17.0,,,16.0,1.5,,0.0,21.0,4.998,,,0.93,0.83,0.0,14.3,,,,,,2026-02-28-N890GF-SN35347-17.4.0.23677-USER_LOG_DATA.csv,,,,,,,68.0,57.2,,,,,59.0,60.8,60.8,62.6,60.8,62.6,60.8,62.6,,,57.74,0.0,60.349999999999994,0.8875,0.8411764705882353,0.0,1.1806666666666668,419.0,True,2026-02-28 17:33:49 - Flight 14,
67.06,2.0,9.0,2026-02-28 17:34:52,37.08172,-121.59969,385.0,0.0,157.3,-12.6,0.14,C83,44.8,358.4,0.0,10.9,-0.9,34.0,0.0,213.0,0.0,-0.01,1.0,,-7.0,20.0,0.0,30.24,872.0,,,336.0,,,,346.0,0.0,0.0,5.0,3.0,,,,,,,,,,,,,,,,,0.0,14.0,0.0,0.0,30.1,0.0,,0.0,0.0,,,25.3,0.0,0.0,-0.5,2.9,1.8,,,,,15.0,16.0,16.0,17.0,16.0,17.0,16.0,17.0,,,16.0,1.4,,0.0,21.0,4.998,,,0.93,0.83,0.0,14.3,,,,,,2026-02-28-N890GF-SN35347-17.4.0.23677-USER_LOG_DATA.csv,,,,,,,68.0,57.2,,,,,59.0,60.8,60.8,62.6,60.8,62.6,60.8,62.6,,,57.74,0.0,60.349999999999994,0.8875,0.8411764705882353,0.0,1.1806666666666668,419.0,True,2026-02-28 17:33:49 - Flight 14,
68.06,2.0,9.0,2026-02-28 17:34:53,37.08172,-121.59969,385.0,0.0,157.3,-12.6,0.14,C83,44.8,358.4,0.0,10.8,-0.9,34.0,0.0,213.0,0.1,-0.01,1.0,,-7.0,20.0,0.0,30.2,872.0,,,336.0,,,,346.0,0.0,0.0,5.0,3.0,,,,,,,,,,,,,,,,,0.0,14.0,0.0,0.0,30.1,0.0,,0.0,0.0,,,25.3,0.0,0.0,-0.5,2.9,1.8,,,,,15.0,16.0,16.0,17.0,16.0,17.0,16.0,17.0,,,15.0,1.3,,0.0,21.0,4.998,,,0.93,0.83,0.0,14.3,,,,,,2026-02-28-N890GF-SN35347-17.4.0.23677-USER_LOG_DATA.csv,,,,,,,68.0,57.2,,,,,59.0,60.8,60.8,62.6,60.8,62.6,60.8,62.6,,,57.74,0.0,60.349999999999994,0.8875,0.8411764705882353,0.0,1.1806666666666668,419.0,True,2026-02-28 17:33:49 - Flight 14,
69.06,2.0,9.0,2026-02-28 17:34:54,37.08172,-121.59969,385.0,0.0,157.3,-12.6,0.14,C83,44.8,358.4,0.0,10.8,-0.9,34.0,0.0,213.0,0.1,-0.01,1.0,,35.0,20.0,0.0,30.11,872.0,,,336.0,,,,346.0,0.0,0.0,5.0,3.0,,,,,,,,,,,,,,,,,0.0,14.0,0.0,0.0,30.1,0.0,,0.0,0.0,,,25.3,0.0,0.0,-0.5,2.9,1.8,,,,,15.0,16.0,16.0,17.0,16.0,17.0,16.0,17.0,,,14.0,1.2,,0.0,21.0,4.998,,,0.93,0.83,0.0,14.4,,,,,,2026-02-28-N890GF-SN35347-17.4.0.23677-USER_LOG_DATA.csv,,,,,,,68.0,57.2,,,,,59.0,60.8,60.8,62.6,60.8,62.6,60.8,62.6,,,57.92,0.0,60.349999999999994,0.8875,0.8411764705882353,0.0,1.1806666666666668,419.0,True,2026-02-28 17:33:49 - Flight 14,
70.06,2.0,9.0,2026-02-28 17:34:55,37.08172,-121.59969,385.0,0.0,157.3,-12.6,0.14,C83,44.8,358.4,0.0,10.9,-0.9,34.0,0.0,213.0,0.0,-0.01,1.0,,38.0,20.0,0.0,29.93,872.0,,,336.0,,,,346.0,0.0,0.0,5.0,3.0,,,,,,,,,,,,,,,,,0.0,14.0,0.0,0.0,30.1,0.0,,0.0,0.0,,,25.3,0.0,0.0,-0.5,2.9,1.8,,,,,15.0,16.0,16.0,17.0,16.0,17.0,16.0,17.0,,,13.0,1.2,,0.0,21.0,4.998,,,0.93,0.83,0.0,14.3,,,,,,2026-02-28-N890GF-SN35347-17.4.0.23677-USER_LOG_DATA.csv,,,,,,,68.0,57.2,,,,,59.0,60.8,60.8,62.6,60.8,62.6,60.8,62.6,,,57.74,0.0,60.349999999999994,0.8875,0.8411764705882353,0.0,1.1806666666666668,419.0,True,2026-02-28 17:33:49 - Flight 14,
71.06,2.0,9.0,2026-02-28 17:34:56,37.08172,-121.59969,384.0,0.1,157.3,-12.6,0.14,C83,44.8,358.4,0.0,10.9,-0.9,34.0,0.0,213.0,0.0,-0.01,1.0,,51.0,20.0,0.0,29.95,873.0,,,336.0,,,,346.0,0.0,0.0,5.0,3.0,,,,,,,,,,,,,,,,,0.0,14.0,0.0,0.0,30.1,0.0,,0.0,0.0,,,25.3,0.0,0.0,-0.5,2.9,1.8,,,,,15.0,16.0,16.0,17.0,16.0,17.0,16.0,17.0,,,12.0,1.1,,0.0,21.0,4.998,,,0.93,0.83,0.0,14.4,,,,,,2026-02-28-N890GF-SN35347-17.4.0.23677-USER_LOG_DATA.csv,,,,,,,68.0,57.2,,,,,59.0,60.8,60.8,62.6,60.8,62.6,60.8,62.6,,,57.92,0.0,60.349999999999994,0.8875,0.8411764705882353,0.0,1.2650000000000001,419.0,True,2026-02-28 17:33:49 - Flight 14,
72.06,2.0,9.0,2026-02-28 17:34:57,37.08172,-121.59969,384.0,0.0,157.3,-12.6,0.14,C83,44.8,358.4,0.0,10.8,-0.8,34.0,0.0,213.0,0.1,-0.01,1.0,,48.0,20.0,0.0,29.98,873.0,,,336.0,,,,346.0,0.0,0.0,5.0,3.0,,,,,,,,,,,,,,,,,0.0,14.0,0.0,0.0,30.1,0.0,,0.0,0.0,,,25.3,0.0,0.0,-0.5,2.9,1.8,,,,,15.0,16.0,16.0,17.0,16.0,17.0,16.0,17.0,,,13.0,1.1,,0.0,21.0,4.998,,,0.93,0.83,0.0,14.3,,,,,,2026-02-28-N890GF-SN35347-17.4.0.23677-USER_LOG_DATA.csv,,,,,,,68.0,57.2,,,,,59.0,60.8,60.8,62.6,60.8,62.6,60.8,62.6,,,57.74,0.0,60.349999999999994,0.8875,0.8411764705882353,0.0,1.3493333333333333,419.0,True,2026-02-28 17:33:49 - Flight 14,
73.06,2.0,9.0,2026-02-28 17:34:58,37.08172,-121.5997,385.0,0.0,157.3,-12.6,0.14,C83,44.8,358.4,0.0,10.9,-0.8,34.0,0.0,213.0,0.1,-0.01,1.0,,8.0,20.0,0.0,29.99,873.0,,,336.0,,,,346.0,0.0,0.0,5.0,3.0,,,,,,,,,,,,,,,,,0.0,14.0,0.0,0.0,30.1,0.0,,0.0,0.0,,,25.3,0.0,0.0,-0.5,2.9,1.8,,,,,15.0,16.0,16.0,17.0,16.0,17.0,16.0,17.0,,,12.0,1.1,,0.0,21.0,4.998,,,0.93,0.83,0.0,14.4,,,,,,2026-02-28-N890GF-SN35347-17.4.0.23677-USER_LOG_DATA.csv,,,,,,,68.0,57.2,,,,,59.0,60.8,60.8,62.6,60.8,62.6,60.8,62.6,,,57.92,0.0,60.349999999999994,0.8875,0.8411764705882353,0.0,1.3493333333333333,419.0,True,2026-02-28 17:33:49 - Flight 14,
74.06,2.0,9.0,2026-02-28 17:34:59,37.08172,-121.5997,385.0,0.0,157.3,-12.6,0.14,C83,44.8,358.4,0.0,10.8,-0.8,34.1,0.0,213.0,0.1,-0.01,1.0,,13.0,20.0,0.0,29.99,882.0,,,336.0,,,,346.0,0.0,0.0,5.0,3.0,,,,,,,,,,,,,,,,,0.0,14.0,0.0,0.0,30.1,0.0,,0.0,0.0,,,25.3,0.0,0.0,-0.5,2.9,1.8,,,,,15.0,16.0,16.0,17.0,16.0,17.0,16.0,17.0,,,11.0,1.0,,0.0,21.0,4.998,,,0.93,0.83,0.0,14.4,,,,,,2026-02-28-N890GF-SN35347-17.4.0.23677-USER_LOG_DATA.csv,,,,,,,68.0,57.2,,,,,59.0,60.8,60.8,62.6,60.8,62.6,60.8,62.6,,,57.92,0.0,60.349999999999994,0.8875,0.8411764705882353,0.0,1.3493333333333333,419.0,True,2026-02-28 17:33:49 - Flight 14,
75.06,2.0,9.0,2026-02-28 17:35:00,37.08171,-121.5997,389.0,0.0,157.3,-12.6,0.14,C83,44.8,358.4,0.0,10.8,-0.8,34.1,0.0,213.0,0.0,-0.01,1.0,,-18.0,20.0,0.0,29.99,882.0,,,336.0,,,,346.0,0.0,0.0,5.0,3.0,,,,,,,,,,,,,,,,,0.0,14.0,0.0,0.0,30.1,0.0,,0.0,0.0,,,25.3,0.0,0.0,-0.5,2.9,1.8,,,,,15.0,16.0,16.0,17.0,16.0,17.0,16.0,17.0,,,11.0,1.0,,0.0,21.0,4.998,,,0.93,0.83,0.0,14.4,,,,,,2026-02-28-N890GF-SN35347-17.4.0.23677-USER_LOG_DATA.csv,,,,,,,68.0,57.2,,,,,59.0,60.8,60.8,62.6,60.8,62.6,60.8,62.6,,,57.92,0.0,60.349999999999994,0.8875,0.8411764705882353,0.0,1.3493333333333333,419.0,True,2026-02-28 17:33:49 - Flight 14,
76.06,2.0,9.0,2026-02-28 17:35:01,37.08171,-121.5997,389.0,0.0,157.3,-12.6,0.14,C83,44.8,358.4,0.0,10.8,-0.8,34.1,0.0,213.0,0.0,-0.01,1.0,,-20.0,20.0,0.0,29.99,882.0,,,336.0,,,,346.0,0.0,0.0,5.0,3.0,,,,,,,,,,,,,,,,,0.0,14.0,0.0,0.0,30.1,0.0,,0.0,0.0,,,25.3,0.0,0.0,-0.5,2.9,1.8,,,,,15.0,16.0,16.0,17.0,16.0,17.0,16.0,17.0,,,11.0,1.0,,0.0,21.0,4.998,,,0.93,0.83,0.0,14.4,,,,,,2026-02-28-N890GF-SN35347-17.4.0.23677-USER_LOG_DATA.csv,,,,,,,68.0,57.2,,,,,59.0,60.8,60.8,62.6,60.8,62.6,60.8,62.6,,,57.92,0.0,60.349999999999994,0.8875,0.8411764705882353,0.0,1.3493333333333333,419.0,True,2026-02-28 17:33:49 - Flight 14,
77.06,2.0,9.0,2026-02-28 17:35:02,37.08171,-121.5997,389.0,0.1,157.3,-12.6,0.14,C83,44.8,358.4,0.0,10.8,-0.9,34.1,0.0,213.0,0.0,-0.01,1.0,,-11.0,20.0,0.0,29.99,882.0,,,336.0,,,,346.0,0.0,0.0,5.0,3.0,,,,,,,,,,,,,,,,,0.0,14.0,0.0,0.0,30.1,0.0,,0.0,0.0,,,25.3,0.0,0.0,-0.5,2.9,1.8,,,,,15.0,16.0,16.0,17.0,16.0,17.0,16.0,17.0,,,12.0,1.0,,0.0,21.0,4.998,,,0.93,0.83,0.0,14.4,,,,,,2026-02-28-N890GF-SN35347-17.4.0.23677-USER_LOG_DATA.csv,,,,,,,68.0,57.2,,,,,59.0,60.8,60.8,62.6,60.8,62.6,60.8,62.6,,,57.92,0.0,60.349999999999994,0.8875,0.8411764705882353,0.0,1.4336666666666666,419.0,True,2026-02-28 17:33:49 - Flight 14,
78.06,2.0,9.0,2026-02-28 17:35:03,37.08171,-121.5997,389.0,0.0,157.3,-12.6,0.14,C83,44.8,358.4,0.0,10.8,-0.9,34.0,0.0,213.0,0.0,-0.01,1.0,,-21.0,20.0,0.0,29.99,882.0,,,336.0,,,,346.0,0.0,0.0,5.0,3.0,,,,,,,,,,,,,,,,,0.0,14.0,0.0,0.0,30.1,0.0,,0.0,0.0,,,25.3,0.0,0.0,-0.5,2.9,1.8,,,,,15.0,16.0,16.0,17.0,16.0,17.0,16.0,17.0,,,12.0,1.0,,0.0,21.0,4.998,,,0.93,0.83,0.0,14.4,,,,,,2026-02-28-N890GF-SN35347-17.4.0.23677-USER_LOG_DATA.csv,,,,,,,68.0,57.2,,,,,59.0,60.8,60.8,62.6,60.8,62.6,60.8,62.6,,,57.92,0.0,60.349999999999994,0.8875,0.8411764705882353,0.0,1.518,419.0,True,2026-02-28 17:33:49 - Flight 14,
79.06,2.0,9.0,2026-02-28 17:35:04,37.08171,-121.5997,387.0,0.1,157.3,-12.6,0.14,C83,44.8,358.4,0.0,10.9,-0.9,34.0,0.0,213.0,0.0,-0.01,1.0,,-12.0,20.0,0.0,29.99,882.0,,,336.0,,,,346.0,0.0,0.0,5.0,3.0,,,,,,,,,,,,,,,,,0.0,14.0,0.0,0.0,30.1,0.0,,0.0,0.0,,,25.3,0.0,0.0,-0.5,2.9,1.8,,,,,15.0,17.0,16.0,17.0,16.0,17.0,16.0,17.0,,,13.0,1.0,,0.0,21.0,4.998,,,0.93,0.831,0.0,14.4,,,,,,2026-02-28-N890GF-SN35347-17.4.0.23677-USER_LOG_DATA.csv,,,,,,,68.0,57.2,,,,,59.0,62.6,60.8,62.6,60.8,62.6,60.8,62.6,,,57.92,0.0,60.349999999999994,0.8875,0.8411764705882353,0.0,1.6023333333333334,419.0,True,2026-02-28 17:33:49 - Flight 14,
80.06,2.0,9.0,2026-02-28 17:35:05,37.08171,-121.5997,387.0,0.0,157.3,-12.6,0.14,C83,44.8,358.4,0.0,10.9,-0.9,34.0,0.0,213.0,0.0,-0.01,1.0,,-44.0,20.0,0.0,29.99,883.0,,,336.0,,,,346.0,0.0,0.0,5.0,3.0,,,,,,,,,,,,,,,,,0.0,14.0,0.0,0.0,30.1,0.0,,0.0,0.0,,,25.3,0.0,0.0,-0.5,2.9,1.8,,,,,15.0,17.0,16.0,17.0,16.0,17.0,16.0,17.0,,,12.0,1.0,,0.0,21.0,4.998,,,0.93,0.83,0.0,14.4,,,,,,2026-02-28-N890GF-SN35347-17.4.0.23677-USER_LOG_DATA.csv,,,,,,,68.0,57.2,,,,,59.0,62.6,60.8,62.6,60.8,62.6,60.8,62.6,,,57.92,0.0,60.349999999999994,0.8875,0.8411764705882353,0.0,1.6866666666666668,419.0,True,2026-02-28 17:33:49 - Flight 14,
81.06,2.0,9.0,2026-02-28 17:35:06,37.08171,-121.5997,387.0,0.0,157.3,-12.6,0.14,C83,44.8,358.4,0.0,10.9,-0.9,33.9,0.0,213.0,0.0,-0.01,1.0,,-84.0,20.0,0.0,29.99,883.0,,,336.0,,,,346.0,0.0,0.0,5.0,3.0,,,,,,,,,,,,,,,,,0.0,14.0,0.0,0.0,30.1,0.0,,0.0,0.0,,,25.3,0.0,0.0,-0.5,2.9,1.8,,,,,15.0,17.0,16.0,17.0,16.0,17.0,16.0,17.0,,,12.0,1.0,,0.0,21.0,4.998,,,0.93,0.831,0.0,14.4,,,,,,2026-02-28-N890GF-SN35347-17.4.0.23677-USER_LOG_DATA.csv,,,,,,,68.0,57.2,,,,,59.0,62.6,60.8,62.6,60.8,62.6,60.8,62.6,,,57.92,0.0,60.349999999999994,0.8875,0.8411764705882353,0.0,1.6866666666666668,419.0,True,2026-02-28 17:33:49 - Flight 14,
82.06,2.0,9.0,2026-02-28 17:35:07,37.08171,-121.5997,386.0,0.1,157.3,-12.6,0.14,C83,44.8,358.4,0.0,10.9,-0.9,33.9,0.0,212.0,0.0,-0.01,1.0,,-67.0,20.0,0.0,29.99,883.0,,,336.0,,,,346.0,0.0,0.0,5.0,3.0,,,,,,,,,,,,,,,,,0.0,14.0,0.0,0.0,30.1,0.0,,0.0,0.0,,,25.3,0.0,0.0,-0.5,2.9,1.8,,,,,15.0,17.0,16.0,17.0,16.0,17.0,16.0,17.0,,,11.0,1.0,,0.0,21.0,4.998,,,0.93,0.83,0.0,14.4,,,,,,2026-02-28-N890GF-SN35347-17.4.0.23677-USER_LOG_DATA.csv,,,,,,,68.0,57.2,,,,,59.0,62.6,60.8,62.6,60.8,62.6,60.8,62.6,,,57.92,0.0,60.349999999999994,0.8875,0.8411764705882353,0.0,1.771,419.0,True,2026-02-28 17:33:49 - Flight 14,
83.06,2.0,9.0,2026-02-28 17:35:08,37.08171,-121.5997,386.0,0.0,157.3,-12.6,0.14,C83,44.8,358.4,0.0,10.9,-0.9,33.9,0.0,211.0,0.0,-0.01,1.0,,-100.0,20.0,0.0,29.99,892.0,,,336.0,,,,346.0,0.0,0.0,5.0,3.0,,,,,,,,,,,,,,,,,0.0,14.0,0.0,0.0,30.1,0.0,,0.0,0.0,,,25.3,0.0,0.0,-0.5,2.9,1.8,,,,,15.0,16.0,16.0,17.0,16.0,17.0,16.0,17.0,,,11.0,1.0,,0.0,21.0,4.998,,,0.93,0.83,0.0,14.4,,,,,,2026-02-28-N890GF-SN35347-17.4.0.23677-USER_LOG_DATA.csv,,,,,,,68.0,57.2,,,,,59.0,60.8,60.8,62.6,60.8,62.6,60.8,62.6,,,57.92,0.0,60.349999999999994,0.8875,0.8411764705882353,0.0,1.8553333333333333,419.0,True,2026-02-28 17:33:49 - Flight 14,
84.06,2.0,9.0,2026-02-28 17:35:09,37.08171,-121.5997,386.0,0.0,157.3,-12.6,0.14,C83,44.8,358.4,0.0,10.9,-0.9,34.0,0.0,210.0,0.0,-0.01,1.0,,-80.0,20.0,0.0,29.99,892.0,,,336.0,,,,346.0,0.0,0.0,5.0,3.0,,,,,,,,,,,,,,,,,0.0,14.0,0.0,0.0,30.1,0.0,,0.0,0.0,,,25.3,0.0,0.0,-0.5,2.9,1.8,,,,,15.0,16.0,16.0,17.0,16.0,17.0,16.0,17.0,,,11.0,1.0,,0.0,21.0,4.998,,,0.93,0.831,0.0,14.4,,,,,,2026-02-28-N890GF-SN35347-17.4.0.23677-USER_LOG_DATA.csv,,,,,,,68.0,57.2,,,,,59.0,60.8,60.8,62.6,60.8,62.6,60.8,62.6,,,57.92,0.0,60.349999999999994,0.8875,0.8411764705882353,0.0,1.8553333333333333,419.0,True,2026-02-28 17:33:49 - Flight 14,
85.06,2.0,9.0,2026-02-28 17:35:10,37.08171,-121.5997,387.0,0.1,157.3,-12.6,0.14,C83,44.8,358.4,0.0,10.9,-0.9,34.0,0.0,209.0,0.0,-0.01,1.0,,-69.0,20.0,0.0,29.99,892.0,,,336.0,,,,346.0,0.0,0.0,5.0,3.0,,,,,,,,,,,,,,,,,0.0,14.0,0.0,0.0,30.1,0.0,,0.0,0.0,,,25.3,0.0,0.0,-0.5,2.9,1.8,,,,,15.0,16.0,16.0,17.0,16.0,17.0,16.0,17.0,,,10.0,1.0,,0.0,21.0,4.998,,,0.93,0.831,0.0,14.4,,,,,,2026-02-28-N890GF-SN35347-17.4.0.23677-USER_LOG_DATA.csv,,,,,,,68.0,57.2,,,,,59.0,60.8,60.8,62.6,60.8,62.6,60.8,62.6,,,57.92,0.0,60.349999999999994,0.8875,0.8411764705882353,0.0,1.9396666666666667,419.0,True,2026-02-28 17:33:49 - Flight 14,
86.06,2.0,9.0,2026-02-28 17:35:11,37.08171,-121.5997,387.0,0.1,157.3,-12.6,0.14,C83,44.8,358.4,0.0,10.9,-0.8,34.0,0.0,209.0,0.1,-0.01,1.0,,-56.0,20.0,0.0,29.99,888.0,,,336.0,,,,346.0,0.0,0.0,5.0,3.0,,,,,,,,,,,,,,,,,0.0,14.0,0.0,0.0,30.1,0.0,,0.0,0.0,,,25.3,0.0,0.0,-0.5,2.9,1.8,,,,,15.0,16.0,16.0,17.0,16.0,17.0,16.0,17.0,,,10.0,0.0,,0.0,21.0,4.998,,,0.93,0.831,0.0,14.4,,,,,,2026-02-28-N890GF-SN35347-17.4.0.23677-USER_LOG_DATA.csv,,,,,,,68.0,57.2,,,,,59.0,60.8,60.8,62.6,60.8,62.6,60.8,62.6,,,57.92,0.0,60.349999999999994,0.8875,0.8411764705882353,0.0,2.1083333333333334,419.0,True,2026-02-28 17:33:49 - Flight 14,
87.06,2.0,9.0,2026-02-28 17:35:12,37.08168,-121.59972,404.0,0.0,157.3,-12.6,0.14,C83,44.8,358.4,0.0,10.9,-0.8,34.0,0.0,209.0,0.1,-0.01,1.0,,-25.0,20.0,0.0,29.99,888.0,,,336.0,,,,346.0,0.0,0.0,5.0,3.0,,,,,,,,,,,,,,,,,0.0,14.0,0.0,0.0,30.1,0.0,,0.0,0.0,,,25.3,0.0,0.0,-0.5,2.9,1.8,,,,,15.0,16.0,16.0,17.0,16.0,17.0,16.0,17.0,,,9.0,0.0,,0.0,21.0,4.998,,,0.93,0.831,0.0,14.4,,,,,,2026-02-28-N890GF-SN35347-17.4.0.23677-USER_LOG_DATA.csv,,,,,,,68.0,57.2,,,,,59.0,60.8,60.8,62.6,60.8,62.6,60.8,62.6,,,57.92,0.0,60.349999999999994,0.8875,0.8411764705882353,0.0,2.1926666666666668,419.0,True,2026-02-28 17:33:49 - Flight 14,
88.06,2.0,9.0,2026-02-28 17:35:13,37.08168,-121.59972,404.0,0.0,157.3,-12.6,0.14,C83,44.8,358.4,0.0,10.9,-0.9,34.0,0.0,209.0,0.1,-0.01,1.0,,-6.0,20.0,0.0,29.99,889.0,,,336.0,,,,346.0,0.0,0.0,5.0,3.0,,,,,,,,,,,,,,,,,0.0,14.0,0.0,0.0,30.1,0.0,,0.0,0.0,,,25.3,0.0,0.0,-0.5,2.9,1.8,,,,,15.0,16.0,16.0,17.0,16.0,17.0,16.0,17.0,,,9.0,0.0,,0.0,21.0,4.998,,,0.93,0.831,0.0,14.4,,,,,,2026-02-28-N890GF-SN35347-17.4.0.23677-USER_LOG_DATA.csv,,,,,,,68.0,57.2,,,,,59.0,60.8,60.8,62.6,60.8,62.6,60.8,62.6,,,57.92,0.0,60.349999999999994,0.8875,0.8411764705882353,0.0,2.1926666666666668,419.0,True,2026-02-28 17:33:49 - Flight 14,
89.06,2.0,9.0,2026-02-28 17:35:14,37.08168,-121.59972,404.0,0.0,157.3,-12.6,0.14,C83,44.8,358.4,0.0,10.9,-0.9,33.9,0.0,209.0,0.0,-0.01,1.0,,10.0,20.0,0.0,29.99,889.0,,,336.0,,,,346.0,0.0,0.0,5.0,3.0,,,,,,,,,,,,,,,,,0.0,14.0,0.0,0.0,30.1,0.0,,0.0,0.0,,,25.3,0.0,0.0,-0.5,2.9,1.8,,,,,15.0,16.0,16.0,17.0,16.0,17.0,16.0,17.0,,,11.0,0.0,,0.0,21.0,4.998,,,0.93,0.831,0.0,14.4,,,,,,2026-02-28-N890GF-SN35347-17.4.0.23677-USER_LOG_DATA.csv,,,,,,,68.0,57.2,,,,,59.0,60.8,60.8,62.6,60.8,62.6,60.8,62.6,,,57.92,0.0,60.349999999999994,0.8875,0.8411764705882353,0.0,2.1926666666666668,419.0,True,2026-02-28 17:33:49 - Flight 14,
90.06,2.0,9.0,2026-02-28 17:35:15,37.08168,-121.59972,405.0,0.1,157.3,-12.6,0.14,C83,44.8,358.4,0.0,10.9,-0.9,33.9,0.0,209.0,0.0,-0.01,1.0,,0.0,20.0,0.0,29.99,889.0,,,336.0,,,,346.0,0.0,0.0,5.0,3.0,,,,,,,,,,,,,,,,,0.0,14.0,0.0,0.0,30.1,0.0,,0.0,0.0,,,25.3,0.0,0.0,-0.5,2.9,1.8,,,,,15.0,16.0,16.0,17.0,16.0,17.0,16.0,17.0,,,10.0,0.0,,0.0,21.0,4.998,,,0.93,0.833,0.0,14.4,,,,,,2026-02-28-N890GF-SN35347-17.4.0.23677-USER_LOG_DATA.csv,,,,,,,68.0,57.2,,,,,59.0,60.8,60.8,62.6,60.8,62.6,60.8,62.6,,,57.92,0.0,60.349999999999994,0.8875,0.8411764705882353,0.0,2.277,419.0,True,2026-02-28 17:33:49 - Flight 14,
91.06,2.0,9.0,2026-02-28 17:35:16,37.08168,-121.59971,404.0,0.1,157.3,-12.6,0.14,C83,44.8,358.4,0.0,10.9,-0.9,33.9,0.0,209.0,0.0,-0.01,1.0,,-14.0,20.0,0.0,29.99,898.0,,,336.0,,,,346.0,0.0,0.0,5.0,3.0,,,,,,,,,,,,,,,,,0.0,14.0,0.0,0.0,30.1,0.0,,0.0,0.0,,,25.3,0.0,0.0,-0.5,2.9,1.8,,,,,15.0,16.0,16.0,17.0,16.0,17.0,16.0,17.0,,,10.0,0.0,,0.0,21.0,4.998,,,0.93,0.833,0.0,14.4,,,,,,2026-02-28-N890GF-SN35347-17.4.0.23677-USER_LOG_DATA.csv,,,,,,,68.0,57.2,,,,,59.0,60.8,60.8,62.6,60.8,62.6,60.8,62.6,,,57.92,0.0,60.349999999999994,0.8875,0.8411764705882353,0.0,2.4456666666666664,419.0,True,2026-02-28 17:33:49 - Flight 14,
92.06,2.0,9.0,2026-02-28 17:35:17,37.08168,-121.59972,404.0,0.0,157.3,-12.6,0.14,C83,44.8,358.4,0.0,10.9,-0.9,33.9,0.0,209.0,0.1,-0.01,1.0,,14.0,20.0,0.0,29.99,898.0,,,336.0,,,,346.0,0.0,0.0,5.0,3.0,,,,,,,,,,,,,,,,,0.0,14.0,0.0,0.0,30.1,0.0,,0.0,0.0,,,25.3,0.0,0.0,-0.5,2.9,1.8,,,,,15.0,16.0,16.0,17.0,16.0,17.0,16.0,17.0,,,10.0,0.0,,0.0,21.0,4.998,,,0.93,0.833,0.0,14.4,,,,,,2026-02-28-N890GF-SN35347-17.4.0.23677-USER_LOG_DATA.csv,,,,,,,68.0,57.2,,,,,59.0,60.8,60.8,62.6,60.8,62.6,60.8,62.6,,,57.92,0.0,60.349999999999994,0.8875,0.8411764705882353,0.0,2.53,419.0,True,2026-02-28 17:33:49 - Flight 14,
93.06,2.0,9.0,2026-02-28 17:35:18,37.08168,-121.59972,404.0,0.0,157.3,-12.6,0.14,C83,44.8,358.4,0.0,10.9,-0.9,33.9,0.0,209.0,0.0,-0.01,1.0,,-9.0,20.0,0.0,29.99,898.0,,,336.0,,,,346.0,0.0,0.0,5.0,3.0,,,,,,,,,,,,,,,,,0.0,14.0,0.0,0.0,30.1,0.0,,0.0,0.0,,,25.3,0.0,0.0,-0.5,2.9,1.8,,,,,15.0,16.0,16.0,17.0,16.0,17.0,16.0,17.0,,,10.0,0.0,,0.0,21.0,4.998,,,0.93,0.833,0.0,14.4,,,,,,2026-02-28-N890GF-SN35347-17.4.0.23677-USER_LOG_DATA.csv,,,,,,,68.0,57.2,,,,,59.0,60.8,60.8,62.6,60.8,62.6,60.8,62.6,,,57.92,0.0,60.349999999999994,0.8875,0.8411764705882353,0.0,2.53,419.0,True,2026-02-28 17:33:49 - Flight 14,
94.06,2.0,9.0,2026-02-28 17:35:19,37.08167,-121.59972,404.0,0.0,157.3,-12.6,0.14,C83,44.8,358.4,0.0,10.9,-0.9,33.9,0.0,209.0,0.0,-0.01,1.0,,-18.0,20.0,0.0,29.99,898.0,,,336.0,,,,346.0,0.0,0.0,5.0,3.0,,,,,,,,,,,,,,,,,0.0,14.0,0.0,0.0,30.1,0.0,,0.0,0.0,,,25.3,0.0,0.0,-0.5,2.9,1.8,,,,,15.0,16.0,16.0,17.0,16.0,17.0,16.0,17.0,,,10.0,0.0,,0.0,21.0,4.998,,,0.93,0.833,0.0,14.4,,,,,,2026-02-28-N890GF-SN35347-17.4.0.23677-USER_LOG_DATA.csv,,,,,,,68.0,57.2,,,,,59.0,60.8,60.8,62.6,60.8,62.6,60.8,62.6,,,57.92,0.0,60.349999999999994,0.8875,0.8411764705882353,0.0,2.53,419.0,True,2026-02-28 17:33:49 - Flight 14,
95.06,2.0,9.0,2026-02-28 17:35:20,37.08167,-121.59972,404.0,0.0,157.3,-12.6,0.14,C83,44.8,358.4,0.0,10.8,-0.9,33.9,0.0,209.0,0.0,-0.01,1.0,,-12.0,20.0,0.0,29.99,899.0,,,336.0,,,,346.0,0.0,0.0,5.0,3.0,,,,,,,,,,,,,,,,,0.0,14.0,0.0,0.0,30.1,0.0,,0.0,0.0,,,25.3,0.0,0.0,-0.5,2.9,1.8,,,,,15.0,16.0,16.0,17.0,16.0,17.0,16.0,17.0,,,9.0,0.0,,0.0,21.0,4.998,,,0.93,0.834,0.0,14.4,,,,,,2026-02-28-N890GF-SN35347-17.4.0.23677-USER_LOG_DATA.csv,,,,,,,68.0,57.2,,,,,59.0,60.8,60.8,62.6,60.8,62.6,60.8,62.6,,,57.92,0.0,60.349999999999994,0.8875,0.8411764705882353,0.0,2.53,419.0,True,2026-02-28 17:33:49 - Flight 14,
96.06,2.0,9.0,2026-02-28 17:35:21,37.08167,-121.59972,404.0,0.1,157.3,-12.6,0.14,C83,44.8,358.4,0.0,10.8,-0.9,34.0,0.0,209.0,0.1,-0.01,1.0,,5.0,20.0,0.0,29.99,899.0,,,336.0,,,,346.0,0.0,0.0,5.0,3.0,,,,,,,,,,,,,,,,,0.0,14.0,0.0,0.0,30.1,0.0,,0.0,0.0,,,25.3,0.0,0.0,-0.5,2.9,1.8,,,,,15.0,16.0,16.0,17.0,16.0,17.0,16.0,17.0,,,10.0,0.0,,0.0,21.0,4.998,,,0.93,0.834,0.0,14.4,,,,,,2026-02-28-N890GF-SN35347-17.4.0.23677-USER_LOG_DATA.csv,,,,,,,68.0,57.2,,,,,59.0,60.8,60.8,62.6,60.8,62.6,60.8,62.6,,,57.92,0.0,60.349999999999994,0.8875,0.8411764705882353,0.0,2.614333333333333,419.0,True,2026-02-28 17:33:49 - Flight 14,
97.06,2.0,9.0,2026-02-28 17:35:22,37.08167,-121.59972,406.0,0.0,157.3,-12.6,0.14,C83,44.8,358.4,0.0,10.9,-0.9,34.0,0.0,209.0,0.0,-0.01,1.0,,35.0,20.0,0.0,29.99,899.0,,,336.0,,,,346.0,0.0,0.0,5.0,3.0,,,,,,,,,,,,,,,,,0.0,14.0,0.0,0.0,30.1,0.0,,0.0,0.0,,,25.3,0.0,0.0,-0.5,2.9,1.8,,,,,15.0,16.0,16.0,17.0,16.0,17.0,16.0,17.0,,,9.0,0.0,,0.0,21.0,4.998,,,0.93,0.834,0.0,14.4,,,,,,2026-02-28-N890GF-SN35347-17.4.0.23677-USER_LOG_DATA.csv,,,,,,,68.0,57.2,,,,,59.0,60.8,60.8,62.6,60.8,62.6,60.8,62.6,,,57.92,0.0,60.349999999999994,0.8875,0.8411764705882353,0.0,2.6986666666666665,419.0,True,2026-02-28 17:33:49 - Flight 14,
98.06,2.0,9.0,2026-02-28 17:35:23,37.08167,-121.59972,407.0,0.0,157.3,-12.6,0.14,C83,44.8,358.4,0.0,10.9,-0.9,34.0,0.0,209.0,0.0,-0.01,1.0,,59.0,20.0,0.0,29.99,909.0,,,336.0,,,,346.0,0.0,0.0,5.0,3.0,,,,,,,,,,,,,,,,,0.0,14.0,0.0,0.0,30.1,0.0,,0.0,0.0,,,25.3,0.0,0.0,-0.5,2.9,1.8,,,,,15.0,16.0,16.0,17.0,16.0,17.0,16.0,17.0,,,9.0,0.0,,0.0,21.0,4.998,,,0.93,0.834,0.0,14.4,,,,,,2026-02-28-N890GF-SN35347-17.4.0.23677-USER_LOG_DATA.csv,,,,,,,68.0,57.2,,,,,59.0,60.8,60.8,62.6,60.8,62.6,60.8,62.6,,,57.92,0.0,60.349999999999994,0.8875,0.8411764705882353,0.0,2.6986666666666665,419.0,True,2026-02-28 17:33:49 - Flight 14,
99.06,2.0,9.0,2026-02-28 17:35:24,37.08167,-121.59972,408.0,0.1,157.3,-12.6,0.14,C83,44.8,358.4,0.0,10.9,-0.9,34.0,0.0,209.0,0.0,-0.01,1.0,,78.0,20.0,0.0,29.99,909.0,,,336.0,,,,346.0,0.0,0.0,5.0,3.0,,,,,,,,,,,,,,,,,0.0,14.0,0.0,0.0,30.1,0.0,,0.0,0.0,,,25.3,0.0,0.0,-0.5,2.9,1.8,,,,,15.0,16.0,16.0,17.0,16.0,17.0,16.0,17.0,,,9.0,0.0,,0.0,21.0,4.998,,,0.93,0.834,0.0,14.4,,,,,,2026-02-28-N890GF-SN35347-17.4.0.23677-USER_LOG_DATA.csv,,,,,,,68.0,57.2,,,,,59.0,60.8,60.8,62.6,60.8,62.6,60.8,62.6,,,57.92,0.0,60.349999999999994,0.8875,0.8411764705882353,0.0,2.783,419.0,True,2026-02-28 17:33:49 - Flight 14,
