Session Time,GPS Fix Quality,Number of Satellites,GPS Date & Time,Latitude (deg),Longitude (deg),GPS Altitude (feet),Ground Speed (knots),Ground Track (deg),Mag Var (deg),Cross Track Error (NM),Destination Waypoint ID,Range to Destination (NM),Bearing to Destination (deg),System Time,Pitch (deg),Roll (deg),Magnetic Heading (deg),Indicated Airspeed (knots),Pressure Altitude (ft),Turn Rate (deg/s),Lateral Accel (g),Vertical Accel(g),Angle of Attack (%),Vertical Speed (ft/min),OAT (deg C),True Airspeed (knots),Barometer Setting (inHg),Density Altitude (ft),Wind Direction (deg),Wind Speed (knots),Heading Bug (deg),Altitude Bug (ft),Airspeed Bug (knots),Vertical Speed Bug (ft/min),Course (deg),CDI Source Type,CDI Source Port,CDI Scale (NM),CDI Deflection (%),Glideslope (%),AP Engaged,AP Roll Mode,AP Roll Force,AP Roll Position (steps),AP Roll Slip (bool),AP Pitch Force,AP Pitch Position (steps),AP Pitch Slip (bool),AP Yaw Force,AP Yaw Position,AP Yaw Slip (bool),Transponder Status,Transponder Reply (bool),Transponder Identing (bool),Transponder Code (octal),Oil Pressure (PSI),Oil Temp (deg C),RPM L,RPM R,Manifold Pressure (inHg),Fuel Flow 1 (gal/hr),Fuel Flow 2 (gal/hr),Total Fuel Flow (gal/hr),Fuel Pressure (PSI),Fuel Level L (gal),Fuel Level R (gal),Fuel Remaining (gal),Volts 1,Volts 2,Amps,Hobbs Time,Tach Time,Thermocouple 1 (deg C),Thermocouple 2 (deg C),Thermocouple 3 (deg C),Thermocouple 4 (deg C),CHT 4 (deg C),EGT 4 (deg C),CHT 3 (deg C),EGT 3 (deg C),CHT 2 (deg C),EGT 2 (deg C),CHT 1 (deg C),EGT 1 (deg C),Thermocouple 13 (deg C),Thermocouple 14 (deg C),ELEV POSITION (%),CO PPM PRESSURE (PSI),GP Input 3,FUEL PRESSURE (PSI),AILERN POSITION (%),CANOPY CONTACT (V),GP Input 7,GP Input 8,LEFT LEVEL (Sensor V),RIGHT LEVEL (Sensor V),OIL PRESSURE (PSI),OIL TEMPERATURE (deg C),GP Input 13,Contacts,Percent Power,EGT Leaning State,Unnamed: 103,source_file,Unnamed: 0,press_alt,ias,hdg,gps_gs,gps_trk,OAT (deg F),Oil Temp (deg F),Thermocouple 1 (deg F),Thermocouple 2 (deg F),Thermocouple 3 (deg F),Thermocouple 4 (deg F),CHT 4 (deg F),EGT 4 (deg F),CHT 3 (deg F),EGT 3 (deg F),CHT 2 (deg F),EGT 2 (deg F),CHT 1 (deg F),EGT 1 (deg F),Thermocouple 13 (deg F),Thermocouple 14 (deg F),OIL TEMPERATURE (deg F),RPM,AVG_CHT,CHT_OAT_Ratio,OIL_OAT_Ratio,Fuel Flow Integral,Distance Traveled,Max CHT,Engine Run,Flight ID,efficiency
3.06,1.0,10.0,2026-03-18 23:39:18,36.88887,-121.40333,311.0,0.0,329.7,-12.5,,,,,0.0,11.2,-0.6,114.5,0.0,167.0,-0.0,-0.01,1.0,,-15.0,40.0,0.0,30.0,3230.0,,,305.0,,125.0,-700.0,,0.0,0.0,,,,,,,,,,,,,,,,,,,,,0.0,0.0,,0.4,,0.4,,,,14.7,0.0,0.0,-0.4,7.3,5.6,,,,,131.0,95.0,136.0,104.0,135.0,101.0,131.0,101.0,,,11.0,253.9,,8.2,35.0,4.993,,,0.653,0.731,0.0,93.9,,,,,,2026-03-19-N890GF-SN35347-17.4.0.23677-USER_LOG_DATA.csv,,,,,,,104.0,,,,,,267.8,203.0,276.8,219.2,275.0,213.8,267.8,213.8,,,201.02,0.0,271.84999999999997,2.6139423076923074,,0.0,0.0,420.8,True,2026-03-18 23:39:18 - Flight 10,
4.06,1.0,10.0,2026-03-18 23:39:19,36.88889,-121.40333,261.0,0.0,329.7,-12.5,,,,,0.0,11.1,-0.6,114.4,0.0,167.0,-0.0,-0.01,1.0,,16.0,40.0,0.0,30.0,3236.0,,,305.0,,125.0,-700.0,,0.0,0.0,,,,,,,,,,,,,,,,,,,,,0.0,0.0,,0.3,,0.3,,,,14.7,0.0,0.0,-0.4,7.3,5.6,,,,,131.0,94.0,136.0,104.0,135.0,100.0,131.0,100.0,,,11.0,253.9,,8.2,35.0,4.993,,,0.653,0.731,0.0,93.9,,,,,,2026-03-19-N890GF-SN35347-17.4.0.23677-USER_LOG_DATA.csv,,,,,,,104.0,,,,,,267.8,201.2,276.8,219.2,275.0,212.0,267.8,212.0,,,201.02,0.0,271.84999999999997,2.6139423076923074,,9.722222222222219e-05,0.0,420.8,True,2026-03-18 23:39:18 - Flight 10,
5.06,1.0,10.0,2026-03-18 23:39:20,36.88888,-121.40333,261.0,0.0,329.7,-12.5,,,,,0.0,11.1,-0.6,114.5,0.0,167.0,-0.0,-0.01,1.0,99.0,-19.0,40.0,0.0,30.0,3236.0,,,305.0,,,,,0.0,0.0,,,,,,,,,,,,,,,,,,,0.0,94.0,0.0,0.0,30.2,0.3,,0.3,8.2,,,14.7,0.0,0.0,-0.4,7.3,5.6,,,,,131.0,94.0,136.0,104.0,135.0,100.0,131.0,100.0,,,11.0,253.9,,8.2,35.0,4.993,,,0.653,0.731,0.0,93.9,,,,,,2026-03-19-N890GF-SN35347-17.4.0.23677-USER_LOG_DATA.csv,,,,,,,104.0,201.2,,,,,267.8,201.2,276.8,219.2,275.0,212.0,267.8,212.0,,,201.02,0.0,271.84999999999997,2.6139423076923074,1.9346153846153844,0.00018055555555555552,0.0,420.8,True,2026-03-18 23:39:18 - Flight 10,
6.06,1.0,10.0,2026-03-18 23:39:21,36.88888,-121.40333,262.0,0.1,329.7,-12.5,,,,,0.0,11.2,-0.6,114.4,0.0,167.0,-0.1,-0.01,1.0,99.0,-6.0,41.0,0.0,30.0,3236.0,,,305.0,,,,,0.0,0.0,,,,,,,,,,,,,,,,,,,0.0,94.0,0.0,0.0,30.2,0.4,,0.4,8.2,,,14.7,0.0,0.0,-0.4,7.3,5.6,,,,,131.0,94.0,136.0,104.0,135.0,100.0,131.0,100.0,,,11.0,253.9,,8.2,35.0,4.993,,,0.653,0.731,0.0,93.9,,,,,,2026-03-19-N890GF-SN35347-17.4.0.23677-USER_LOG_DATA.csv,,,,,,,105.8,201.2,,,,,267.8,201.2,276.8,219.2,275.0,212.0,267.8,212.0,,,201.02,0.0,271.84999999999997,2.569470699432892,1.9017013232514177,0.0002777777777777777,0.08433333333333333,420.8,True,2026-03-18 23:39:18 - Flight 10,
7.06,1.0,10.0,2026-03-18 23:39:22,36.88888,-121.40333,262.0,0.0,329.7,-12.5,,,,,0.0,11.2,-0.6,114.5,0.0,167.0,-0.1,-0.01,1.0,99.0,-13.0,41.0,0.0,30.0,3239.0,,,305.0,,,,,0.0,0.0,,,,,,,,,,,,,,,,,,,0.0,94.0,0.0,0.0,30.2,0.4,,0.4,8.2,,,14.7,0.0,0.0,-0.4,7.3,5.6,,,,,131.0,94.0,136.0,104.0,135.0,100.0,131.0,100.0,,,11.0,253.9,,8.2,35.0,4.993,,,0.653,0.731,0.0,93.9,,,,,,2026-03-19-N890GF-SN35347-17.4.0.23677-USER_LOG_DATA.csv,,,,,,,105.8,201.2,,,,,267.8,201.2,276.8,219.2,275.0,212.0,267.8,212.0,,,201.02,0.0,271.84999999999997,2.569470699432892,1.9017013232514177,0.00038888888888888887,0.16866666666666666,420.8,True,2026-03-18 23:39:18 - Flight 10,
8.06,1.0,10.0,2026-03-18 23:39:23,36.88888,-121.40333,263.0,0.0,329.7,-12.5,,,,,0.0,11.2,-0.6,114.4,0.0,166.0,-0.0,-0.01,1.0,99.0,-18.0,41.0,0.0,30.0,3235.0,,,305.0,,,,,0.0,0.0,,,,,,,,,,,,,,,,,,,0.0,94.0,0.0,0.0,30.2,0.3,,0.3,8.2,,,14.7,0.0,0.0,-0.4,7.3,5.6,,,,,131.0,94.0,136.0,104.0,135.0,100.0,131.0,100.0,,,11.0,253.9,,8.2,35.0,4.993,,,0.653,0.731,0.0,93.9,,,,,,2026-03-19-N890GF-SN35347-17.4.0.23677-USER_LOG_DATA.csv,,,,,,,105.8,201.2,,,,,267.8,201.2,276.8,219.2,275.0,212.0,267.8,212.0,,,201.02,0.0,271.84999999999997,2.569470699432892,1.9017013232514177,0.0004861111111111112,0.16866666666666666,420.8,True,2026-03-18 23:39:18 - Flight 10,
9.06,1.0,10.0,2026-03-18 23:39:24,36.88888,-121.40333,263.0,0.0,329.7,-12.5,,,,,0.0,11.2,-0.6,114.4,0.0,165.0,-0.0,-0.01,1.0,99.0,-15.0,41.0,0.0,30.0,3235.0,,,305.0,,,,,0.0,0.0,,,,,,,,,,,,,,,,,,,0.0,94.0,0.0,0.0,30.2,0.3,,0.3,8.2,,,14.7,0.0,0.0,-0.5,7.3,5.6,,,,,131.0,94.0,136.0,104.0,135.0,100.0,131.0,100.0,,,11.0,253.9,,8.2,35.0,4.993,,,0.653,0.731,0.0,93.9,,,,,,2026-03-19-N890GF-SN35347-17.4.0.23677-USER_LOG_DATA.csv,,,,,,,105.8,201.2,,,,,267.8,201.2,276.8,219.2,275.0,212.0,267.8,212.0,,,201.02,0.0,271.84999999999997,2.569470699432892,1.9017013232514177,0.0005694444444444445,0.16866666666666666,420.8,True,2026-03-18 23:39:18 - Flight 10,
10.06,1.0,10.0,2026-03-18 23:39:25,36.88888,-121.40332,263.0,0.0,329.7,-12.5,,,,,0.0,11.2,-0.7,114.4,0.0,164.0,-0.1,-0.01,1.0,99.0,-51.0,41.0,0.0,30.0,3234.0,,,305.0,,,,,0.0,0.0,,,,,,,,,,,,,,,,,,,0.0,94.0,0.0,0.0,30.2,0.3,,0.3,8.2,,,14.7,0.0,0.0,-0.5,7.3,5.6,,,,,131.0,94.0,136.0,104.0,135.0,100.0,131.0,100.0,,,11.0,253.9,,8.2,35.0,4.993,,,0.653,0.731,0.0,93.9,,,,,,2026-03-19-N890GF-SN35347-17.4.0.23677-USER_LOG_DATA.csv,,,,,,,105.8,201.2,,,,,267.8,201.2,276.8,219.2,275.0,212.0,267.8,212.0,,,201.02,0.0,271.84999999999997,2.569470699432892,1.9017013232514177,0.0006527777777777778,0.16866666666666666,420.8,True,2026-03-18 23:39:18 - Flight 10,
11.06,1.0,10.0,2026-03-18 23:39:26,36.88888,-121.40332,264.0,0.0,329.7,-12.5,,,,,0.0,11.2,-0.7,114.4,0.0,163.0,-0.1,-0.01,1.0,99.0,-45.0,41.0,0.0,30.0,3234.0,,,305.0,,,,,0.0,0.0,,,,,,,,,,,,,,,,,,,0.0,94.0,0.0,0.0,30.2,0.3,,0.3,8.2,,,14.7,0.0,0.0,-0.5,7.3,5.6,,,,,131.0,94.0,136.0,104.0,134.0,100.0,131.0,100.0,,,11.0,253.8,,8.2,35.0,4.993,,,0.653,0.731,0.0,93.9,,,,,,2026-03-19-N890GF-SN35347-17.4.0.23677-USER_LOG_DATA.csv,,,,,,,105.8,201.2,,,,,267.8,201.2,276.8,219.2,273.2,212.0,267.8,212.0,,,201.02,0.0,271.4,2.5652173913043477,1.9017013232514177,0.0007361111111111112,0.16866666666666666,420.8,True,2026-03-18 23:39:18 - Flight 10,
12.06,1.0,10.0,2026-03-18 23:39:27,36.88888,-121.40332,264.0,0.0,329.7,-12.5,,,,,0.0,11.2,-0.6,114.4,0.0,162.0,-0.1,-0.01,1.0,99.0,-75.0,41.0,0.0,30.0,3234.0,,,305.0,,,,,0.0,0.0,,,,,,,,,,,,,,,,,,,0.0,94.0,0.0,0.0,30.2,0.3,,0.3,8.2,,,14.7,0.0,0.0,-0.5,7.3,5.6,,,,,131.0,94.0,136.0,104.0,134.0,100.0,131.0,100.0,,,11.0,253.8,,8.2,35.0,4.993,,,0.653,0.731,0.0,93.9,,,,,,2026-03-19-N890GF-SN35347-17.4.0.23677-USER_LOG_DATA.csv,,,,,,,105.8,201.2,,,,,267.8,201.2,276.8,219.2,273.2,212.0,267.8,212.0,,,201.02,0.0,271.4,2.5652173913043477,1.9017013232514177,0.0008194444444444445,0.16866666666666666,420.8,True,2026-03-18 23:39:18 - Flight 10,
13.06,1.0,10.0,2026-03-18 23:39:28,36.88888,-121.40332,264.0,0.0,329.7,-12.5,,,,,0.0,11.2,-0.6,114.3,0.0,162.0,-0.1,-0.01,1.0,99.0,-36.0,41.0,0.0,30.0,3233.0,,,305.0,,,,,0.0,0.0,,,,,,,,,,,,,,,,,,,0.0,94.0,0.0,0.0,30.2,0.3,,0.3,8.2,,,14.7,0.0,0.0,-0.5,7.3,5.6,,,,,131.0,94.0,136.0,104.0,134.0,100.0,131.0,100.0,,,11.0,253.8,,8.2,35.0,4.993,,,0.653,0.731,0.0,93.9,,,,,,2026-03-19-N890GF-SN35347-17.4.0.23677-USER_LOG_DATA.csv,,,,,,,105.8,201.2,,,,,267.8,201.2,276.8,219.2,273.2,212.0,267.8,212.0,,,201.02,0.0,271.4,2.5652173913043477,1.9017013232514177,0.0009027777777777778,0.16866666666666666,420.8,True,2026-03-18 23:39:18 - Flight 10,
14.06,1.0,10.0,2026-03-18 23:39:29,36.88888,-121.40332,263.0,0.0,329.7,-12.5,,,,,0.0,11.2,-0.6,114.4,0.0,160.0,-0.0,-0.01,1.0,99.0,-79.0,41.0,0.0,30.0,3230.0,,,305.0,,,,,0.0,0.0,,,,,,,,,,,,,,,,,,,0.0,94.0,0.0,0.0,30.2,0.2,,0.2,8.2,,,14.7,0.0,0.0,-0.5,7.3,5.6,,,,,131.0,94.0,136.0,104.0,134.0,100.0,131.0,100.0,,,11.0,253.8,,8.2,35.0,4.993,,,0.653,0.731,0.0,93.9,,,,,,2026-03-19-N890GF-SN35347-17.4.0.23677-USER_LOG_DATA.csv,,,,,,,105.8,201.2,,,,,267.8,201.2,276.8,219.2,273.2,212.0,267.8,212.0,,,201.02,0.0,271.4,2.5652173913043477,1.9017013232514177,0.0009722222222222223,0.16866666666666666,420.8,True,2026-03-18 23:39:18 - Flight 10,
15.06,1.0,10.0,2026-03-18 23:39:30,36.88888,-121.40332,263.0,0.0,329.7,-12.5,,,,,0.0,11.2,-0.6,114.4,0.0,157.0,-0.0,-0.01,1.0,99.0,-127.0,41.0,0.0,30.0,3230.0,,,305.0,,,,,0.0,0.0,,,,,,,,,,,,,,,,,,,0.0,94.0,0.0,0.0,30.2,0.2,,0.2,8.2,,,14.7,0.0,0.0,-0.5,7.3,5.6,,,,,131.0,94.0,136.0,104.0,134.0,100.0,131.0,100.0,,,11.0,253.8,,8.2,35.0,4.993,,,0.653,0.731,0.0,93.8,,,,,,2026-03-19-N890GF-SN35347-17.4.0.23677-USER_LOG_DATA.csv,,,,,,,105.8,201.2,,,,,267.8,201.2,276.8,219.2,273.2,212.0,267.8,212.0,,,200.83999999999997,0.0,271.4,2.5652173913043477,1.9017013232514177,0.0010277777777777778,0.16866666666666666,420.8,True,2026-03-18 23:39:18 - Flight 10,
16.06,1.0,10.0,2026-03-18 23:39:31,36.88888,-121.40332,263.0,0.0,329.7,-12.5,,,,,0.0,11.2,-0.7,114.5,0.0,154.0,-0.0,-0.01,1.0,99.0,-144.0,41.0,0.0,30.0,3230.0,,,305.0,,,,,0.0,0.0,,,,,,,,,,,,,,,,,,,0.0,94.0,0.0,0.0,30.2,0.2,,0.2,8.2,,,14.7,0.0,0.0,-0.5,7.3,5.6,,,,,131.0,94.0,136.0,104.0,134.0,99.0,131.0,100.0,,,11.0,253.8,,8.2,35.0,4.993,,,0.653,0.731,0.0,93.8,,,,,,2026-03-19-N890GF-SN35347-17.4.0.23677-USER_LOG_DATA.csv,,,,,,,105.8,201.2,,,,,267.8,201.2,276.8,219.2,273.2,210.2,267.8,212.0,,,200.83999999999997,0.0,271.4,2.5652173913043477,1.9017013232514177,0.0010833333333333333,0.16866666666666666,420.8,True,2026-03-18 23:39:18 - Flight 10,
17.06,1.0,10.0,2026-03-18 23:39:32,36.88888,-121.40332,263.0,0.0,329.7,-12.5,,,,,0.0,11.2,-0.7,114.4,0.0,153.0,-0.0,-0.01,1.0,99.0,-116.0,41.0,0.0,30.0,3221.0,,,305.0,,,,,0.0,0.0,,,,,,,,,,,,,,,,,,,0.0,94.0,0.0,0.0,30.2,0.2,,0.2,8.2,,,14.7,0.0,0.0,-0.5,7.3,5.6,,,,,131.0,94.0,136.0,104.0,134.0,99.0,131.0,100.0,,,11.0,253.8,,8.2,35.0,4.993,,,0.653,0.731,0.0,93.8,,,,,,2026-03-19-N890GF-SN35347-17.4.0.23677-USER_LOG_DATA.csv,,,,,,,105.8,201.2,,,,,267.8,201.2,276.8,219.2,273.2,210.2,267.8,212.0,,,200.83999999999997,0.0,271.4,2.5652173913043477,1.9017013232514177,0.001138888888888889,0.16866666666666666,420.8,True,2026-03-18 23:39:18 - Flight 10,
18.06,1.0,10.0,2026-03-18 23:39:33,36.88888,-121.40332,263.0,0.0,329.7,-12.5,,,,,0.0,11.2,-0.6,114.4,0.0,151.0,-0.0,-0.01,1.0,99.0,-138.0,40.0,0.0,30.0,3217.0,,,305.0,,,,,0.0,0.0,,,,,,,,,,,,,,,,,,,0.0,94.0,0.0,0.0,30.2,0.2,,0.2,8.2,,,14.7,0.0,0.0,-0.5,7.3,5.6,,,,,131.0,94.0,135.0,104.0,134.0,99.0,131.0,100.0,,,11.0,253.8,,8.2,35.0,4.993,,,0.653,0.731,0.0,93.8,,,,,,2026-03-19-N890GF-SN35347-17.4.0.23677-USER_LOG_DATA.csv,,,,,,,104.0,201.2,,,,,267.8,201.2,275.0,219.2,273.2,210.2,267.8,212.0,,,200.83999999999997,0.0,270.95,2.6052884615384615,1.9346153846153844,0.0011944444444444444,0.16866666666666666,420.8,True,2026-03-18 23:39:18 - Flight 10,
19.06,1.0,10.0,2026-03-18 23:39:34,36.88888,-121.40332,263.0,0.0,329.7,-12.5,,,,,0.0,11.2,-0.6,114.4,0.0,148.0,-0.0,-0.01,1.0,99.0,-128.0,41.0,0.0,30.0,3217.0,,,305.0,,,,,0.0,0.0,,,,,,,,,,,,,,,,,,,0.0,94.0,0.0,0.0,30.2,0.4,,0.4,8.4,,,14.7,0.0,0.0,-0.4,7.3,5.6,,,,,131.0,94.0,135.0,104.0,134.0,99.0,131.0,100.0,,,11.0,253.8,,8.4,35.0,4.993,,,0.653,0.731,0.0,93.8,,,,,,2026-03-19-N890GF-SN35347-17.4.0.23677-USER_LOG_DATA.csv,,,,,,,105.8,201.2,,,,,267.8,201.2,275.0,219.2,273.2,210.2,267.8,212.0,,,200.83999999999997,0.0,270.95,2.5609640831758034,1.9017013232514177,0.0012777777777777779,0.16866666666666666,420.8,True,2026-03-18 23:39:18 - Flight 10,
20.06,1.0,10.0,2026-03-18 23:39:35,36.88888,-121.40332,263.0,0.2,329.7,-12.5,,,,,0.0,11.2,-0.7,114.4,0.0,148.0,-0.0,-0.01,1.0,99.0,-91.0,41.0,0.0,30.0,3217.0,,,305.0,,,,,0.0,0.0,,,,,,,,,,,,,,,,,,,0.0,94.0,0.0,0.0,30.2,0.8,,0.8,9.2,,,14.7,0.0,0.0,-0.4,7.3,5.6,,,,,131.0,94.0,135.0,104.0,134.0,99.0,131.0,100.0,,,11.0,253.8,,9.2,35.0,4.993,,,0.653,0.731,0.0,93.8,,,,,,2026-03-19-N890GF-SN35347-17.4.0.23677-USER_LOG_DATA.csv,,,,,,,105.8,201.2,,,,,267.8,201.2,275.0,219.2,273.2,210.2,267.8,212.0,,,200.83999999999997,0.0,270.95,2.5609640831758034,1.9017013232514177,0.0014444444444444444,0.3373333333333333,420.8,True,2026-03-18 23:39:18 - Flight 10,
21.06,1.0,10.0,2026-03-18 23:39:36,36.88888,-121.40332,263.0,0.0,329.7,-12.5,,,,,0.0,11.2,-0.6,114.4,0.0,147.0,-0.0,-0.01,1.0,99.0,-92.0,41.0,0.0,30.0,3212.0,,,305.0,,,,,0.0,0.0,,,,,,,,,,,,,,,,,,,0.0,94.0,0.0,0.0,30.2,1.4,,1.4,8.8,,,14.7,0.0,0.0,-0.4,7.3,5.6,,,,,131.0,93.0,135.0,104.0,134.0,99.0,131.0,100.0,,,11.0,253.8,,8.8,35.0,4.993,,,0.653,0.731,0.0,93.9,,,,,,2026-03-19-N890GF-SN35347-17.4.0.23677-USER_LOG_DATA.csv,,,,,,,105.8,201.2,,,,,267.8,199.4,275.0,219.2,273.2,210.2,267.8,212.0,,,201.02,0.0,270.95,2.5609640831758034,1.9017013232514177,0.00175,0.506,420.8,True,2026-03-18 23:39:18 - Flight 10,
22.06,1.0,10.0,2026-03-18 23:39:37,36.88888,-121.40332,263.0,0.0,329.7,-12.5,,,,,0.0,11.2,-0.6,114.3,0.0,147.0,-0.0,-0.01,1.0,99.0,-72.0,41.0,0.0,30.0,3212.0,,,305.0,,,,,0.0,0.0,,,,,,,,,,,,,,,,,,,0.0,94.0,0.0,0.0,30.2,1.6,,1.6,8.9,,,14.6,0.0,0.0,-0.4,7.3,5.6,,,,,131.0,93.0,135.0,104.0,134.0,99.0,131.0,99.0,,,11.0,253.8,,8.9,35.0,4.993,,,0.653,0.731,0.0,93.8,,,,,,2026-03-19-N890GF-SN35347-17.4.0.23677-USER_LOG_DATA.csv,,,,,,,105.8,201.2,,,,,267.8,199.4,275.0,219.2,273.2,210.2,267.8,210.2,,,200.83999999999997,0.0,270.95,2.5609640831758034,1.9017013232514177,0.0021666666666666666,0.506,420.8,True,2026-03-18 23:39:18 - Flight 10,
23.06,1.0,10.0,2026-03-18 23:39:38,36.88888,-121.40332,264.0,0.0,329.7,-12.5,,,,,0.0,11.2,-0.6,114.3,0.0,146.0,-0.1,-0.01,1.0,99.0,-60.0,41.0,0.0,30.0,3212.0,,,305.0,,,,,0.0,0.0,,,,,,,,,,,,,,,,,,,0.0,94.0,0.0,0.0,30.2,1.7,,1.7,8.8,,,14.6,0.0,0.0,-0.5,7.3,5.6,,,,,130.0,93.0,135.0,104.0,134.0,99.0,131.0,99.0,,,11.0,253.8,,8.8,35.0,4.993,,,0.653,0.731,0.0,93.8,,,,,,2026-03-19-N890GF-SN35347-17.4.0.23677-USER_LOG_DATA.csv,,,,,,,105.8,201.2,,,,,266.0,199.4,275.0,219.2,273.2,210.2,267.8,210.2,,,200.83999999999997,0.0,270.5,2.556710775047259,1.9017013232514177,0.0026249999999999997,0.506,420.8,True,2026-03-18 23:39:18 - Flight 10,
24.06,1.0,10.0,2026-03-18 23:39:39,36.88888,-121.40332,264.0,0.0,329.7,-12.5,,,,,0.0,11.2,-0.7,114.3,0.0,145.0,-0.1,-0.01,1.0,99.0,-47.0,41.0,0.0,30.0,3214.0,,,305.0,,,,,0.0,0.0,,,,,,,,,,,,,,,,,,,0.0,94.0,0.0,0.0,30.2,1.9,,1.9,8.8,,,14.6,0.0,0.0,-0.5,7.3,5.6,,,,,131.0,93.0,135.0,103.0,134.0,99.0,131.0,99.0,,,11.0,253.8,,8.8,35.0,4.993,,,0.653,0.731,0.0,93.8,,,,,,2026-03-19-N890GF-SN35347-17.4.0.23677-USER_LOG_DATA.csv,,,,,,,105.8,201.2,,,,,267.8,199.4,275.0,217.4,273.2,210.2,267.8,210.2,,,200.83999999999997,0.0,270.95,2.5609640831758034,1.9017013232514177,0.003125,0.506,420.8,True,2026-03-18 23:39:18 - Flight 10,
25.06,1.0,10.0,2026-03-18 23:39:40,36.88888,-121.40332,264.0,0.0,329.7,-12.5,,,,,0.0,11.2,-0.7,114.3,0.0,145.0,-0.1,-0.01,1.0,99.0,-12.0,41.0,0.0,30.0,3209.0,,,305.0,,,,,0.0,0.0,,,,,,,,,,,,,,,,,,,0.0,94.0,0.0,0.0,30.2,2.1,,2.1,7.2,,,14.6,0.0,0.0,-0.5,7.3,5.6,,,,,130.0,93.0,135.0,103.0,134.0,99.0,131.0,99.0,,,11.0,253.8,,7.2,35.0,4.993,,,0.653,0.731,0.0,93.8,,,,,,2026-03-19-N890GF-SN35347-17.4.0.23677-USER_LOG_DATA.csv,,,,,,,105.8,201.2,,,,,266.0,199.4,275.0,217.4,273.2,210.2,267.8,210.2,,,200.83999999999997,0.0,270.5,2.556710775047259,1.9017013232514177,0.0036805555555555554,0.506,420.8,True,2026-03-18 23:39:18 - Flight 10,
26.06,1.0,10.0,2026-03-18 23:39:41,36.88888,-121.40332,264.0,0.0,329.7,-12.5,,,,,0.0,11.2,-0.7,114.4,0.0,145.0,-0.1,-0.01,1.0,99.0,2.0,41.0,0.0,30.0,3209.0,,,305.0,,,,,0.0,0.0,,,,,,,,,,,,,,,,,,,0.0,94.0,0.0,0.0,30.2,2.3,,2.3,8.8,,,14.6,0.0,0.0,-0.4,7.3,5.6,,,,,131.0,93.0,135.0,103.0,134.0,99.0,131.0,99.0,,,11.0,253.8,,8.8,35.0,4.993,,,0.653,0.731,0.0,93.8,,,,,,2026-03-19-N890GF-SN35347-17.4.0.23677-USER_LOG_DATA.csv,,,,,,,105.8,201.2,,,,,267.8,199.4,275.0,217.4,273.2,210.2,267.8,210.2,,,200.83999999999997,0.0,270.95,2.5609640831758034,1.9017013232514177,0.004291666666666667,0.506,420.8,True,2026-03-18 23:39:18 - Flight 10,
27.06,1.0,10.0,2026-03-18 23:39:42,36.88888,-121.40332,264.0,0.0,329.7,-12.5,,,,,0.0,11.2,-0.7,114.4,0.0,145.0,-0.0,-0.01,1.0,99.0,-30.0,41.0,0.0,30.0,3209.0,,,305.0,,,,,0.0,0.0,,,,,,,,,,,,,,,,,,,0.0,94.0,0.0,0.0,30.2,2.3,,2.3,11.6,,,14.6,0.0,0.0,-0.4,7.3,5.6,,,,,130.0,93.0,135.0,103.0,134.0,99.0,131.0,99.0,,,11.0,253.8,,11.6,35.0,4.994,,,0.653,0.731,0.0,93.8,,,,,,2026-03-19-N890GF-SN35347-17.4.0.23677-USER_LOG_DATA.csv,,,,,,,105.8,201.2,,,,,266.0,199.4,275.0,217.4,273.2,210.2,267.8,210.2,,,200.83999999999997,0.0,270.5,2.556710775047259,1.9017013232514177,0.004930555555555555,0.506,420.8,True,2026-03-18 23:39:18 - Flight 10,
28.06,1.0,10.0,2026-03-18 23:39:43,36.88888,-121.40332,264.0,0.0,329.7,-12.5,,,,,0.0,11.2,-0.7,114.4,0.0,145.0,-0.0,-0.01,1.0,99.0,-21.0,41.0,0.0,30.0,3213.0,,,305.0,,,,,0.0,0.0,,,,,,,,,,,,,,,,,,,0.0,94.0,0.0,0.0,30.2,2.4,,2.4,11.4,,,14.6,0.0,0.0,-0.5,7.3,5.6,,,,,130.0,93.0,135.0,103.0,134.0,99.0,131.0,99.0,,,11.0,253.8,,11.4,35.0,4.993,,,0.653,0.731,0.0,93.8,,,,,,2026-03-19-N890GF-SN35347-17.4.0.23677-USER_LOG_DATA.csv,,,,,,,105.8,201.2,,,,,266.0,199.4,275.0,217.4,273.2,210.2,267.8,210.2,,,200.83999999999997,0.0,270.5,2.556710775047259,1.9017013232514177,0.005583333333333333,0.506,420.8,True,2026-03-18 23:39:18 - Flight 10,
29.06,1.0,10.0,2026-03-18 23:39:44,36.88888,-121.40332,264.0,0.0,329.7,-12.5,,,,,0.0,11.2,-0.7,114.4,0.0,144.0,-0.1,-0.01,1.0,99.0,-41.0,41.0,0.0,30.0,3209.0,,,305.0,,,,,0.0,0.0,,,,,,,,,,,,,,,,,,,0.0,94.0,0.0,0.0,30.2,2.5,,2.5,11.3,,,14.6,0.0,0.0,-0.5,7.3,5.6,,,,,130.0,93.0,135.0,103.0,134.0,99.0,131.0,99.0,,,11.0,253.8,,11.3,35.0,4.993,,,0.653,0.731,0.0,93.8,,,,,,2026-03-19-N890GF-SN35347-17.4.0.23677-USER_LOG_DATA.csv,,,,,,,105.8,201.2,,,,,266.0,199.4,275.0,217.4,273.2,210.2,267.8,210.2,,,200.83999999999997,0.0,270.5,2.556710775047259,1.9017013232514177,0.006263888888888888,0.506,420.8,True,2026-03-18 23:39:18 - Flight 10,
30.06,1.0,10.0,2026-03-18 23:39:45,36.88888,-121.40331,264.0,0.0,329.7,-12.5,,,,,0.0,11.3,-0.7,114.4,0.0,144.0,-0.0,-0.01,1.0,99.0,-60.0,41.0,0.0,30.0,3207.0,,,305.0,,,,,0.0,0.0,,,,,,,,,,,,,,,,,,,0.0,94.0,0.0,0.0,30.2,2.3,,2.3,11.3,,,14.6,0.0,0.0,-0.5,7.3,5.6,,,,,130.0,93.0,135.0,103.0,134.0,99.0,131.0,99.0,,,11.0,253.8,,11.3,35.0,4.993,,,0.653,0.731,0.0,93.8,,,,,,2026-03-19-N890GF-SN35347-17.4.0.23677-USER_LOG_DATA.csv,,,,,,,105.8,201.2,,,,,266.0,199.4,275.0,217.4,273.2,210.2,267.8,210.2,,,200.83999999999997,0.0,270.5,2.556710775047259,1.9017013232514177,0.006930555555555555,0.506,420.8,True,2026-03-18 23:39:18 - Flight 10,
31.06,1.0,10.0,2026-03-18 23:39:46,36.88888,-121.40331,264.0,0.0,329.7,-12.5,,,,,0.0,11.3,-0.7,114.3,0.0,143.0,-0.0,-0.01,1.0,99.0,-43.0,41.0,0.0,30.0,3207.0,,,305.0,,,,,0.0,0.0,,,,,,,,,,,,,,,,,,,0.0,94.0,0.0,0.0,30.2,1.9,,1.9,11.2,,,14.6,0.0,0.0,-0.5,7.3,5.6,,,,,130.0,93.0,135.0,103.0,134.0,99.0,131.0,99.0,,,11.0,253.8,,11.2,35.0,4.993,,,0.653,0.731,0.0,93.8,,,,,,2026-03-19-N890GF-SN35347-17.4.0.23677-USER_LOG_DATA.csv,,,,,,,105.8,201.2,,,,,266.0,199.4,275.0,217.4,273.2,210.2,267.8,210.2,,,200.83999999999997,0.0,270.5,2.556710775047259,1.9017013232514177,0.0075138888888888885,0.506,420.8,True,2026-03-18 23:39:18 - Flight 10,
32.06,1.0,10.0,2026-03-18 23:39:47,36.88888,-121.40331,264.0,0.0,329.7,-12.5,,,,,0.0,11.3,-0.7,114.3,0.0,143.0,-0.0,-0.01,1.0,99.0,-25.0,41.0,0.0,30.0,3207.0,,,305.0,,,,,0.0,0.0,,,,,,,,,,,,,,,,,,,0.0,94.0,0.0,0.0,30.2,1.6,,1.6,11.2,,,14.6,0.0,0.0,-0.5,7.3,5.6,,,,,130.0,93.0,135.0,103.0,134.0,98.0,131.0,99.0,,,11.0,253.8,,11.2,35.0,4.993,,,0.653,0.731,0.0,93.8,,,,,,2026-03-19-N890GF-SN35347-17.4.0.23677-USER_LOG_DATA.csv,,,,,,,105.8,201.2,,,,,266.0,199.4,275.0,217.4,273.2,208.4,267.8,210.2,,,200.83999999999997,0.0,270.5,2.556710775047259,1.9017013232514177,0.008000000000000002,0.506,420.8,True,2026-03-18 23:39:18 - Flight 10,
33.06,1.0,10.0,2026-03-18 23:39:48,36.88888,-121.40331,264.0,0.0,329.7,-12.5,,,,,0.0,11.3,-0.7,114.3,0.0,143.0,-0.1,-0.01,1.0,99.0,-8.0,40.0,0.0,30.0,3206.0,,,305.0,,,,,0.0,0.0,,,,,,,,,,,,,,,,,,,0.0,94.0,0.0,0.0,30.2,1.6,,1.6,11.2,,,14.6,0.0,0.0,-0.5,7.3,5.6,,,,,130.0,92.0,135.0,103.0,134.0,98.0,131.0,99.0,,,11.0,253.8,,11.2,35.0,4.993,,,0.653,0.731,0.0,93.8,,,,,,2026-03-19-N890GF-SN35347-17.4.0.23677-USER_LOG_DATA.csv,,,,,,,104.0,201.2,,,,,266.0,197.6,275.0,217.4,273.2,208.4,267.8,210.2,,,200.83999999999997,0.0,270.5,2.6009615384615383,1.9346153846153844,0.008444444444444445,0.506,420.8,True,2026-03-18 23:39:18 - Flight 10,
34.06,1.0,10.0,2026-03-18 23:39:49,36.88888,-121.40331,264.0,0.0,329.7,-12.5,,,,,0.0,11.3,-0.7,114.3,0.0,143.0,-0.1,-0.01,1.0,99.0,12.0,40.0,0.0,30.0,3206.0,,,305.0,,,,,0.0,0.0,,,,,,,,,,,,,,,,,,,0.0,94.0,0.0,0.0,30.2,1.7,,1.7,11.2,,,14.6,0.0,0.0,-0.5,7.3,5.6,,,,,130.0,92.0,135.0,103.0,134.0,98.0,131.0,99.0,,,11.0,253.8,,11.2,35.0,4.993,,,0.653,0.731,0.0,93.8,,,,,,2026-03-19-N890GF-SN35347-17.4.0.23677-USER_LOG_DATA.csv,,,,,,,104.0,201.2,,,,,266.0,197.6,275.0,217.4,273.2,208.4,267.8,210.2,,,200.83999999999997,0.0,270.5,2.6009615384615383,1.9346153846153844,0.008902777777777779,0.506,420.8,True,2026-03-18 23:39:18 - Flight 10,
35.06,1.0,10.0,2026-03-18 23:39:50,36.88888,-121.40331,264.0,0.0,329.7,-12.5,,,,,0.0,11.3,-0.7,114.1,0.0,143.0,-0.0,-0.01,1.0,99.0,11.0,40.0,0.0,30.0,3206.0,,,305.0,,,,,0.0,0.0,,,,,,,,,,,,,,,,,,,0.0,82.0,0.0,0.0,30.1,1.7,,1.7,11.0,,,14.6,0.0,0.0,-0.5,7.3,5.6,,,,,127.0,88.0,132.0,99.0,131.0,94.0,128.0,95.0,,,11.0,253.8,,11.0,35.0,4.993,,,0.652,0.73,0.1,82.1,,,,,,2026-03-19-N890GF-SN35347-17.4.0.23677-USER_LOG_DATA.csv,,,,,,,104.0,179.6,,,,,260.6,190.4,269.6,210.2,267.8,201.2,262.4,203.0,,,179.78,0.0,265.1,2.5490384615384616,1.7269230769230768,0.009375000000000001,0.506,420.8,True,2026-03-18 23:39:18 - Flight 10,
36.06,1.0,10.0,2026-03-18 23:39:51,36.88888,-121.40331,265.0,0.0,329.7,-12.5,,,,,0.0,11.3,-0.7,114.1,0.0,143.0,-0.0,-0.01,1.0,99.0,29.0,40.0,0.0,30.0,3200.0,,,305.0,,,,,0.0,0.0,,,,,,,,,,,,,,,,,,,0.0,88.0,197.0,197.0,28.9,1.8,,1.8,13.5,,,14.6,0.0,0.0,-0.6,7.3,5.6,,,,,129.0,91.0,133.0,101.0,132.0,96.0,129.0,98.0,,,11.0,253.8,,13.5,35.0,4.993,,,0.653,0.73,0.4,87.6,,,,,,2026-03-19-N890GF-SN35347-17.4.0.23677-USER_LOG_DATA.csv,,,,,,,104.0,190.4,,,,,264.2,195.8,271.4,213.8,269.6,204.8,264.2,208.4,,,189.68,197.0,267.34999999999997,2.5706730769230766,1.830769230769231,0.009861111111111112,0.506,420.8,True,2026-03-18 23:39:18 - Flight 10,
37.06,1.0,10.0,2026-03-18 23:39:52,36.88888,-121.40331,264.0,0.0,329.7,-12.5,,,,,0.0,11.3,-0.7,114.0,0.0,143.0,-0.0,-0.01,1.0,99.0,12.0,41.0,0.0,30.0,3200.0,,,305.0,,,,,0.0,0.0,,,,,,,,,,,,,,,,,,,9.0,88.0,215.0,215.0,28.9,1.8,,1.8,10.4,,,14.6,0.0,0.0,-0.6,7.3,5.7,,,,,129.0,92.0,133.0,101.0,132.0,97.0,129.0,98.0,,,11.0,253.8,,10.4,35.0,4.993,,,0.653,0.73,8.6,87.6,,,8.0,L,,2026-03-19-N890GF-SN35347-17.4.0.23677-USER_LOG_DATA.csv,,,,,,,105.8,190.4,,,,,264.2,197.6,271.4,213.8,269.6,206.6,264.2,208.4,,,189.68,215.0,267.34999999999997,2.5269376181474477,1.7996219281663517,0.010361111111111113,0.506,420.8,True,2026-03-18 23:39:18 - Flight 10,0.225
38.06,1.0,10.0,2026-03-18 23:39:53,36.88888,-121.40331,264.0,0.0,329.7,-12.5,,,,,0.0,11.3,-0.7,114.0,0.0,143.0,-0.0,-0.01,1.0,99.0,-29.0,41.0,0.0,30.0,3200.0,,,305.0,,,,,0.0,0.0,,,,,,,,,,,,,,,,,,,17.0,88.0,213.0,213.0,28.7,1.9,,1.9,9.8,,,14.6,0.0,0.0,-0.6,7.3,5.7,,,,,129.0,93.0,133.0,102.0,132.0,98.0,129.0,98.0,,,11.0,253.8,,9.8,35.0,4.993,,,0.653,0.731,17.5,87.5,,,13.0,L,,2026-03-19-N890GF-SN35347-17.4.0.23677-USER_LOG_DATA.csv,,,,,,,105.8,190.4,,,,,264.2,199.4,271.4,215.6,269.6,208.4,264.2,208.4,,,189.5,213.0,267.34999999999997,2.5269376181474477,1.7996219281663517,0.010875000000000001,0.506,420.8,True,2026-03-18 23:39:18 - Flight 10,0.14615384615384613
39.06,1.0,10.0,2026-03-18 23:39:54,36.88888,-121.40331,264.0,0.0,329.7,-12.5,,,,,0.0,11.3,-0.6,114.0,0.0,143.0,-0.0,-0.01,1.0,99.0,-46.0,40.0,0.0,30.0,3206.0,,,305.0,,,,,0.0,0.0,,,,,,,,,,,,,,,,,,,18.0,87.0,210.0,210.0,28.7,2.1,,2.1,9.2,,,14.6,0.0,0.0,-0.6,7.3,5.7,,,,,129.0,93.0,133.0,102.0,132.0,98.0,129.0,99.0,,,11.0,253.8,,9.2,35.0,4.993,,,0.653,0.73,17.9,87.4,,,15.0,L,,2026-03-19-N890GF-SN35347-17.4.0.23677-USER_LOG_DATA.csv,,,,,,,104.0,188.6,,,,,264.2,199.4,271.4,215.6,269.6,208.4,264.2,210.2,,,189.32,210.0,267.34999999999997,2.5706730769230766,1.8134615384615385,0.011430555555555557,0.506,420.8,True,2026-03-18 23:39:18 - Flight 10,0.14
40.06,1.0,10.0,2026-03-18 23:39:55,36.88888,-121.40331,264.0,0.0,329.7,-12.5,,,,,0.0,11.3,-0.6,113.9,0.0,141.0,-0.1,-0.01,1.0,99.0,-62.0,41.0,0.0,30.0,3205.0,,,305.0,,,,,0.0,0.0,,,,,,,,,,,,,,,,,,,18.0,87.0,211.0,211.0,28.7,2.3,,2.3,8.6,,,14.6,0.0,0.0,-0.6,7.3,5.7,,,,,128.0,93.0,133.0,102.0,132.0,98.0,129.0,99.0,,,11.0,253.8,,8.6,35.0,4.993,,,0.653,0.73,18.2,87.4,,,17.0,L,,2026-03-19-N890GF-SN35347-17.4.0.23677-USER_LOG_DATA.csv,,,,,,,105.8,188.6,,,,,262.4,199.4,271.4,215.6,269.6,208.4,264.2,210.2,,,189.32,211.0,266.9,2.5226843100189034,1.7826086956521738,0.012041666666666668,0.506,420.8,True,2026-03-18 23:39:18 - Flight 10,0.13529411764705881
41.06,1.0,10.0,2026-03-18 23:39:56,36.88888,-121.40331,264.0,0.0,329.7,-12.5,,,,,0.0,11.3,-0.7,113.9,0.0,141.0,-0.1,-0.01,1.0,99.0,-47.0,40.0,0.0,30.0,3204.0,,,305.0,,,,,0.0,0.0,,,,,,,,,,,,,,,,,,,18.0,87.0,214.0,214.0,28.7,2.5,,2.5,8.3,,,14.6,0.0,0.0,-0.6,7.3,5.7,,,,,128.0,94.0,133.0,102.0,132.0,98.0,129.0,99.0,,,11.0,253.8,,8.3,35.0,4.993,,,0.653,0.73,18.4,87.4,,,19.0,L,,2026-03-19-N890GF-SN35347-17.4.0.23677-USER_LOG_DATA.csv,,,,,,,104.0,188.6,,,,,262.4,201.2,271.4,215.6,269.6,208.4,264.2,210.2,,,189.32,214.0,266.9,2.566346153846154,1.8134615384615385,0.012708333333333335,0.506,420.8,True,2026-03-18 23:39:18 - Flight 10,0.13157894736842105
42.06,1.0,10.0,2026-03-18 23:39:57,36.88888,-121.40331,264.0,0.0,329.7,-12.5,,,,,0.0,11.3,-0.7,113.9,0.0,140.0,-0.0,-0.01,1.0,99.0,-52.0,40.0,0.0,30.0,3203.0,,,305.0,,,,,0.0,0.0,,,,,,,,,,,,,,,,,,,18.0,87.0,211.0,211.0,28.7,2.5,,2.5,8.5,,,14.6,0.0,0.0,-0.6,7.3,5.7,,,,,128.0,94.0,133.0,102.0,132.0,98.0,129.0,99.0,,,11.0,219.3,,8.5,35.0,4.993,,,0.653,0.73,18.0,87.3,,,20.0,L,,2026-03-19-N890GF-SN35347-17.4.0.23677-USER_LOG_DATA.csv,,,,,,,104.0,188.6,,,,,262.4,201.2,271.4,215.6,269.6,208.4,264.2,210.2,,,189.14,211.0,266.9,2.566346153846154,1.8134615384615385,0.013402777777777779,0.506,420.8,True,2026-03-18 23:39:18 - Flight 10,0.125
43.06,1.0,10.0,2026-03-18 23:39:58,36.88888,-121.40331,264.0,0.0,329.7,-12.5,,,,,0.0,11.4,-0.7,113.9,0.0,139.0,-0.0,-0.01,1.0,99.0,-42.0,41.0,0.0,30.0,3203.0,,,305.0,,,,,0.0,0.0,,,,,,,,,,,,,,,,,,,18.0,87.0,210.0,210.0,28.7,2.3,,2.3,8.8,,,14.6,0.0,0.0,-0.6,7.3,5.7,,,,,128.0,94.0,133.0,102.0,132.0,98.0,129.0,99.0,,,11.0,170.7,,8.8,35.0,4.993,,,0.653,0.73,17.8,87.3,,,20.0,L,,2026-03-19-N890GF-SN35347-17.4.0.23677-USER_LOG_DATA.csv,,,,,,,105.8,188.6,,,,,262.4,201.2,271.4,215.6,269.6,208.4,264.2,210.2,,,189.14,210.0,266.9,2.5226843100189034,1.7826086956521738,0.014069444444444445,0.506,420.8,True,2026-03-18 23:39:18 - Flight 10,0.11499999999999999
44.06,1.0,10.0,2026-03-18 23:39:59,36.88888,-121.40331,264.0,0.0,329.7,-12.5,,,,,0.0,11.3,-0.6,113.9,0.0,139.0,-0.1,-0.01,1.0,99.0,-23.0,40.0,0.0,30.0,3202.0,,,305.0,,,,,0.0,0.0,,,,,,,,,,,,,,,,,,,16.0,94.0,167.0,167.0,28.6,2.0,,2.0,9.0,,,14.6,0.0,0.0,-0.6,7.3,5.7,,,,,130.0,97.0,135.0,105.0,133.0,101.0,130.0,101.0,,,11.0,132.9,,9.0,35.0,4.993,,,0.653,0.73,16.2,93.8,,,19.0,L,,2026-03-19-N890GF-SN35347-17.4.0.23677-USER_LOG_DATA.csv,,,,,,,104.0,201.2,,,,,266.0,206.6,275.0,221.0,271.4,213.8,266.0,213.8,,,200.83999999999997,167.0,269.6,2.5923076923076924,1.9346153846153844,0.014666666666666668,0.506,420.8,True,2026-03-18 23:39:18 - Flight 10,0.10526315789473684
45.06,1.0,10.0,2026-03-18 23:40:00,36.88889,-121.40331,264.0,0.0,329.7,-12.5,,,,,0.0,11.3,-0.6,114.0,0.0,139.0,-0.1,-0.01,1.0,99.0,0.0,40.0,0.0,30.0,3202.0,,,305.0,,,,,0.0,0.0,,,,,,,,,,,,,,,,,,,3.0,94.0,167.0,167.0,29.8,1.9,,1.9,8.3,,,14.6,0.0,0.0,-0.5,7.3,5.7,,,,,130.0,96.0,135.0,105.0,133.0,101.0,130.0,101.0,,,11.0,103.5,,8.3,35.0,4.993,,,0.653,0.731,3.3,93.6,,,,,,2026-03-19-N890GF-SN35347-17.4.0.23677-USER_LOG_DATA.csv,,,,,,,104.0,201.2,,,,,266.0,204.8,275.0,221.0,271.4,213.8,266.0,213.8,,,200.48,167.0,269.6,2.5923076923076924,1.9346153846153844,0.015208333333333334,0.506,420.8,True,2026-03-18 23:39:18 - Flight 10,
46.06,1.0,10.0,2026-03-18 23:40:01,36.88889,-121.40331,264.0,0.0,329.7,-12.5,,,,,0.0,11.3,-0.6,114.1,0.0,138.0,-0.0,-0.01,1.0,99.0,-57.0,40.0,0.0,30.0,3200.0,,,305.0,,,,,0.0,0.0,,,,,,,,,,,,,,,,,,,1.0,94.0,0.0,0.0,29.9,1.8,,1.8,8.2,,,14.6,0.0,0.0,-0.5,7.3,5.7,,,,,130.0,96.0,135.0,105.0,133.0,101.0,130.0,101.0,,,11.0,80.7,,8.2,35.0,4.993,,,0.653,0.731,0.8,93.5,,,,,,2026-03-19-N890GF-SN35347-17.4.0.23677-USER_LOG_DATA.csv,,,,,,,104.0,201.2,,,,,266.0,204.8,275.0,221.0,271.4,213.8,266.0,213.8,,,200.3,0.0,269.6,2.5923076923076924,1.9346153846153844,0.015722222222222224,0.506,420.8,True,2026-03-18 23:39:18 - Flight 10,
47.06,1.0,10.0,2026-03-18 23:40:02,36.88889,-121.40331,264.0,0.0,329.7,-12.5,,,,,0.0,11.3,-0.6,114.2,0.0,138.0,-0.0,-0.01,1.0,99.0,-51.0,40.0,0.0,30.0,3200.0,,,305.0,,,,,0.0,0.0,,,,,,,,,,,,,,,,,,,0.0,94.0,0.0,0.0,30.0,1.8,,1.8,8.2,,,14.6,0.0,0.0,-0.5,7.3,5.7,,,,,130.0,96.0,134.0,105.0,133.0,101.0,130.0,101.0,,,11.0,63.0,,8.2,35.0,4.993,,,0.653,0.73,0.0,93.6,,,,,,2026-03-19-N890GF-SN35347-17.4.0.23677-USER_LOG_DATA.csv,,,,,,,104.0,201.2,,,,,266.0,204.8,273.2,221.0,271.4,213.8,266.0,213.8,,,200.48,0.0,269.15,2.587980769230769,1.9346153846153844,0.016222222222222225,0.506,420.8,True,2026-03-18 23:39:18 - Flight 10,
48.06,1.0,10.0,2026-03-18 23:40:03,36.88889,-121.40331,264.0,0.0,329.7,-12.5,,,,,0.0,11.3,-0.6,114.2,0.0,136.0,-0.0,-0.01,1.0,99.0,-79.0,41.0,0.0,30.0,3198.0,,,305.0,,,,,0.0,0.0,,,,,,,,,,,,,,,,,,,0.0,94.0,0.0,0.0,30.0,1.6,,1.6,8.1,,,14.6,0.0,0.0,-0.5,7.3,5.7,,,,,130.0,96.0,135.0,105.0,133.0,101.0,130.0,101.0,,,11.0,49.2,,8.1,35.0,4.993,,,0.653,0.731,0.0,93.6,,,,,,2026-03-19-N890GF-SN35347-17.4.0.23677-USER_LOG_DATA.csv,,,,,,,105.8,201.2,,,,,266.0,204.8,275.0,221.0,271.4,213.8,266.0,213.8,,,200.48,0.0,269.6,2.5482041587901705,1.9017013232514177,0.016694444444444446,0.506,420.8,True,2026-03-18 23:39:18 - Flight 10,
49.06,1.0,10.0,2026-03-18 23:40:04,36.88889,-121.40331,264.0,0.0,329.7,-12.5,,,,,0.0,11.3,-0.6,114.1,0.0,135.0,-0.1,-0.01,1.0,99.0,-67.0,41.0,0.0,30.0,3197.0,,,305.0,,,,,0.0,0.0,,,,,,,,,,,,,,,,,,,0.0,94.0,0.0,0.0,30.2,1.5,,1.5,8.1,,,14.6,0.0,0.0,-0.4,7.3,5.7,,,,,130.0,96.0,134.0,104.0,133.0,101.0,130.0,101.0,,,11.0,38.5,,8.1,35.0,4.993,,,0.653,0.73,0.0,93.6,,,,,,2026-03-19-N890GF-SN35347-17.4.0.23677-USER_LOG_DATA.csv,,,,,,,105.8,201.2,,,,,266.0,204.8,273.2,219.2,271.4,213.8,266.0,213.8,,,200.48,0.0,269.15,2.5439508506616257,1.9017013232514177,0.017125,0.506,420.8,True,2026-03-18 23:39:18 - Flight 10,
50.06,1.0,10.0,2026-03-18 23:40:05,36.88889,-121.40331,264.0,0.0,329.7,-12.5,,,,,0.0,11.3,-0.7,114.2,0.0,133.0,-0.1,-0.01,1.0,99.0,-99.0,41.0,0.0,30.0,3195.0,,,305.0,,,,,0.0,0.0,,,,,,,,,,,,,,,,,,,0.0,94.0,0.0,0.0,30.2,1.4,,1.4,8.1,,,14.6,0.0,0.0,-0.3,7.3,5.7,,,,,130.0,96.0,134.0,104.0,133.0,101.0,130.0,101.0,,,11.0,30.2,,8.1,35.0,4.993,,,0.653,0.731,0.0,93.6,,,,,,2026-03-19-N890GF-SN35347-17.4.0.23677-USER_LOG_DATA.csv,,,,,,,105.8,201.2,,,,,266.0,204.8,273.2,219.2,271.4,213.8,266.0,213.8,,,200.48,0.0,269.15,2.5439508506616257,1.9017013232514177,0.017527777777777778,0.506,420.8,True,2026-03-18 23:39:18 - Flight 10,
51.06,1.0,10.0,2026-03-18 23:40:06,36.88889,-121.40331,264.0,0.0,329.7,-12.5,,,,,0.0,11.3,-0.7,114.2,0.0,132.0,-0.1,-0.01,1.0,99.0,-90.0,41.0,0.0,30.0,3194.0,,,305.0,,,,,0.0,0.0,,,,,,,,,,,,,,,,,,,0.0,94.0,0.0,0.0,30.2,1.3,,1.3,8.1,,,14.6,0.0,0.0,-0.3,7.3,5.7,,,,,129.0,96.0,134.0,104.0,133.0,101.0,130.0,101.0,,,11.0,23.7,,8.1,35.0,4.993,,,0.653,0.731,0.0,93.6,,,,,,2026-03-19-N890GF-SN35347-17.4.0.23677-USER_LOG_DATA.csv,,,,,,,105.8,201.2,,,,,264.2,204.8,273.2,219.2,271.4,213.8,266.0,213.8,,,200.48,0.0,268.7,2.5396975425330814,1.9017013232514177,0.017902777777777778,0.506,420.8,True,2026-03-18 23:39:18 - Flight 10,
52.06,1.0,10.0,2026-03-18 23:40:07,36.88889,-121.40331,264.0,0.0,329.7,-12.5,,,,,0.0,11.4,-0.7,114.2,0.0,131.0,-0.1,-0.01,1.0,99.0,-67.0,41.0,0.0,30.0,3194.0,,,305.0,,,,,0.0,0.0,,,,,,,,,,,,,,,,,,,0.0,94.0,0.0,0.0,30.2,1.3,,1.3,8.0,,,14.6,0.0,0.0,-0.3,7.3,5.7,,,,,129.0,96.0,134.0,104.0,133.0,101.0,130.0,101.0,,,11.0,18.7,,8.0,35.0,4.993,,,0.653,0.731,0.0,93.6,,,,,,2026-03-19-N890GF-SN35347-17.4.0.23677-USER_LOG_DATA.csv,,,,,,,105.8,201.2,,,,,264.2,204.8,273.2,219.2,271.4,213.8,266.0,213.8,,,200.48,0.0,268.7,2.5396975425330814,1.9017013232514177,0.01826388888888889,0.506,420.8,True,2026-03-18 23:39:18 - Flight 10,
53.06,1.0,10.0,2026-03-18 23:40:08,36.88889,-121.40331,264.0,0.0,329.7,-12.5,,,,,0.0,11.4,-0.7,114.1,0.0,130.0,-0.1,-0.01,1.0,99.0,-86.0,41.0,0.0,30.0,3194.0,,,305.0,,,,,0.0,0.0,,,,,,,,,,,,,,,,,,,0.0,94.0,0.0,0.0,30.2,1.1,,1.1,8.0,,,14.6,0.0,0.0,-0.3,7.3,5.7,,,,,129.0,96.0,134.0,104.0,133.0,101.0,130.0,101.0,,,11.0,14.8,,8.0,35.0,4.993,,,0.653,0.73,0.0,93.6,,,,,,2026-03-19-N890GF-SN35347-17.4.0.23677-USER_LOG_DATA.csv,,,,,,,105.8,201.2,,,,,264.2,204.8,273.2,219.2,271.4,213.8,266.0,213.8,,,200.48,0.0,268.7,2.5396975425330814,1.9017013232514177,0.018597222222222223,0.506,420.8,True,2026-03-18 23:39:18 - Flight 10,
54.06,1.0,10.0,2026-03-18 23:40:09,36.88889,-121.40331,264.0,0.0,329.7,-12.5,,,,,0.0,11.3,-0.8,114.1,0.0,128.0,-0.1,-0.01,1.0,99.0,-88.0,41.0,0.0,30.0,3193.0,,,305.0,,,,,0.0,0.0,,,,,,,,,,,,,,,,,,,0.0,94.0,0.0,0.0,30.2,0.9,,0.9,8.0,,,14.6,0.0,0.0,-0.4,7.3,5.7,,,,,129.0,95.0,134.0,104.0,133.0,101.0,130.0,101.0,,,11.0,11.8,,8.0,35.0,4.993,,,0.653,0.73,0.0,93.6,,,,,,2026-03-19-N890GF-SN35347-17.4.0.23677-USER_LOG_DATA.csv,,,,,,,105.8,201.2,,,,,264.2,203.0,273.2,219.2,271.4,213.8,266.0,213.8,,,200.48,0.0,268.7,2.5396975425330814,1.9017013232514177,0.018875000000000003,0.506,420.8,True,2026-03-18 23:39:18 - Flight 10,
55.06,1.0,10.0,2026-03-18 23:40:10,36.88889,-121.40331,264.0,0.0,329.7,-12.5,,,,,0.0,11.4,-0.7,114.2,0.0,128.0,-0.0,-0.01,1.0,99.0,-52.0,41.0,0.0,30.0,3193.0,,,305.0,,,,,0.0,0.0,,,,,,,,,,,,,,,,,,,0.0,94.0,0.0,0.0,30.2,0.8,,0.8,8.0,,,14.6,0.0,0.0,-0.4,7.3,5.7,,,,,129.0,95.0,134.0,104.0,133.0,100.0,130.0,101.0,,,11.0,9.4,,8.0,35.0,4.993,,,0.653,0.731,0.0,93.6,,,,,,2026-03-19-N890GF-SN35347-17.4.0.23677-USER_LOG_DATA.csv,,,,,,,105.8,201.2,,,,,264.2,203.0,273.2,219.2,271.4,212.0,266.0,213.8,,,200.48,0.0,268.7,2.5396975425330814,1.9017013232514177,0.019111111111111113,0.506,420.8,True,2026-03-18 23:39:18 - Flight 10,
56.06,1.0,10.0,2026-03-18 23:40:11,36.88889,-121.40332,264.0,0.0,329.7,-12.5,,,,,0.0,11.4,-0.8,114.1,0.0,128.0,-0.0,-0.01,1.0,99.0,-13.0,41.0,0.0,30.0,3193.0,,,305.0,,,,,0.0,0.0,,,,,,,,,,,,,,,,,,,0.0,94.0,0.0,0.0,30.2,0.6,,0.6,8.0,,,14.6,0.0,0.0,-0.4,7.3,5.7,,,,,129.0,95.0,134.0,104.0,133.0,100.0,130.0,101.0,,,11.0,7.6,,8.0,35.0,4.993,,,0.653,0.731,0.0,93.6,,,,,,2026-03-19-N890GF-SN35347-17.4.0.23677-USER_LOG_DATA.csv,,,,,,,105.8,201.2,,,,,264.2,203.0,273.2,219.2,271.4,212.0,266.0,213.8,,,200.48,0.0,268.7,2.5396975425330814,1.9017013232514177,0.01930555555555556,0.506,420.8,True,2026-03-18 23:39:18 - Flight 10,
57.06,1.0,10.0,2026-03-18 23:40:12,36.88889,-121.40332,264.0,0.0,329.7,-12.5,,,,,0.0,11.4,-0.7,114.1,0.0,128.0,-0.0,-0.01,1.0,99.0,-14.0,41.0,0.0,30.0,3192.0,,,305.0,,,,,0.0,0.0,,,,,,,,,,,,,,,,,,,0.0,94.0,0.0,0.0,30.2,0.5,,0.5,8.0,,,14.6,0.0,0.0,-0.4,7.3,5.7,,,,,129.0,95.0,134.0,104.0,133.0,100.0,130.0,101.0,,,11.0,6.1,,8.0,35.0,4.993,,,0.653,0.731,0.0,93.6,,,,,,2026-03-19-N890GF-SN35347-17.4.0.23677-USER_LOG_DATA.csv,,,,,,,105.8,201.2,,,,,264.2,203.0,273.2,219.2,271.4,212.0,266.0,213.8,,,200.48,0.0,268.7,2.5396975425330814,1.9017013232514177,0.019458333333333334,0.506,420.8,True,2026-03-18 23:39:18 - Flight 10,
58.06,1.0,10.0,2026-03-18 23:40:13,36.88889,-121.40332,264.0,0.0,329.7,-12.5,,,,,0.0,11.4,-0.7,114.1,0.0,128.0,-0.1,-0.01,1.0,99.0,-1.0,41.0,0.0,30.0,3192.0,,,305.0,,,,,0.0,0.0,,,,,,,,,,,,,,,,,,,0.0,94.0,0.0,0.0,30.2,0.5,,0.5,8.0,,,14.6,0.0,0.0,-0.4,7.3,5.7,,,,,129.0,95.0,134.0,104.0,133.0,100.0,130.0,100.0,,,11.0,5.0,,8.0,35.0,4.993,,,0.653,0.731,0.0,93.6,,,,,,2026-03-19-N890GF-SN35347-17.4.0.23677-USER_LOG_DATA.csv,,,,,,,105.8,201.2,,,,,264.2,203.0,273.2,219.2,271.4,212.0,266.0,212.0,,,200.48,0.0,268.7,2.5396975425330814,1.9017013232514177,0.019597222222222224,0.506,420.8,True,2026-03-18 23:39:18 - Flight 10,
59.06,1.0,10.0,2026-03-18 23:40:14,36.88889,-121.40332,264.0,0.0,329.7,-12.5,,,,,0.0,11.4,-0.7,114.1,0.0,128.0,-0.0,-0.01,1.0,99.0,-13.0,41.0,0.0,30.0,3192.0,,,305.0,,,,,0.0,0.0,,,,,,,,,,,,,,,,,,,0.0,94.0,0.0,0.0,30.2,0.4,,0.4,8.0,,,14.6,0.0,0.0,-0.4,7.3,5.7,,,,,129.0,95.0,134.0,104.0,132.0,100.0,130.0,100.0,,,11.0,4.2,,8.0,35.0,4.993,,,0.653,0.73,0.0,93.6,,,,,,2026-03-19-N890GF-SN35347-17.4.0.23677-USER_LOG_DATA.csv,,,,,,,105.8,201.2,,,,,264.2,203.0,273.2,219.2,269.6,212.0,266.0,212.0,,,200.48,0.0,268.25,2.535444234404537,1.9017013232514177,0.019722222222222224,0.506,420.8,True,2026-03-18 23:39:18 - Flight 10,
60.06,1.0,10.0,2026-03-18 23:40:15,36.88889,-121.40332,264.0,0.0,329.7,-12.5,,,,,0.0,11.4,-0.7,114.0,0.0,128.0,-0.0,-0.01,1.0,99.0,-25.0,41.0,0.0,30.0,3192.0,,,305.0,,,,,0.0,0.0,,,,,,,,,,,,,,,,,,,1.0,82.0,0.0,0.0,30.2,0.4,,0.4,7.8,,,14.6,0.0,0.0,-0.6,7.3,5.7,,,,,126.0,91.0,131.0,99.0,130.0,96.0,127.0,96.0,,,11.0,3.5,,7.8,35.0,4.993,,,0.652,0.73,0.9,82.0,,,,,,2026-03-19-N890GF-SN35347-17.4.0.23677-USER_LOG_DATA.csv,,,,,,,105.8,179.6,,,,,258.8,195.8,267.8,210.2,266.0,204.8,260.6,204.8,,,179.6,0.0,263.3,2.4886578449905485,1.6975425330812854,0.019833333333333335,0.506,420.8,True,2026-03-18 23:39:18 - Flight 10,
61.06,1.0,10.0,2026-03-18 23:40:16,36.88889,-121.40332,264.0,0.0,329.7,-12.5,,,,,0.0,11.3,-0.7,113.9,0.0,127.0,-0.1,-0.0,1.0,99.0,-54.0,41.0,0.0,30.0,3192.0,,,305.0,,,,,0.0,0.0,,,,,,,,,,,,,,,,,,,14.0,87.0,240.0,240.0,29.9,0.4,,0.4,8.7,,,14.6,0.0,0.0,-0.6,7.3,5.7,,,,,127.0,93.0,132.0,101.0,131.0,97.0,128.0,98.0,,,11.0,2.9,,8.7,35.0,4.993,,,0.656,0.73,13.8,87.1,,,,,,2026-03-19-N890GF-SN35347-17.4.0.23677-USER_LOG_DATA.csv,,,,,,,105.8,188.6,,,,,260.6,199.4,269.6,213.8,267.8,206.6,262.4,208.4,,,188.78,240.0,265.1,2.505671077504726,1.7826086956521738,0.019944444444444445,0.506,420.8,True,2026-03-18 23:39:18 - Flight 10,
62.06,1.0,10.0,2026-03-18 23:40:17,36.88889,-121.40332,263.0,0.1,329.7,-12.5,,,,,0.0,11.3,-0.8,114.0,0.0,125.0,-0.0,-0.01,0.9,99.0,-68.0,41.0,0.0,30.0,3192.0,,,305.0,,,,,0.0,0.0,,,,,,,,,,,,,,,,,,,55.0,94.0,1131.0,1131.0,24.9,1.3,,1.3,7.6,,,14.6,0.0,0.0,-0.6,7.3,5.7,,,,,129.0,120.0,134.0,117.0,132.0,139.0,130.0,148.0,,,11.0,2.5,,7.6,35.0,4.993,,,0.657,0.735,54.6,93.6,,,4.0,L,,2026-03-19-N890GF-SN35347-17.4.0.23677-USER_LOG_DATA.csv,,,,,,,105.8,201.2,,,,,264.2,248.0,273.2,242.6,269.6,282.2,266.0,298.4,,,200.48,1131.0,268.25,2.535444234404537,1.9017013232514177,0.020180555555555556,0.5903333333333333,420.8,True,2026-03-18 23:39:18 - Flight 10,0.325
63.06,1.0,10.0,2026-03-18 23:40:18,36.8889,-121.40332,263.0,0.1,329.7,-12.5,,,,,0.0,11.3,-0.7,114.0,0.0,125.0,-0.0,-0.01,1.0,99.0,42.0,41.0,0.0,30.0,3189.0,,,305.0,,,,,0.0,0.0,,,,,,,,,,,,,,,,,,,62.0,93.0,1430.0,1430.0,20.2,2.0,,2.0,7.5,,,14.6,0.0,0.0,-0.6,7.3,5.7,,,,,129.0,187.0,134.0,165.0,132.0,176.0,130.0,197.0,,,11.0,2.2,,7.5,35.0,4.993,,,0.658,0.734,61.9,93.4,,,10.0,P,,2026-03-19-N890GF-SN35347-17.4.0.23677-USER_LOG_DATA.csv,,,,,,,105.8,199.4,,,,,264.2,368.6,273.2,329.0,269.6,348.8,266.0,386.6,,,200.12,1430.0,268.25,2.535444234404537,1.88468809073724,0.02063888888888889,0.7589999999999999,420.8,True,2026-03-18 23:39:18 - Flight 10,0.2
64.06,1.0,10.0,2026-03-18 23:40:19,36.8889,-121.40332,261.0,0.1,329.7,-12.5,,,,,0.0,11.3,-0.6,114.0,0.0,125.0,-0.1,-0.0,1.0,99.0,54.0,41.0,0.0,30.0,3189.0,,,305.0,,,,,0.0,0.0,,,,,,,,,,,,,,,,,,,55.0,93.0,1103.0,1103.0,19.3,2.4,,2.4,7.4,,,14.6,0.0,0.0,-0.5,7.3,5.7,,,,,129.0,231.0,134.0,208.0,133.0,206.0,130.0,228.0,,,11.0,2.0,,7.4,35.0,4.993,,,0.656,0.735,55.4,93.4,,,,,,2026-03-19-N890GF-SN35347-17.4.0.23677-USER_LOG_DATA.csv,,,,,,,105.8,199.4,,,,,264.2,447.8,273.2,406.4,271.4,402.8,266.0,442.4,,,200.12,1103.0,268.7,2.5396975425330814,1.88468809073724,0.02125,0.9276666666666666,420.8,True,2026-03-18 23:39:18 - Flight 10,
65.06,1.0,10.0,2026-03-18 23:40:20,36.8889,-121.40332,261.0,0.1,329.7,-12.5,,,,,0.0,11.2,-0.6,114.1,0.0,125.0,-0.0,-0.01,0.9,99.0,33.0,41.0,0.0,30.0,3189.0,,,305.0,,,,,0.0,0.0,,,,,,,,,,,,,,,,,,,59.0,93.0,1358.0,1358.0,20.9,2.9,,2.9,7.4,,,14.6,0.0,0.0,-0.5,7.3,5.7,,,,,129.0,258.0,134.0,233.0,132.0,200.0,130.0,260.0,,,11.0,1.8,,7.4,35.0,4.993,,,0.658,0.736,59.0,93.4,,,11.0,R,,2026-03-19-N890GF-SN35347-17.4.0.23677-USER_LOG_DATA.csv,,,,,,,105.8,199.4,,,,,264.2,496.4,273.2,451.4,269.6,392.0,266.0,500.0,,,200.12,1358.0,268.25,2.535444234404537,1.88468809073724,0.021986111111111113,1.0963333333333334,420.8,True,2026-03-18 23:39:18 - Flight 10,0.2636363636363636
66.06,1.0,10.0,2026-03-18 23:40:21,36.8889,-121.40332,261.0,0.0,329.7,-12.5,,,,,0.0,11.3,-0.7,114.0,0.0,125.0,-0.1,-0.01,1.0,99.0,58.0,41.0,0.0,30.0,3189.0,,,305.0,,,,,0.0,0.0,,,,,,,,,,,,,,,,,,,54.0,93.0,1019.0,1019.0,19.2,4.3,,4.3,7.7,,,14.6,0.0,0.0,-0.4,7.3,5.7,,,,,129.0,295.0,135.0,258.0,132.0,233.0,131.0,287.0,,,11.0,1.6,,7.7,35.0,4.993,,,0.656,0.729,54.1,93.4,,,,,,2026-03-19-N890GF-SN35347-17.4.0.23677-USER_LOG_DATA.csv,,,,,,,105.8,199.4,,,,,264.2,563.0,275.0,496.4,269.6,451.4,267.8,548.6,,,200.12,1019.0,269.15000000000003,2.543950850661626,1.88468809073724,0.022986111111111113,1.1806666666666665,420.8,True,2026-03-18 23:39:18 - Flight 10,
67.06,1.0,10.0,2026-03-18 23:40:22,36.8889,-121.40332,261.0,0.0,329.7,-12.5,,,,,0.0,11.3,-0.7,114.0,0.0,125.0,-0.1,-0.01,1.0,99.0,33.0,41.0,0.0,30.0,3189.0,,,305.0,,,,,0.0,0.0,,,,,,,,,,,,,,,,,,,44.0,93.0,639.0,639.0,25.4,4.6,,4.6,8.8,,,14.6,0.0,0.0,-0.3,7.3,5.7,,,,,130.0,277.0,135.0,245.0,132.0,232.0,131.0,268.0,,,11.0,1.6,,8.8,35.0,4.993,,,0.653,0.728,43.6,93.4,,,12.0,R,,2026-03-19-N890GF-SN35347-17.4.0.23677-USER_LOG_DATA.csv,,,,,,,105.8,199.4,,,,,266.0,530.6,275.0,473.0,269.6,449.6,267.8,514.4,,,200.12,639.0,269.6,2.5482041587901705,1.88468809073724,0.024222222222222225,1.1806666666666665,420.8,True,2026-03-18 23:39:18 - Flight 10,0.3833333333333333
68.06,1.0,10.0,2026-03-18 23:40:23,36.8889,-121.40332,261.0,0.3,329.7,-12.5,,,,,0.0,11.3,-0.6,113.9,0.0,125.0,-0.1,-0.0,1.0,99.0,68.0,41.0,0.0,30.0,3189.0,,,305.0,,,,,0.0,0.0,,,,,,,,,,,,,,,,,,,52.0,93.0,908.0,908.0,22.1,4.1,,4.1,14.9,,,14.6,0.0,0.0,-0.3,7.3,5.7,,,,,130.0,289.0,135.0,265.0,133.0,257.0,131.0,282.0,,,11.0,1.5,,14.9,35.0,4.993,,,0.656,0.729,51.5,93.5,,,19.0,R,,2026-03-19-N890GF-SN35347-17.4.0.23677-USER_LOG_DATA.csv,,,,,,,105.8,199.4,,,,,266.0,552.2,275.0,509.0,271.4,494.6,267.8,539.6,,,200.3,908.0,270.05,2.552457466918715,1.88468809073724,0.025430555555555557,1.4336666666666666,420.8,True,2026-03-18 23:39:18 - Flight 10,0.2157894736842105
69.06,1.0,10.0,2026-03-18 23:40:24,36.8889,-121.40332,261.0,0.2,329.7,-12.5,,,,,0.0,11.4,-0.5,113.9,0.0,125.0,-0.1,-0.01,1.1,99.0,56.0,41.0,0.0,30.0,3189.0,,,305.0,,,,,0.0,0.0,,,,,,,,,,,,,,,,,,,40.0,94.0,439.0,439.0,26.5,4.1,,4.1,16.2,,,14.6,0.0,0.0,-0.3,7.3,5.7,,,,,130.0,273.0,135.0,253.0,133.0,244.0,131.0,268.0,,,11.0,1.4,,16.2,35.0,4.993,,,0.654,0.731,39.8,93.5,,,18.0,R,,2026-03-19-N890GF-SN35347-17.4.0.23677-USER_LOG_DATA.csv,,,,,,,105.8,201.2,,,,,266.0,523.4,275.0,487.4,271.4,471.2,267.8,514.4,,,200.3,439.0,270.05,2.552457466918715,1.9017013232514177,0.026569444444444444,1.8553333333333333,420.8,True,2026-03-18 23:39:18 - Flight 10,0.22777777777777775
70.06,1.0,10.0,2026-03-18 23:40:25,36.88889,-121.40332,261.0,0.1,329.7,-12.5,,,,,0.0,11.3,-0.5,114.0,0.0,125.0,0.0,-0.02,1.0,99.0,58.0,41.0,0.0,30.0,3189.0,,,305.0,,,,,0.0,0.0,,,,,,,,,,,,,,,,,,,62.0,94.0,1414.0,1414.0,22.6,4.3,,4.3,17.8,,,14.6,0.0,0.0,-0.3,7.3,5.7,,,,,130.0,299.0,135.0,276.0,133.0,254.0,131.0,287.0,,,11.0,1.3,,17.8,35.0,4.993,,,0.659,0.731,62.3,93.5,,,26.0,R,,2026-03-19-N890GF-SN35347-17.4.0.23677-USER_LOG_DATA.csv,,,,,,,105.8,201.2,,,,,266.0,570.2,275.0,528.8,271.4,489.2,267.8,548.6,,,200.3,1414.0,270.05,2.552457466918715,1.9017013232514177,0.02773611111111111,2.1083333333333334,420.8,True,2026-03-18 23:39:18 - Flight 10,0.16538461538461538
71.06,1.0,10.0,2026-03-18 23:40:26,36.88889,-121.40332,261.0,0.0,329.7,-12.5,,,,,0.0,11.3,-0.6,114.0,0.0,130.0,-0.0,-0.01,1.0,99.0,125.0,41.0,0.0,30.0,3189.0,,,305.0,,,,,0.0,0.0,,,,,,,,,,,,,,,,,,,65.0,94.0,1511.0,1511.0,18.6,4.1,,4.1,20.2,,,14.6,0.0,0.0,-0.3,7.3,5.7,,,,,130.0,334.0,135.0,325.0,133.0,290.0,131.0,326.0,,,11.0,1.3,,20.2,35.0,4.993,,,0.657,0.732,65.0,93.6,,,21.0,R,,2026-03-19-N890GF-SN35347-17.4.0.23677-USER_LOG_DATA.csv,,,,,,,105.8,201.2,,,,,266.0,633.2,275.0,617.0,271.4,554.0,267.8,618.8,,,200.48,1511.0,270.05,2.552457466918715,1.9017013232514177,0.028902777777777777,2.1926666666666668,420.8,True,2026-03-18 23:39:18 - Flight 10,0.1952380952380952
72.06,1.0,10.0,2026-03-18 23:40:27,36.88889,-121.40332,261.0,0.1,329.7,-12.5,,,,,0.0,11.2,-0.6,114.1,0.0,130.0,-0.0,-0.02,1.0,99.0,70.0,41.0,0.0,30.0,3195.0,,,305.0,,,,,0.0,0.0,,,,,,,,,,,,,,,,,,,61.0,94.0,1370.0,1370.0,20.0,3.9,,3.9,20.3,,,14.6,0.0,0.0,-0.3,7.3,5.7,,,,,130.0,352.0,136.0,342.0,133.0,296.0,132.0,343.0,,,11.0,1.3,,20.3,35.0,4.993,,,0.658,0.732,61.1,93.7,,,14.0,R,,2026-03-19-N890GF-SN35347-17.4.0.23677-USER_LOG_DATA.csv,,,,,,,105.8,201.2,,,,,266.0,665.6,276.8,647.6,271.4,564.8,269.6,649.4,,,200.66000000000003,1370.0,270.95,2.5609640831758034,1.9017013232514177,0.03001388888888889,2.2769999999999997,420.8,True,2026-03-18 23:39:18 - Flight 10,0.2785714285714286
73.06,1.0,10.0,2026-03-18 23:40:28,36.88889,-121.40332,261.0,0.1,329.7,-12.5,,,,,0.0,11.2,-0.7,114.1,0.0,130.0,-0.1,-0.01,0.9,99.0,55.0,41.0,0.0,30.0,3195.0,,,305.0,,,,,0.0,0.0,,,,,,,,,,,,,,,,,,,59.0,94.0,1264.0,1264.0,18.5,3.7,,3.7,20.3,,,14.6,0.0,0.0,-0.4,7.3,5.7,,,,,131.0,377.0,136.0,365.0,133.0,302.0,132.0,358.0,,,11.0,1.3,,20.3,35.0,4.993,,,0.656,0.729,58.9,93.8,,,,,,2026-03-19-N890GF-SN35347-17.4.0.23677-USER_LOG_DATA.csv,,,,,,,105.8,201.2,,,,,267.8,710.6,276.8,689.0,271.4,575.6,269.6,676.4,,,200.83999999999997,1264.0,271.4,2.5652173913043477,1.9017013232514177,0.031069444444444445,2.4456666666666664,420.8,True,2026-03-18 23:39:18 - Flight 10,
74.06,1.0,10.0,2026-03-18 23:40:29,36.88889,-121.40332,261.0,0.1,329.7,-12.5,,,,,0.0,11.2,-0.7,114.0,0.0,130.0,-0.1,-0.01,0.9,99.0,9.0,41.0,0.0,30.0,3195.0,,,305.0,,,,,0.0,0.0,,,,,,,,,,,,,,,,,,,52.0,94.0,995.0,995.0,13.6,3.4,,3.4,20.4,,,14.6,0.0,0.0,-0.4,7.3,5.7,,,,,131.0,367.0,136.0,374.0,133.0,316.0,132.0,365.0,,,11.0,1.2,,20.4,35.0,4.993,,,0.653,0.729,51.6,93.8,,,,,,2026-03-19-N890GF-SN35347-17.4.0.23677-USER_LOG_DATA.csv,,,,,,,105.8,201.2,,,,,267.8,692.6,276.8,705.2,271.4,600.8,269.6,689.0,,,200.83999999999997,995.0,271.4,2.5652173913043477,1.9017013232514177,0.03205555555555556,2.614333333333333,420.8,True,2026-03-18 23:39:18 - Flight 10,
75.06,1.0,10.0,2026-03-18 23:40:30,36.88889,-121.40332,260.0,0.1,329.7,-12.5,,,,,0.0,11.3,-0.6,114.0,0.0,130.0,-0.1,-0.01,0.9,99.0,-18.0,41.0,0.0,30.0,3195.0,,,305.0,,,,,0.0,0.0,,,,,,,,,,,,,,,,,,,45.0,94.0,677.0,677.0,15.6,3.2,,3.2,20.4,,,14.6,0.0,0.0,-0.4,7.3,5.7,,,,,131.0,375.0,137.0,391.0,133.0,308.0,132.0,363.0,,,11.0,1.2,,20.4,35.0,4.993,,,0.654,0.728,45.5,93.9,,,,,,2026-03-19-N890GF-SN35347-17.4.0.23677-USER_LOG_DATA.csv,,,,,,,105.8,201.2,,,,,267.8,707.0,278.6,735.8,271.4,586.4,269.6,685.4,,,201.02,677.0,271.85,2.5694706994328924,1.9017013232514177,0.03297222222222222,2.783,420.8,True,2026-03-18 23:39:18 - Flight 10,
76.06,1.0,10.0,2026-03-18 23:40:31,36.88889,-121.40332,260.0,0.1,329.7,-12.5,,,,,0.0,11.3,-0.5,114.1,0.0,130.0,-0.1,-0.01,1.0,99.0,1.0,41.0,0.0,30.0,3195.0,,,305.0,,,,,0.0,0.0,,,,,,,,,,,,,,,,,,,50.0,94.0,933.0,933.0,15.7,3.1,,3.1,20.1,,,14.6,0.0,0.0,-0.4,7.3,5.7,,,,,132.0,373.0,137.0,387.0,133.0,327.0,133.0,369.0,,,11.0,1.2,,20.1,35.0,4.993,,,0.656,0.731,49.7,94.0,,,,,,2026-03-19-N890GF-SN35347-17.4.0.23677-USER_LOG_DATA.csv,,,,,,,105.8,201.2,,,,,269.6,703.4,278.6,728.6,271.4,620.6,271.4,696.2,,,201.2,933.0,272.75,2.577977315689981,1.9017013232514177,0.03384722222222222,2.9516666666666667,420.8,True,2026-03-18 23:39:18 - Flight 10,
77.06,1.0,10.0,2026-03-18 23:40:32,36.88889,-121.40332,260.0,0.0,329.7,-12.5,,,,,0.0,11.3,-0.6,114.1,0.0,130.0,-0.0,-0.01,1.0,99.0,35.0,41.0,0.0,30.0,3195.0,,,305.0,,,,,0.0,0.0,,,,,,,,,,,,,,,,,,,48.0,94.0,863.0,863.0,14.8,3.0,,3.0,19.9,,,14.6,0.0,0.0,-0.4,7.3,5.7,,,,,132.0,366.0,137.0,389.0,133.0,339.0,133.0,386.0,,,11.0,1.2,,19.9,35.0,4.993,,,0.656,0.728,48.4,94.0,,,,,,2026-03-19-N890GF-SN35347-17.4.0.23677-USER_LOG_DATA.csv,,,,,,,105.8,201.2,,,,,269.6,690.8,278.6,732.2,271.4,642.2,271.4,726.8,,,201.2,863.0,272.75,2.577977315689981,1.9017013232514177,0.034694444444444444,3.036,420.8,True,2026-03-18 23:39:18 - Flight 10,
78.06,1.0,10.0,2026-03-18 23:40:33,36.88889,-121.40332,260.0,0.1,329.7,-12.5,,,,,0.0,11.4,-0.5,114.1,0.0,130.0,-0.0,-0.01,1.0,99.0,12.0,41.0,0.0,30.0,3195.0,,,305.0,,,,,0.0,0.0,,,,,,,,,,,,,,,,,,,49.0,94.0,880.0,880.0,15.0,2.9,,2.9,19.8,,,14.6,0.0,0.0,-0.4,7.3,5.7,,,,,132.0,363.0,137.0,388.0,134.0,345.0,133.0,391.0,,,11.0,1.2,,19.8,35.0,4.993,,,0.657,0.729,49.3,94.1,,,,,,2026-03-19-N890GF-SN35347-17.4.0.23677-USER_LOG_DATA.csv,,,,,,,105.8,201.2,,,,,269.6,685.4,278.6,730.4,273.2,653.0,271.4,735.8,,,201.38,880.0,273.2,2.5822306238185253,1.9017013232514177,0.035513888888888887,3.120333333333333,420.8,True,2026-03-18 23:39:18 - Flight 10,
79.06,1.0,10.0,2026-03-18 23:40:34,36.88889,-121.40332,260.0,0.1,329.7,-12.5,,,,,0.0,11.3,-0.5,114.1,0.0,131.0,-0.0,-0.01,0.9,99.0,27.0,41.0,0.0,30.0,3195.0,,,305.0,,,,,0.0,0.0,,,,,,,,,,,,,,,,,,,50.0,94.0,915.0,915.0,14.8,2.8,,2.8,19.7,,,14.6,0.0,0.0,-0.4,7.3,5.7,,,,,132.0,383.0,137.0,394.0,134.0,346.0,133.0,398.0,,,11.0,1.2,,19.7,35.0,4.993,,,0.654,0.728,50.0,94.1,,,,,,2026-03-19-N890GF-SN35347-17.4.0.23677-USER_LOG_DATA.csv,,,,,,,105.8,201.2,,,,,269.6,721.4,278.6,741.2,273.2,654.8,271.4,748.4,,,201.38,915.0,273.2,2.5822306238185253,1.9017013232514177,0.036305555555555556,3.2889999999999997,420.8,True,2026-03-18 23:39:18 - Flight 10,
80.06,1.0,10.0,2026-03-18 23:40:35,36.88889,-121.40332,260.0,0.0,329.7,-12.5,,,,,0.0,11.3,-0.6,114.0,0.0,131.0,-0.1,-0.01,1.0,99.0,32.0,41.0,0.0,30.0,3195.0,,,305.0,,,,,0.0,0.0,,,,,,,,,,,,,,,,,,,50.0,94.0,906.0,906.0,14.5,2.8,,2.8,19.5,,,14.6,0.0,0.0,-0.4,7.3,5.7,,,,,132.0,388.0,137.0,394.0,134.0,360.0,133.0,418.0,,,11.0,1.2,,19.5,35.0,4.993,,,0.654,0.728,49.9,94.1,,,,,,2026-03-19-N890GF-SN35347-17.4.0.23677-USER_LOG_DATA.csv,,,,,,,105.8,201.2,,,,,269.6,730.4,278.6,741.2,273.2,680.0,271.4,784.4,,,201.38,906.0,273.2,2.5822306238185253,1.9017013232514177,0.037083333333333336,3.373333333333333,420.8,True,2026-03-18 23:39:18 - Flight 10,
81.06,1.0,10.0,2026-03-18 23:40:36,36.88889,-121.40332,260.0,0.1,329.7,-12.5,,,,,0.0,11.3,-0.5,114.0,0.0,132.0,-0.1,-0.01,1.0,99.0,1.0,41.0,0.0,30.0,3197.0,,,305.0,,,,,0.0,0.0,,,,,,,,,,,,,,,,,,,50.0,94.0,926.0,926.0,14.4,2.7,,2.7,25.1,,,14.6,0.0,0.0,-0.3,7.3,5.7,,,,,132.0,401.0,138.0,400.0,134.0,379.0,134.0,416.0,,,11.0,1.2,,25.1,35.0,4.994,,,0.653,0.726,50.1,94.2,,,,,,2026-03-19-N890GF-SN35347-17.4.0.23677-USER_LOG_DATA.csv,,,,,,,105.8,201.2,,,,,269.6,753.8,280.4,752.0,273.2,714.2,273.2,780.8,,,201.56,926.0,274.1,2.590737240075615,1.9017013232514177,0.03784722222222222,3.4576666666666664,420.8,True,2026-03-18 23:39:18 - Flight 10,
82.06,1.0,10.0,2026-03-18 23:40:37,36.88889,-121.40332,260.0,0.0,329.7,-12.5,,,,,0.0,11.3,-0.5,114.0,0.0,132.0,-0.1,-0.01,0.9,99.0,-20.0,41.0,0.0,30.0,3197.0,,,305.0,,,,,0.0,0.0,,,,,,,,,,,,,,,,,,,50.0,94.0,905.0,905.0,15.5,2.7,,2.7,31.0,,,14.6,0.0,0.0,-0.2,7.3,5.7,,,,,132.0,399.0,138.0,400.0,134.0,377.0,134.0,407.0,,,11.0,1.2,,31.0,35.0,4.993,,,0.656,0.728,49.7,94.2,,,,,,2026-03-19-N890GF-SN35347-17.4.0.23677-USER_LOG_DATA.csv,,,,,,,105.8,201.2,,,,,269.6,750.2,280.4,752.0,273.2,710.6,273.2,764.6,,,201.56,905.0,274.1,2.590737240075615,1.9017013232514177,0.03859722222222222,3.542,420.8,True,2026-03-18 23:39:18 - Flight 10,
83.06,1.0,10.0,2026-03-18 23:40:38,36.88889,-121.40332,260.0,0.1,329.7,-12.5,,,,,0.0,11.3,-0.5,114.0,0.0,132.0,-0.1,-0.01,1.0,99.0,-28.0,41.0,0.0,30.0,3197.0,,,305.0,,,,,0.0,0.0,,,,,,,,,,,,,,,,,,,49.0,94.0,887.0,887.0,15.3,2.7,,2.7,31.8,,,14.6,0.0,0.0,-0.2,7.3,5.7,,,,,132.0,399.0,138.0,402.0,134.0,379.0,134.0,419.0,,,11.0,1.2,,31.8,35.0,4.993,,,0.654,0.726,49.4,94.2,,,,,,2026-03-19-N890GF-SN35347-17.4.0.23677-USER_LOG_DATA.csv,,,,,,,105.8,201.2,,,,,269.6,750.2,280.4,755.6,273.2,714.2,273.2,786.2,,,201.56,887.0,274.1,2.590737240075615,1.9017013232514177,0.03934722222222222,3.626333333333333,420.8,True,2026-03-18 23:39:18 - Flight 10,
84.06,1.0,10.0,2026-03-18 23:40:39,36.88889,-121.40332,259.0,0.0,329.7,-12.5,,,,,0.0,11.3,-0.5,114.0,0.0,132.0,-0.0,-0.01,1.0,99.0,-28.0,41.0,0.0,30.0,3197.0,,,305.0,,,,,0.0,0.0,,,,,,,,,,,,,,,,,,,49.0,94.0,895.0,895.0,15.1,2.6,,2.6,31.7,,,14.6,0.0,0.0,-0.1,7.3,5.7,,,,,132.0,398.0,138.0,412.0,134.0,380.0,134.0,423.0,,,11.0,1.2,,31.7,35.0,4.993,,,0.653,0.728,49.3,94.2,,,,,,2026-03-19-N890GF-SN35347-17.4.0.23677-USER_LOG_DATA.csv,,,,,,,105.8,201.2,,,,,269.6,748.4,280.4,773.6,273.2,716.0,273.2,793.4,,,201.56,895.0,274.1,2.590737240075615,1.9017013232514177,0.04008333333333333,3.7106666666666666,420.8,True,2026-03-18 23:39:18 - Flight 10,
85.06,1.0,10.0,2026-03-18 23:40:40,36.88889,-121.40332,259.0,0.0,329.7,-12.5,,,,,0.0,11.3,-0.6,114.0,0.0,132.0,-0.1,-0.01,1.0,99.0,-46.0,41.0,0.0,30.0,3197.0,,,305.0,,,,,0.0,0.0,,,,,,,,,,,,,,,,,,,49.0,94.0,854.0,854.0,15.1,2.6,,2.6,31.7,,,14.6,0.0,0.0,-0.1,7.3,5.7,,,,,133.0,404.0,138.0,414.0,134.0,395.0,134.0,440.0,,,11.0,1.2,,31.7,35.0,4.993,,,0.654,0.729,48.6,94.2,,,,,,2026-03-19-N890GF-SN35347-17.4.0.23677-USER_LOG_DATA.csv,,,,,,,105.8,201.2,,,,,271.4,759.2,280.4,777.2,273.2,743.0,273.2,824.0,,,201.56,854.0,274.54999999999995,2.5949905482041586,1.9017013232514177,0.04080555555555555,3.7106666666666666,420.8,True,2026-03-18 23:39:18 - Flight 10,
86.06,1.0,10.0,2026-03-18 23:40:41,36.88889,-121.40332,259.0,0.0,329.7,-12.5,,,,,0.0,11.3,-0.6,114.0,0.0,132.0,-0.1,-0.0,1.0,99.0,-44.0,41.0,0.0,30.0,3197.0,,,305.0,,,,,0.0,0.0,,,,,,,,,,,,,,,,,,,49.0,94.0,869.0,869.0,15.1,2.6,,2.6,31.8,,,14.6,0.0,0.0,-0.1,7.3,5.7,,,,,133.0,407.0,138.0,414.0,134.0,403.0,134.0,436.0,,,11.0,1.2,,31.8,35.0,4.993,,,0.654,0.732,49.4,94.2,,,,,,2026-03-19-N890GF-SN35347-17.4.0.23677-USER_LOG_DATA.csv,,,,,,,105.8,201.2,,,,,271.4,764.6,280.4,777.2,273.2,757.4,273.2,816.8,,,201.56,869.0,274.54999999999995,2.5949905482041586,1.9017013232514177,0.04152777777777778,3.7106666666666666,420.8,True,2026-03-18 23:39:18 - Flight 10,
87.06,1.0,10.0,2026-03-18 23:40:42,36.88889,-121.40332,259.0,0.1,329.7,-12.5,,,,,0.0,11.3,-0.5,114.0,0.0,132.0,-0.1,-0.01,1.0,99.0,-35.0,41.0,0.0,30.0,3197.0,,,305.0,,,,,0.0,0.0,,,,,,,,,,,,,,,,,,,49.0,94.0,910.0,910.0,15.3,2.6,,2.6,31.8,,,14.6,0.0,0.0,-0.1,7.3,5.7,,,,,133.0,404.0,139.0,423.0,135.0,403.0,135.0,443.0,,,11.0,1.1,,31.8,35.0,4.993,,,0.654,0.729,49.4,94.2,,,,,,2026-03-19-N890GF-SN35347-17.4.0.23677-USER_LOG_DATA.csv,,,,,,,105.8,201.2,,,,,271.4,759.2,282.2,793.4,275.0,757.4,275.0,829.4,,,201.56,910.0,275.9,2.607750472589792,1.9017013232514177,0.04225,3.795,420.8,True,2026-03-18 23:39:18 - Flight 10,
88.06,1.0,10.0,2026-03-18 23:40:43,36.88889,-121.40332,259.0,0.0,329.7,-12.5,,,,,0.0,11.3,-0.5,114.1,0.0,132.0,-0.0,-0.01,1.0,99.0,-42.0,41.0,0.0,30.0,3197.0,,,305.0,,,,,0.0,0.0,,,,,,,,,,,,,,,,,,,50.0,94.0,911.0,911.0,15.3,2.6,,2.6,31.9,,,14.6,0.0,0.0,-0.1,7.3,5.7,,,,,133.0,405.0,139.0,425.0,134.0,402.0,135.0,442.0,,,11.0,1.1,,31.9,35.0,4.993,,,0.653,0.726,50.1,94.2,,,,,,2026-03-19-N890GF-SN35347-17.4.0.23677-USER_LOG_DATA.csv,,,,,,,105.8,201.2,,,,,271.4,761.0,282.2,797.0,273.2,755.6,275.0,827.6,,,201.56,911.0,275.45000000000005,2.603497164461248,1.9017013232514177,0.042972222222222224,3.8793333333333333,420.8,True,2026-03-18 23:39:18 - Flight 10,
89.06,1.0,10.0,2026-03-18 23:40:44,36.88889,-121.40332,259.0,0.0,329.7,-12.5,,,,,0.0,11.3,-0.6,114.1,0.0,132.0,-0.0,-0.01,0.9,99.0,-37.0,41.0,0.0,30.0,3197.0,,,305.0,,,,,0.0,0.0,,,,,,,,,,,,,,,,,,,50.0,94.0,920.0,920.0,15.0,2.6,,2.6,31.6,,,14.6,0.0,0.0,-0.1,7.3,5.7,,,,,133.0,406.0,139.0,429.0,135.0,416.0,135.0,459.0,,,11.0,1.1,,31.6,35.0,4.993,,,0.654,0.728,50.1,94.2,,,,,,2026-03-19-N890GF-SN35347-17.4.0.23677-USER_LOG_DATA.csv,,,,,,,105.8,201.2,,,,,271.4,762.8,282.2,804.2,275.0,780.8,275.0,858.2,,,201.56,920.0,275.9,2.607750472589792,1.9017013232514177,0.043694444444444445,3.8793333333333333,420.8,True,2026-03-18 23:39:18 - Flight 10,
90.06,1.0,10.0,2026-03-18 23:40:45,36.88889,-121.40332,259.0,0.0,329.7,-12.5,,,,,0.0,11.3,-0.6,114.1,0.0,132.0,-0.0,-0.01,1.0,99.0,-33.0,41.0,0.0,30.0,3197.0,,,305.0,,,,,0.0,0.0,,,,,,,,,,,,,,,,,,,50.0,94.0,929.0,929.0,14.9,2.6,,2.6,32.0,,,14.6,0.0,0.0,-0.1,7.3,5.7,,,,,133.0,400.0,139.0,435.0,135.0,425.0,135.0,466.0,,,11.0,1.3,,32.0,35.0,4.994,,,0.653,0.731,50.1,94.2,,,,,,2026-03-19-N890GF-SN35347-17.4.0.23677-USER_LOG_DATA.csv,,,,,,,105.8,201.2,,,,,271.4,752.0,282.2,815.0,275.0,797.0,275.0,870.8,,,201.56,929.0,275.9,2.607750472589792,1.9017013232514177,0.04441666666666667,3.8793333333333333,420.8,True,2026-03-18 23:39:18 - Flight 10,
91.06,1.0,10.0,2026-03-18 23:40:46,36.88889,-121.40332,258.0,0.0,329.7,-12.5,,,,,0.0,11.3,-0.5,114.1,0.0,132.0,-0.0,-0.01,1.0,99.0,-10.0,41.0,0.0,30.0,3197.0,,,305.0,,,,,0.0,0.0,,,,,,,,,,,,,,,,,,,51.0,94.0,957.0,957.0,14.3,2.5,,2.5,31.9,,,14.6,0.0,0.0,-0.1,7.3,5.7,,,,,133.0,396.0,139.0,434.0,135.0,437.0,136.0,479.0,,,11.0,1.5,,31.9,35.0,4.993,,,0.653,0.728,50.6,94.2,,,,,,2026-03-19-N890GF-SN35347-17.4.0.23677-USER_LOG_DATA.csv,,,,,,,105.8,201.2,,,,,271.4,744.8,282.2,813.2,275.0,818.6,276.8,894.2,,,201.56,957.0,276.35,2.6120037807183367,1.9017013232514177,0.045125,3.8793333333333333,420.8,True,2026-03-18 23:39:18 - Flight 10,
92.06,1.0,10.0,2026-03-18 23:40:47,36.88889,-121.40332,258.0,0.0,329.7,-12.5,,,,,0.0,11.3,-0.6,114.1,0.0,132.0,-0.1,-0.01,1.0,99.0,-38.0,41.0,0.0,30.0,3197.0,,,305.0,,,,,0.0,0.0,,,,,,,,,,,,,,,,,,,48.0,94.0,837.0,837.0,15.1,2.5,,2.5,32.1,,,14.6,0.0,0.0,0.1,7.3,5.7,,,,,134.0,395.0,140.0,434.0,135.0,446.0,136.0,475.0,,,11.0,1.6,,32.1,35.0,4.993,,,0.654,0.73,48.1,94.3,,,,,,2026-03-19-N890GF-SN35347-17.4.0.23677-USER_LOG_DATA.csv,,,,,,,105.8,201.2,,,,,273.2,743.0,284.0,813.2,275.0,834.8,276.8,887.0,,,201.73999999999998,837.0,277.25,2.6205103969754253,1.9017013232514177,0.04581944444444445,3.8793333333333333,420.8,True,2026-03-18 23:39:18 - Flight 10,
