Session Time,GPS Fix Quality,Number of Satellites,GPS Date & Time,Latitude (deg),Longitude (deg),GPS Altitude (feet),Ground Speed (knots),Ground Track (deg),Mag Var (deg),Cross Track Error (NM),Destination Waypoint ID,Range to Destination (NM),Bearing to Destination (deg),System Time,Pitch (deg),Roll (deg),Magnetic Heading (deg),Indicated Airspeed (knots),Pressure Altitude (ft),Turn Rate (deg/s),Lateral Accel (g),Vertical Accel(g),Angle of Attack (%),Vertical Speed (ft/min),OAT (deg C),True Airspeed (knots),Barometer Setting (inHg),Density Altitude (ft),Wind Direction (deg),Wind Speed (knots),Heading Bug (deg),Altitude Bug (ft),Airspeed Bug (knots),Vertical Speed Bug (ft/min),Course (deg),CDI Source Type,CDI Source Port,CDI Scale (NM),CDI Deflection (%),Glideslope (%),AP Engaged,AP Roll Mode,AP Roll Force,AP Roll Position (steps),AP Roll Slip (bool),AP Pitch Force,AP Pitch Position (steps),AP Pitch Slip (bool),AP Yaw Force,AP Yaw Position,AP Yaw Slip (bool),Transponder Status,Transponder Reply (bool),Transponder Identing (bool),Transponder Code (octal),Oil Pressure (PSI),Oil Temp (deg C),RPM L,RPM R,Manifold Pressure (inHg),Fuel Flow 1 (gal/hr),Fuel Flow 2 (gal/hr),Total Fuel Flow (gal/hr),Fuel Pressure (PSI),Fuel Level L (gal),Fuel Level R (gal),Fuel Remaining (gal),Volts 1,Volts 2,Amps,Hobbs Time,Tach Time,Thermocouple 1 (deg C),Thermocouple 2 (deg C),Thermocouple 3 (deg C),Thermocouple 4 (deg C),CHT 4 (deg C),EGT 4 (deg C),CHT 3 (deg C),EGT 3 (deg C),CHT 2 (deg C),EGT 2 (deg C),CHT 1 (deg C),EGT 1 (deg C),Thermocouple 13 (deg C),Thermocouple 14 (deg C),ELEV POSITION (%),CO PPM PRESSURE (PSI),GP Input 3,FUEL PRESSURE (PSI),AILERN POSITION (%),CANOPY CONTACT (V),GP Input 7,GP Input 8,LEFT LEVEL (Sensor V),RIGHT LEVEL (Sensor V),OIL PRESSURE (PSI),OIL TEMPERATURE (deg C),GP Input 13,Contacts,Percent Power,EGT Leaning State,Unnamed: 103,source_file,Unnamed: 0,press_alt,ias,hdg,gps_gs,gps_trk,OAT (deg F),Oil Temp (deg F),Thermocouple 1 (deg F),Thermocouple 2 (deg F),Thermocouple 3 (deg F),Thermocouple 4 (deg F),CHT 4 (deg F),EGT 4 (deg F),CHT 3 (deg F),EGT 3 (deg F),CHT 2 (deg F),EGT 2 (deg F),CHT 1 (deg F),EGT 1 (deg F),Thermocouple 13 (deg F),Thermocouple 14 (deg F),OIL TEMPERATURE (deg F),RPM,AVG_CHT,CHT_OAT_Ratio,OIL_OAT_Ratio,Fuel Flow Integral,Distance Traveled,Max CHT,Engine Run,Flight ID,efficiency
6.06,1.0,5.0,2026-02-14 01:11:43,37.08173,-121.59956,481.0,0.0,27.5,-12.6,,,,,0.0,10.8,-1.5,51.3,0.0,133.0,-0.0,-0.03,1.0,,-112.0,17.0,0.0,30.11,365.0,,,326.0,,,,,0.0,0.0,,,,,,,,,,,,,,,,,,,0.0,38.0,0.0,0.0,30.2,0.0,,0.0,0.6,,,35.9,0.0,0.0,-0.7,1.4,0.6,,,,,57.0,31.0,55.0,32.0,55.0,33.0,53.0,31.0,,,-16.0,254.5,,0.6,-7.0,0.0,,,0.658,0.791,0.0,37.6,,,,,,2026-02-14-N890GF-SN35347-17.4.0.23677-2ND_TAXI-USER_LOG_DATA.csv,,,,,,,62.6,100.4,,,,,134.6,87.8,131.0,89.6,131.0,91.4,127.4,87.8,,,99.68,0.0,131.0,2.092651757188498,1.6038338658146964,0.0,0.0,386.6,True,2026-02-14 01:11:43 - Flight 23,
7.06,1.0,8.0,2026-02-14 01:11:44,37.08171,-121.59962,372.0,0.0,27.5,-12.6,,,,,0.0,10.8,-1.5,51.3,0.0,132.0,-0.0,-0.03,1.0,,-107.0,17.0,0.0,30.11,365.0,,,326.0,,,,,0.0,0.0,,,,,,,,,,,,,,,,,,,0.0,38.0,0.0,0.0,30.2,0.0,,0.0,0.6,,,35.9,0.0,0.0,-0.7,1.4,0.6,,,,,57.0,31.0,55.0,32.0,55.0,33.0,53.0,31.0,,,-16.0,254.5,,0.6,-7.0,0.0,,,0.658,0.791,0.0,37.5,,,,,,2026-02-14-N890GF-SN35347-17.4.0.23677-2ND_TAXI-USER_LOG_DATA.csv,,,,,,,62.6,100.4,,,,,134.6,87.8,131.0,89.6,131.0,91.4,127.4,87.8,,,99.5,0.0,131.0,2.092651757188498,1.6038338658146964,0.0,0.0,386.6,True,2026-02-14 01:11:43 - Flight 23,
8.06,1.0,8.0,2026-02-14 01:11:45,37.08167,-121.59962,376.0,0.0,27.5,-12.6,,,,,0.0,10.8,-1.5,51.2,0.0,130.0,-0.0,-0.03,1.0,,-102.0,17.0,0.0,30.11,365.0,,,326.0,,,,,0.0,0.0,,,,,,,,,,,,,,,,,,,0.0,38.0,0.0,0.0,30.2,0.0,,0.0,0.6,,,35.9,0.0,0.0,-0.7,1.4,0.6,,,,,57.0,31.0,55.0,32.0,55.0,33.0,53.0,31.0,,,-16.0,254.5,,0.6,-7.0,0.0,,,0.658,0.791,0.0,37.5,,,,,,2026-02-14-N890GF-SN35347-17.4.0.23677-2ND_TAXI-USER_LOG_DATA.csv,,,,,,,62.6,100.4,,,,,134.6,87.8,131.0,89.6,131.0,91.4,127.4,87.8,,,99.5,0.0,131.0,2.092651757188498,1.6038338658146964,0.0,0.0,386.6,True,2026-02-14 01:11:43 - Flight 23,
9.06,1.0,8.0,2026-02-14 01:11:46,37.08167,-121.59962,375.0,0.0,27.5,-12.6,,,,,0.0,10.8,-1.6,51.2,0.0,130.0,-0.0,-0.03,1.0,,-82.0,17.0,0.0,30.11,361.0,,,326.0,,,,,0.0,0.0,,,,,,,,,,,,,,,,,,,0.0,38.0,0.0,0.0,30.2,0.0,,0.0,0.6,,,35.9,0.0,0.0,-0.7,1.4,0.6,,,,,57.0,31.0,55.0,32.0,55.0,33.0,53.0,31.0,,,-16.0,254.5,,0.6,-7.0,0.0,,,0.658,0.791,0.0,37.5,,,,,,2026-02-14-N890GF-SN35347-17.4.0.23677-2ND_TAXI-USER_LOG_DATA.csv,,,,,,,62.6,100.4,,,,,134.6,87.8,131.0,89.6,131.0,91.4,127.4,87.8,,,99.5,0.0,131.0,2.092651757188498,1.6038338658146964,0.0,0.0,386.6,True,2026-02-14 01:11:43 - Flight 23,
10.06,1.0,8.0,2026-02-14 01:11:47,37.08167,-121.59962,375.0,0.0,27.5,-12.6,,,,,0.0,10.8,-1.5,51.2,0.0,129.0,-0.0,-0.03,1.0,,-54.0,17.0,0.0,30.11,361.0,,,326.0,,,,,0.0,0.0,,,,,,,,,,,,,,,,,,,0.0,38.0,0.0,0.0,30.2,0.0,,0.0,0.6,,,35.9,0.0,0.0,-0.7,1.4,0.6,,,,,57.0,31.0,55.0,32.0,55.0,33.0,53.0,31.0,,,-16.0,254.5,,0.6,-7.0,0.0,,,0.658,0.791,0.0,37.5,,,,,,2026-02-14-N890GF-SN35347-17.4.0.23677-2ND_TAXI-USER_LOG_DATA.csv,,,,,,,62.6,100.4,,,,,134.6,87.8,131.0,89.6,131.0,91.4,127.4,87.8,,,99.5,0.0,131.0,2.092651757188498,1.6038338658146964,0.0,0.0,386.6,True,2026-02-14 01:11:43 - Flight 23,
11.06,1.0,9.0,2026-02-14 01:11:48,37.08166,-121.59963,381.0,0.0,27.5,-12.6,,,,,0.0,10.8,-1.5,51.2,0.0,129.0,-0.0,-0.03,1.0,,-28.0,17.0,0.0,30.11,361.0,,,326.0,,,,,0.0,0.0,,,,,,,,,,,,,,,,,,,0.0,38.0,0.0,0.0,30.2,0.0,,0.0,0.6,,,35.9,0.0,0.0,-0.7,1.4,0.6,,,,,57.0,31.0,55.0,32.0,55.0,33.0,53.0,31.0,,,-16.0,254.4,,0.6,-7.0,0.0,,,0.658,0.791,0.0,37.5,,,,,,2026-02-14-N890GF-SN35347-17.4.0.23677-2ND_TAXI-USER_LOG_DATA.csv,,,,,,,62.6,100.4,,,,,134.6,87.8,131.0,89.6,131.0,91.4,127.4,87.8,,,99.5,0.0,131.0,2.092651757188498,1.6038338658146964,0.0,0.0,386.6,True,2026-02-14 01:11:43 - Flight 23,
12.06,1.0,9.0,2026-02-14 01:11:49,37.08165,-121.59964,385.0,0.1,27.5,-12.6,,,,,0.0,10.8,-1.6,51.3,0.0,129.0,0.0,-0.03,1.0,,-23.0,17.0,0.0,30.11,360.0,,,326.0,,,,,0.0,0.0,,,,,,,,,,,,,,,,,,,0.0,38.0,0.0,0.0,30.2,0.0,,0.0,0.6,,,35.9,0.0,0.0,-0.7,1.4,0.6,,,,,57.0,31.0,55.0,32.0,55.0,33.0,53.0,31.0,,,-16.0,254.4,,0.6,-7.0,0.0,,,0.658,0.791,0.0,37.5,,,,,,2026-02-14-N890GF-SN35347-17.4.0.23677-2ND_TAXI-USER_LOG_DATA.csv,,,,,,,62.6,100.4,,,,,134.6,87.8,131.0,89.6,131.0,91.4,127.4,87.8,,,99.5,0.0,131.0,2.092651757188498,1.6038338658146964,0.0,0.08433333333333333,386.6,True,2026-02-14 01:11:43 - Flight 23,
13.06,1.0,9.0,2026-02-14 01:11:50,37.08165,-121.59964,385.0,0.0,27.5,-12.6,,,,,0.0,10.8,-1.5,51.3,0.0,128.0,0.0,-0.03,1.0,,-31.0,17.0,0.0,30.11,360.0,,,326.0,,,,,0.0,0.0,,,,,,,,,,,,,,,,,,,0.0,38.0,0.0,0.0,30.2,0.0,,0.0,0.6,,,35.9,0.0,0.0,-0.7,1.4,0.6,,,,,57.0,31.0,55.0,32.0,55.0,33.0,53.0,32.0,,,-16.0,254.4,,0.6,-7.0,0.0,,,0.658,0.791,0.0,37.5,,,,,,2026-02-14-N890GF-SN35347-17.4.0.23677-2ND_TAXI-USER_LOG_DATA.csv,,,,,,,62.6,100.4,,,,,134.6,87.8,131.0,89.6,131.0,91.4,127.4,89.6,,,99.5,0.0,131.0,2.092651757188498,1.6038338658146964,0.0,0.16866666666666666,386.6,True,2026-02-14 01:11:43 - Flight 23,
14.06,1.0,9.0,2026-02-14 01:11:51,37.08165,-121.59964,385.0,0.0,27.5,-12.6,,,,,0.0,10.8,-1.6,51.2,0.0,128.0,-0.0,-0.03,1.0,,-5.0,17.0,0.0,30.11,360.0,,,326.0,,,,,0.0,0.0,,,,,,,,,,,,,,,,,,,0.0,38.0,0.0,0.0,30.2,0.0,,0.0,0.6,,,35.9,0.0,0.0,-0.7,1.4,0.6,,,,,57.0,31.0,55.0,32.0,55.0,33.0,53.0,31.0,,,-16.0,254.4,,0.6,-7.0,0.0,,,0.658,0.791,0.0,37.5,,,,,,2026-02-14-N890GF-SN35347-17.4.0.23677-2ND_TAXI-USER_LOG_DATA.csv,,,,,,,62.6,100.4,,,,,134.6,87.8,131.0,89.6,131.0,91.4,127.4,87.8,,,99.5,0.0,131.0,2.092651757188498,1.6038338658146964,0.0,0.16866666666666666,386.6,True,2026-02-14 01:11:43 - Flight 23,
15.06,1.0,9.0,2026-02-14 01:11:52,37.08165,-121.59964,386.0,0.0,27.5,-12.6,,,,,0.0,10.8,-1.6,51.2,0.0,126.0,-0.0,-0.03,1.0,,-42.0,17.0,0.0,30.11,357.0,,,326.0,,,,,0.0,0.0,,,,,,,,,,,,,,,,,,,0.0,38.0,0.0,0.0,30.2,0.0,,0.0,0.6,,,35.9,0.0,0.0,-0.7,1.4,0.6,,,,,57.0,31.0,55.0,32.0,55.0,33.0,53.0,32.0,,,-16.0,254.4,,0.6,-7.0,0.0,,,0.658,0.791,0.0,37.5,,,,,,2026-02-14-N890GF-SN35347-17.4.0.23677-2ND_TAXI-USER_LOG_DATA.csv,,,,,,,62.6,100.4,,,,,134.6,87.8,131.0,89.6,131.0,91.4,127.4,89.6,,,99.5,0.0,131.0,2.092651757188498,1.6038338658146964,0.0,0.16866666666666666,386.6,True,2026-02-14 01:11:43 - Flight 23,
16.06,1.0,9.0,2026-02-14 01:11:53,37.08165,-121.59964,386.0,0.0,27.5,-12.6,,,,,0.0,10.8,-1.5,51.2,0.0,125.0,-0.0,-0.03,1.0,,-70.0,17.0,0.0,30.11,357.0,,,326.0,,,,,0.0,0.0,,,,,,,,,,,,,,,,,,,0.0,38.0,0.0,0.0,30.2,0.0,,0.0,0.6,,,35.9,0.0,0.0,-0.7,1.4,0.6,,,,,57.0,31.0,55.0,32.0,55.0,33.0,53.0,32.0,,,-16.0,254.4,,0.6,-7.0,0.0,,,0.658,0.791,0.0,37.5,,,,,,2026-02-14-N890GF-SN35347-17.4.0.23677-2ND_TAXI-USER_LOG_DATA.csv,,,,,,,62.6,100.4,,,,,134.6,87.8,131.0,89.6,131.0,91.4,127.4,89.6,,,99.5,0.0,131.0,2.092651757188498,1.6038338658146964,0.0,0.16866666666666666,386.6,True,2026-02-14 01:11:43 - Flight 23,
17.06,1.0,9.0,2026-02-14 01:11:54,37.08165,-121.59964,386.0,0.0,27.5,-12.6,,,,,0.0,10.8,-1.5,51.2,0.0,123.0,-0.0,-0.03,1.0,,-83.0,17.0,0.0,30.11,357.0,,,326.0,,,,,0.0,0.0,,,,,,,,,,,,,,,,,,,0.0,38.0,0.0,0.0,30.2,0.0,,0.0,0.6,,,35.9,0.0,0.0,-0.7,1.4,0.6,,,,,57.0,31.0,55.0,32.0,55.0,33.0,53.0,32.0,,,-16.0,254.4,,0.6,-7.0,0.0,,,0.658,0.791,0.0,37.5,,,,,,2026-02-14-N890GF-SN35347-17.4.0.23677-2ND_TAXI-USER_LOG_DATA.csv,,,,,,,62.6,100.4,,,,,134.6,87.8,131.0,89.6,131.0,91.4,127.4,89.6,,,99.5,0.0,131.0,2.092651757188498,1.6038338658146964,0.0,0.16866666666666666,386.6,True,2026-02-14 01:11:43 - Flight 23,
18.06,1.0,9.0,2026-02-14 01:11:55,37.08165,-121.59964,387.0,0.0,27.5,-12.6,,,,,0.0,10.8,-1.5,51.3,0.0,122.0,0.0,-0.03,1.0,,-65.0,17.0,0.0,30.11,352.0,,,326.0,,,,,0.0,0.0,,,,,,,,,,,,,,,,,,,0.0,37.0,0.0,0.0,30.2,0.0,,0.0,0.6,,,35.9,0.0,0.0,-0.7,1.4,0.6,,,,,57.0,31.0,55.0,32.0,55.0,33.0,53.0,32.0,,,-16.0,254.4,,0.6,-7.0,0.0,,,0.658,0.791,0.0,37.5,,,,,,2026-02-14-N890GF-SN35347-17.4.0.23677-2ND_TAXI-USER_LOG_DATA.csv,,,,,,,62.6,98.6,,,,,134.6,87.8,131.0,89.6,131.0,91.4,127.4,89.6,,,99.5,0.0,131.0,2.092651757188498,1.5750798722044728,0.0,0.16866666666666666,386.6,True,2026-02-14 01:11:43 - Flight 23,
19.06,1.0,9.0,2026-02-14 01:11:56,37.08165,-121.59964,387.0,0.1,27.5,-12.6,,,,,0.0,10.8,-1.5,51.3,0.0,121.0,-0.0,-0.03,1.0,,-57.0,17.0,0.0,30.11,352.0,,,326.0,,,,,0.0,0.0,,,,,,,,,,,,,,,,,,,0.0,37.0,0.0,0.0,30.2,0.0,,0.0,0.6,,,35.9,0.0,0.0,-0.7,1.4,0.6,,,,,57.0,31.0,55.0,32.0,55.0,33.0,53.0,32.0,,,-16.0,254.4,,0.6,-7.0,0.0,,,0.658,0.791,0.0,37.5,,,,,,2026-02-14-N890GF-SN35347-17.4.0.23677-2ND_TAXI-USER_LOG_DATA.csv,,,,,,,62.6,98.6,,,,,134.6,87.8,131.0,89.6,131.0,91.4,127.4,89.6,,,99.5,0.0,131.0,2.092651757188498,1.5750798722044728,0.0,0.253,386.6,True,2026-02-14 01:11:43 - Flight 23,
20.06,1.0,9.0,2026-02-14 01:11:57,37.08165,-121.59964,388.0,0.0,27.5,-12.6,,,,,0.0,10.8,-1.6,51.2,0.0,121.0,-0.0,-0.03,1.0,,-45.0,17.0,0.0,30.11,352.0,,,326.0,,,,,0.0,0.0,,,,,,,,,,,,,,,,,,,0.0,38.0,0.0,0.0,30.2,0.0,,0.0,0.6,,,35.9,0.0,0.0,-0.7,1.4,0.6,,,,,57.0,31.0,55.0,32.0,55.0,33.0,53.0,32.0,,,-16.0,254.4,,0.6,-7.0,0.0,,,0.658,0.791,0.0,37.5,,,,,,2026-02-14-N890GF-SN35347-17.4.0.23677-2ND_TAXI-USER_LOG_DATA.csv,,,,,,,62.6,100.4,,,,,134.6,87.8,131.0,89.6,131.0,91.4,127.4,89.6,,,99.5,0.0,131.0,2.092651757188498,1.6038338658146964,0.0,0.3373333333333333,386.6,True,2026-02-14 01:11:43 - Flight 23,
21.06,1.0,9.0,2026-02-14 01:11:58,37.08165,-121.59964,389.0,0.0,27.5,-12.6,,,,,0.0,10.8,-1.6,51.2,0.0,121.0,-0.0,-0.03,1.0,,-22.0,17.0,0.0,30.11,351.0,,,326.0,,,,,0.0,0.0,,,,,,,,,,,,,,,,,,,0.0,38.0,0.0,0.0,30.2,0.0,,0.0,0.6,,,35.9,0.0,0.0,-0.7,1.4,0.6,,,,,57.0,31.0,55.0,32.0,55.0,33.0,53.0,32.0,,,-16.0,254.4,,0.6,-7.0,0.0,,,0.658,0.791,0.0,37.5,,,,,,2026-02-14-N890GF-SN35347-17.4.0.23677-2ND_TAXI-USER_LOG_DATA.csv,,,,,,,62.6,100.4,,,,,134.6,87.8,131.0,89.6,131.0,91.4,127.4,89.6,,,99.5,0.0,131.0,2.092651757188498,1.6038338658146964,0.0,0.3373333333333333,386.6,True,2026-02-14 01:11:43 - Flight 23,
22.06,1.0,9.0,2026-02-14 01:11:59,37.08164,-121.59964,390.0,0.0,27.5,-12.6,,,,,0.0,10.8,-1.6,51.2,0.0,121.0,-0.0,-0.03,1.0,,-5.0,17.0,0.0,30.11,352.0,,,326.0,,,,,0.0,0.0,,,,,,,,,,,,,,,,,,,0.0,37.0,0.0,0.0,30.2,0.0,,0.0,0.6,,,35.9,0.0,0.0,-0.7,1.4,0.6,,,,,57.0,31.0,55.0,32.0,55.0,33.0,53.0,32.0,,,-16.0,254.4,,0.6,-7.0,0.0,,,0.658,0.791,0.0,37.5,,,,,,2026-02-14-N890GF-SN35347-17.4.0.23677-2ND_TAXI-USER_LOG_DATA.csv,,,,,,,62.6,98.6,,,,,134.6,87.8,131.0,89.6,131.0,91.4,127.4,89.6,,,99.5,0.0,131.0,2.092651757188498,1.5750798722044728,0.0,0.3373333333333333,386.6,True,2026-02-14 01:11:43 - Flight 23,
23.06,1.0,9.0,2026-02-14 01:12:00,37.08164,-121.59964,390.0,0.0,27.5,-12.6,,,,,0.0,10.8,-1.6,51.2,0.0,121.0,0.0,-0.03,1.0,,32.0,17.0,0.0,30.11,352.0,,,326.0,,,,,0.0,0.0,,,,,,,,,,,,,,,,,,,0.0,37.0,0.0,0.0,30.2,0.0,,0.0,0.6,,,35.9,0.0,0.0,-0.7,1.4,0.6,,,,,57.0,31.0,55.0,32.0,55.0,33.0,53.0,32.0,,,-16.0,254.4,,0.6,-7.0,0.0,,,0.658,0.791,0.0,37.5,,,,,,2026-02-14-N890GF-SN35347-17.4.0.23677-2ND_TAXI-USER_LOG_DATA.csv,,,,,,,62.6,98.6,,,,,134.6,87.8,131.0,89.6,131.0,91.4,127.4,89.6,,,99.5,0.0,131.0,2.092651757188498,1.5750798722044728,0.0,0.3373333333333333,386.6,True,2026-02-14 01:11:43 - Flight 23,
24.06,1.0,9.0,2026-02-14 01:12:01,37.08164,-121.59964,391.0,0.0,27.5,-12.6,,,,,0.0,10.7,-1.6,51.2,0.0,121.0,-0.0,-0.03,1.0,,18.0,17.0,0.0,30.11,352.0,,,326.0,,,,,0.0,0.0,,,,,,,,,,,,,,,,,,,0.0,37.0,0.0,0.0,30.2,0.0,,0.0,0.6,,,35.9,0.0,0.0,-0.7,1.4,0.6,,,,,57.0,31.0,55.0,32.0,55.0,33.0,53.0,32.0,,,-16.0,254.4,,0.6,-7.0,0.0,,,0.658,0.791,0.0,37.5,,,,,,2026-02-14-N890GF-SN35347-17.4.0.23677-2ND_TAXI-USER_LOG_DATA.csv,,,,,,,62.6,98.6,,,,,134.6,87.8,131.0,89.6,131.0,91.4,127.4,89.6,,,99.5,0.0,131.0,2.092651757188498,1.5750798722044728,0.0,0.3373333333333333,386.6,True,2026-02-14 01:11:43 - Flight 23,
25.06,1.0,9.0,2026-02-14 01:12:02,37.08164,-121.59964,392.0,0.0,27.5,-12.6,,,,,0.0,10.8,-1.6,51.2,0.0,121.0,-0.0,-0.03,1.0,,13.0,17.0,0.0,30.11,361.0,,,326.0,,,,,0.0,0.0,,,,,,,,,,,,,,,,,,,0.0,37.0,0.0,0.0,30.2,0.0,,0.0,0.6,,,35.9,0.0,0.0,-0.7,1.4,0.6,,,,,57.0,31.0,55.0,32.0,55.0,33.0,53.0,32.0,,,-16.0,254.4,,0.6,-7.0,0.0,,,0.658,0.791,0.0,37.5,,,,,,2026-02-14-N890GF-SN35347-17.4.0.23677-2ND_TAXI-USER_LOG_DATA.csv,,,,,,,62.6,98.6,,,,,134.6,87.8,131.0,89.6,131.0,91.4,127.4,89.6,,,99.5,0.0,131.0,2.092651757188498,1.5750798722044728,0.0,0.3373333333333333,386.6,True,2026-02-14 01:11:43 - Flight 23,
26.06,1.0,9.0,2026-02-14 01:12:03,37.08164,-121.59964,392.0,0.0,27.5,-12.6,,,,,0.0,10.8,-1.6,51.2,0.0,121.0,-0.0,-0.03,1.0,,-1.0,17.0,0.0,30.11,361.0,,,326.0,,,,,0.0,0.0,,,,,,,,,,,,,,,,,,,0.0,38.0,0.0,0.0,30.2,0.0,,0.0,0.6,,,35.9,0.0,0.0,-0.7,1.4,0.6,,,,,57.0,31.0,55.0,32.0,55.0,33.0,53.0,32.0,,,-16.0,254.4,,0.6,-7.0,0.0,,,0.658,0.791,0.0,37.5,,,,,,2026-02-14-N890GF-SN35347-17.4.0.23677-2ND_TAXI-USER_LOG_DATA.csv,,,,,,,62.6,100.4,,,,,134.6,87.8,131.0,89.6,131.0,91.4,127.4,89.6,,,99.5,0.0,131.0,2.092651757188498,1.6038338658146964,0.0,0.3373333333333333,386.6,True,2026-02-14 01:11:43 - Flight 23,
27.06,1.0,9.0,2026-02-14 01:12:04,37.08164,-121.59964,393.0,0.0,27.5,-12.6,,,,,0.0,10.8,-1.6,51.2,0.0,121.0,-0.0,-0.03,1.0,,22.0,17.0,0.0,30.11,361.0,,,326.0,,,,,0.0,0.0,,,,,,,,,,,,,,,,,,,0.0,37.0,0.0,0.0,30.2,0.0,,0.0,0.6,,,35.9,0.0,0.0,-0.7,1.4,0.6,,,,,57.0,31.0,55.0,32.0,55.0,33.0,53.0,32.0,,,-16.0,254.4,,0.6,-7.0,0.0,,,0.658,0.791,0.0,37.5,,,,,,2026-02-14-N890GF-SN35347-17.4.0.23677-2ND_TAXI-USER_LOG_DATA.csv,,,,,,,62.6,98.6,,,,,134.6,87.8,131.0,89.6,131.0,91.4,127.4,89.6,,,99.5,0.0,131.0,2.092651757188498,1.5750798722044728,0.0,0.3373333333333333,386.6,True,2026-02-14 01:11:43 - Flight 23,
28.06,1.0,9.0,2026-02-14 01:12:05,37.08164,-121.59964,393.0,0.0,27.5,-12.6,,,,,0.0,10.8,-1.6,51.2,0.0,121.0,-0.0,-0.03,1.0,,21.0,17.0,0.0,30.11,351.0,,,326.0,,,,,0.0,0.0,,,,,,,,,,,,,,,,,,,0.0,38.0,0.0,0.0,30.2,0.0,,0.0,0.6,,,35.9,0.0,0.0,-0.7,1.4,0.6,,,,,57.0,31.0,55.0,32.0,55.0,33.0,53.0,32.0,,,-16.0,254.4,,0.6,-7.0,0.0,,,0.658,0.791,0.0,37.5,,,,,,2026-02-14-N890GF-SN35347-17.4.0.23677-2ND_TAXI-USER_LOG_DATA.csv,,,,,,,62.6,100.4,,,,,134.6,87.8,131.0,89.6,131.0,91.4,127.4,89.6,,,99.5,0.0,131.0,2.092651757188498,1.6038338658146964,0.0,0.3373333333333333,386.6,True,2026-02-14 01:11:43 - Flight 23,
29.06,1.0,9.0,2026-02-14 01:12:06,37.08164,-121.59963,393.0,0.0,27.5,-12.6,,,,,0.0,10.8,-1.6,51.1,0.0,121.0,-0.0,-0.03,1.0,,-5.0,17.0,0.0,30.11,352.0,,,326.0,,,,,0.0,0.0,,,,,,,,,,,,,,,,,,,0.0,37.0,0.0,0.0,30.2,0.0,,0.0,0.6,,,35.9,0.0,0.0,-0.7,1.4,0.6,,,,,57.0,31.0,55.0,32.0,55.0,33.0,53.0,32.0,,,-16.0,254.4,,0.6,-7.0,0.0,,,0.658,0.791,0.0,37.5,,,,,,2026-02-14-N890GF-SN35347-17.4.0.23677-2ND_TAXI-USER_LOG_DATA.csv,,,,,,,62.6,98.6,,,,,134.6,87.8,131.0,89.6,131.0,91.4,127.4,89.6,,,99.5,0.0,131.0,2.092651757188498,1.5750798722044728,0.0,0.3373333333333333,386.6,True,2026-02-14 01:11:43 - Flight 23,
30.06,1.0,9.0,2026-02-14 01:12:07,37.08164,-121.59963,393.0,0.0,27.5,-12.6,,,,,0.0,10.8,-1.6,51.0,0.0,121.0,-0.0,-0.03,1.0,,-26.0,17.0,0.0,30.11,352.0,,,326.0,,,,,0.0,0.0,,,,,,,,,,,,,,,,,,,0.0,37.0,0.0,0.0,30.2,0.0,,0.0,0.6,,,35.9,0.0,0.0,-0.7,1.4,0.6,,,,,57.0,31.0,55.0,32.0,55.0,33.0,53.0,32.0,,,-16.0,254.4,,0.6,-7.0,0.0,,,0.658,0.791,0.0,37.5,,,,,,2026-02-14-N890GF-SN35347-17.4.0.23677-2ND_TAXI-USER_LOG_DATA.csv,,,,,,,62.6,98.6,,,,,134.6,87.8,131.0,89.6,131.0,91.4,127.4,89.6,,,99.5,0.0,131.0,2.092651757188498,1.5750798722044728,0.0,0.3373333333333333,386.6,True,2026-02-14 01:11:43 - Flight 23,
31.06,1.0,9.0,2026-02-14 01:12:08,37.08164,-121.59963,393.0,0.0,27.5,-12.6,,,,,0.0,10.9,-1.6,51.0,0.0,120.0,0.0,-0.03,1.0,,-57.0,17.0,0.0,30.11,352.0,,,326.0,,,,,0.0,0.0,,,,,,,,,,,,,,,,,,,0.0,37.0,0.0,0.0,30.2,0.0,,0.0,0.6,,,35.9,0.0,0.0,-0.7,1.4,0.6,,,,,57.0,31.0,55.0,32.0,55.0,33.0,53.0,32.0,,,-16.0,254.4,,0.6,-7.0,0.0,,,0.658,0.791,0.0,37.5,,,,,,2026-02-14-N890GF-SN35347-17.4.0.23677-2ND_TAXI-USER_LOG_DATA.csv,,,,,,,62.6,98.6,,,,,134.6,87.8,131.0,89.6,131.0,91.4,127.4,89.6,,,99.5,0.0,131.0,2.092651757188498,1.5750798722044728,0.0,0.3373333333333333,386.6,True,2026-02-14 01:11:43 - Flight 23,
32.06,1.0,9.0,2026-02-14 01:12:09,37.08164,-121.59963,393.0,0.0,27.5,-12.6,,,,,0.0,10.9,-1.6,51.0,0.0,118.0,-0.0,-0.03,1.0,,-44.0,17.0,0.0,30.11,356.0,,,326.0,,,,,0.0,0.0,,,,,,,,,,,,,,,,,,,0.0,38.0,0.0,0.0,30.2,0.0,,0.0,0.4,,,35.9,0.0,0.0,-0.7,1.4,0.6,,,,,57.0,31.0,55.0,32.0,55.0,33.0,53.0,32.0,,,-16.0,254.4,,0.4,-7.0,0.0,,,0.658,0.791,0.0,37.5,,,,,,2026-02-14-N890GF-SN35347-17.4.0.23677-2ND_TAXI-USER_LOG_DATA.csv,,,,,,,62.6,100.4,,,,,134.6,87.8,131.0,89.6,131.0,91.4,127.4,89.6,,,99.5,0.0,131.0,2.092651757188498,1.6038338658146964,0.0,0.3373333333333333,386.6,True,2026-02-14 01:11:43 - Flight 23,
33.06,1.0,9.0,2026-02-14 01:12:10,37.08164,-121.59963,393.0,0.0,27.5,-12.6,,,,,0.0,10.9,-1.6,51.0,0.0,118.0,-0.0,-0.03,1.0,,-33.0,17.0,0.0,30.11,356.0,,,326.0,,,,,0.0,0.0,,,,,,,,,,,,,,,,,,,0.0,37.0,0.0,0.0,30.2,0.0,,0.0,1.0,,,35.9,0.0,0.0,-0.7,1.4,0.6,,,,,57.0,31.0,55.0,32.0,55.0,33.0,53.0,32.0,,,-16.0,254.4,,1.0,-7.0,0.0,,,0.658,0.791,0.0,37.5,,,,,,2026-02-14-N890GF-SN35347-17.4.0.23677-2ND_TAXI-USER_LOG_DATA.csv,,,,,,,62.6,98.6,,,,,134.6,87.8,131.0,89.6,131.0,91.4,127.4,89.6,,,99.5,0.0,131.0,2.092651757188498,1.5750798722044728,0.0,0.3373333333333333,386.6,True,2026-02-14 01:11:43 - Flight 23,
34.06,1.0,9.0,2026-02-14 01:12:11,37.08164,-121.59963,393.0,0.0,27.5,-12.6,,,,,0.0,10.9,-1.6,51.1,0.0,116.0,-0.0,-0.03,1.0,,-47.0,17.0,0.0,30.11,354.0,,,326.0,,,,,0.0,0.0,,,,,,,,,,,,,,,,,,,0.0,38.0,0.0,0.0,30.2,0.4,,0.4,30.6,,,35.9,0.0,0.0,-0.6,1.4,0.6,,,,,57.0,31.0,55.0,32.0,55.0,33.0,53.0,32.0,,,-16.0,254.4,,30.6,-7.0,0.0,,,0.658,0.791,0.0,37.5,,,,,,2026-02-14-N890GF-SN35347-17.4.0.23677-2ND_TAXI-USER_LOG_DATA.csv,,,,,,,62.6,100.4,,,,,134.6,87.8,131.0,89.6,131.0,91.4,127.4,89.6,,,99.5,0.0,131.0,2.092651757188498,1.6038338658146964,5.555555555555556e-05,0.3373333333333333,386.6,True,2026-02-14 01:11:43 - Flight 23,
35.06,1.0,9.0,2026-02-14 01:12:12,37.08165,-121.59963,394.0,0.0,27.5,-12.6,,,,,0.0,10.8,-1.6,51.0,0.0,116.0,-0.0,-0.03,1.0,,-15.0,17.0,0.0,30.11,354.0,,,326.0,,,,,0.0,0.0,,,,,,,,,,,,,,,,,,,0.0,38.0,0.0,0.0,30.2,0.5,,0.5,30.9,,,35.9,0.0,0.0,-0.6,1.4,0.6,,,,,57.0,31.0,55.0,32.0,55.0,33.0,53.0,32.0,,,-16.0,254.4,,30.9,-7.0,0.0,,,0.658,0.791,0.0,37.5,,,,,,2026-02-14-N890GF-SN35347-17.4.0.23677-2ND_TAXI-USER_LOG_DATA.csv,,,,,,,62.6,100.4,,,,,134.6,87.8,131.0,89.6,131.0,91.4,127.4,89.6,,,99.5,0.0,131.0,2.092651757188498,1.6038338658146964,0.00018055555555555555,0.3373333333333333,386.6,True,2026-02-14 01:11:43 - Flight 23,
36.06,1.0,9.0,2026-02-14 01:12:13,37.08164,-121.59964,392.0,0.0,27.5,-12.6,,,,,0.0,10.9,-1.6,51.0,0.0,116.0,-0.0,-0.03,1.0,,-54.0,17.0,0.0,30.11,353.0,,,326.0,,,,,0.0,0.0,,,,,,,,,,,,,,,,,,,0.0,37.0,0.0,0.0,30.2,0.5,,0.5,30.3,,,35.9,0.0,0.0,-0.6,1.4,0.6,,,,,57.0,31.0,55.0,32.0,55.0,33.0,53.0,32.0,,,-16.0,254.4,,30.3,-7.0,0.0,,,0.658,0.791,0.0,37.5,,,,,,2026-02-14-N890GF-SN35347-17.4.0.23677-2ND_TAXI-USER_LOG_DATA.csv,,,,,,,62.6,98.6,,,,,134.6,87.8,131.0,89.6,131.0,91.4,127.4,89.6,,,99.5,0.0,131.0,2.092651757188498,1.5750798722044728,0.00031944444444444446,0.3373333333333333,386.6,True,2026-02-14 01:11:43 - Flight 23,
37.06,1.0,9.0,2026-02-14 01:12:14,37.08164,-121.59964,392.0,0.0,27.5,-12.6,,,,,0.0,10.9,-1.6,51.1,0.0,113.0,-0.0,-0.03,1.0,,-55.0,17.0,0.0,30.11,350.0,,,326.0,,,,,0.0,0.0,,,,,,,,,,,,,,,,,,,0.0,37.0,0.0,0.0,30.2,0.5,,0.5,30.0,,,35.9,0.0,0.0,-0.7,1.4,0.6,,,,,57.0,31.0,55.0,32.0,55.0,33.0,53.0,32.0,,,-16.0,254.4,,30.0,-7.0,0.0,,,0.658,0.791,0.0,37.5,,,,,,2026-02-14-N890GF-SN35347-17.4.0.23677-2ND_TAXI-USER_LOG_DATA.csv,,,,,,,62.6,98.6,,,,,134.6,87.8,131.0,89.6,131.0,91.4,127.4,89.6,,,99.5,0.0,131.0,2.092651757188498,1.5750798722044728,0.0004583333333333333,0.3373333333333333,386.6,True,2026-02-14 01:11:43 - Flight 23,
38.06,1.0,9.0,2026-02-14 01:12:15,37.08164,-121.59964,392.0,0.0,27.5,-12.6,,,,,0.0,10.9,-1.6,51.1,0.0,112.0,-0.0,-0.03,1.0,,-75.0,17.0,0.0,30.11,349.0,,,326.0,,,,,0.0,0.0,,,,,,,,,,,,,,,,,,,0.0,37.0,0.0,0.0,30.2,0.5,,0.5,29.9,,,35.9,0.0,0.0,-0.7,1.4,0.6,,,,,57.0,31.0,55.0,32.0,55.0,33.0,53.0,32.0,,,-16.0,254.4,,29.9,-7.0,0.0,,,0.658,0.791,0.0,37.5,,,,,,2026-02-14-N890GF-SN35347-17.4.0.23677-2ND_TAXI-USER_LOG_DATA.csv,,,,,,,62.6,98.6,,,,,134.6,87.8,131.0,89.6,131.0,91.4,127.4,89.6,,,99.5,0.0,131.0,2.092651757188498,1.5750798722044728,0.0005972222222222222,0.3373333333333333,386.6,True,2026-02-14 01:11:43 - Flight 23,
39.06,1.0,9.0,2026-02-14 01:12:16,37.08164,-121.59964,392.0,0.0,27.5,-12.6,,,,,0.0,10.9,-1.6,51.1,0.0,109.0,-0.0,-0.03,1.0,,-112.0,17.0,0.0,30.11,345.0,,,326.0,,,,,0.0,0.0,,,,,,,,,,,,,,,,,,,0.0,37.0,0.0,0.0,30.2,0.0,,0.0,29.7,,,35.9,0.0,0.0,-0.7,1.4,0.6,,,,,57.0,31.0,55.0,32.0,55.0,33.0,53.0,32.0,,,-16.0,254.4,,29.7,-7.0,0.0,,,0.658,0.791,0.0,37.5,,,,,,2026-02-14-N890GF-SN35347-17.4.0.23677-2ND_TAXI-USER_LOG_DATA.csv,,,,,,,62.6,98.6,,,,,134.6,87.8,131.0,89.6,131.0,91.4,127.4,89.6,,,99.5,0.0,131.0,2.092651757188498,1.5750798722044728,0.0006666666666666666,0.3373333333333333,386.6,True,2026-02-14 01:11:43 - Flight 23,
40.06,1.0,9.0,2026-02-14 01:12:17,37.08164,-121.59964,391.0,0.0,27.5,-12.6,,,,,0.0,10.9,-1.6,51.1,0.0,107.0,0.0,-0.03,1.0,,-125.0,17.0,0.0,30.11,345.0,,,326.0,,,,,0.0,0.0,,,,,,,,,,,,,,,,,,,0.0,37.0,0.0,0.0,30.2,0.0,,0.0,29.6,,,35.9,0.0,0.0,-0.7,1.4,0.6,,,,,57.0,31.0,55.0,32.0,55.0,33.0,53.0,32.0,,,-16.0,254.4,,29.6,-7.0,0.0,,,0.658,0.791,0.0,37.5,,,,,,2026-02-14-N890GF-SN35347-17.4.0.23677-2ND_TAXI-USER_LOG_DATA.csv,,,,,,,62.6,98.6,,,,,134.6,87.8,131.0,89.6,131.0,91.4,127.4,89.6,,,99.5,0.0,131.0,2.092651757188498,1.5750798722044728,0.0006666666666666666,0.3373333333333333,386.6,True,2026-02-14 01:11:43 - Flight 23,
41.06,1.0,9.0,2026-02-14 01:12:18,37.08165,-121.59964,391.0,0.0,27.5,-12.6,,,,,0.0,10.9,-1.6,51.1,0.0,104.0,0.0,-0.03,1.0,,-115.0,17.0,0.0,30.11,339.0,,,326.0,,,,,0.0,0.0,,,,,,,,,,,,,,,,,,,0.0,38.0,0.0,0.0,30.2,0.0,,0.0,29.5,,,35.9,0.0,0.0,-0.7,1.4,0.6,,,,,57.0,31.0,55.0,32.0,55.0,33.0,53.0,32.0,,,-16.0,254.4,,29.5,-7.0,0.0,,,0.658,0.791,0.0,37.5,,,,,,2026-02-14-N890GF-SN35347-17.4.0.23677-2ND_TAXI-USER_LOG_DATA.csv,,,,,,,62.6,100.4,,,,,134.6,87.8,131.0,89.6,131.0,91.4,127.4,89.6,,,99.5,0.0,131.0,2.092651757188498,1.6038338658146964,0.0006666666666666666,0.3373333333333333,386.6,True,2026-02-14 01:11:43 - Flight 23,
42.06,1.0,9.0,2026-02-14 01:12:19,37.08165,-121.59964,391.0,0.0,27.5,-12.6,,,,,0.0,10.9,-1.6,51.1,0.0,104.0,-0.0,-0.03,1.0,,-68.0,17.0,0.0,30.11,339.0,,,326.0,,,,,0.0,0.0,,,,,,,,,,,,,,,,,,,0.0,38.0,0.0,0.0,30.2,0.0,,0.0,29.4,,,35.9,0.0,0.0,-0.7,1.4,0.6,,,,,57.0,31.0,55.0,32.0,55.0,33.0,53.0,32.0,,,-16.0,235.2,,29.4,-7.0,0.0,,,0.658,0.791,0.0,37.5,,,,,,2026-02-14-N890GF-SN35347-17.4.0.23677-2ND_TAXI-USER_LOG_DATA.csv,,,,,,,62.6,100.4,,,,,134.6,87.8,131.0,89.6,131.0,91.4,127.4,89.6,,,99.5,0.0,131.0,2.092651757188498,1.6038338658146964,0.0006666666666666666,0.3373333333333333,386.6,True,2026-02-14 01:11:43 - Flight 23,
43.06,1.0,9.0,2026-02-14 01:12:20,37.08165,-121.59964,390.0,0.0,27.5,-12.6,,,,,0.0,10.9,-1.6,51.1,0.0,103.0,-0.0,-0.03,1.0,,-74.0,17.0,0.0,30.11,338.0,,,326.0,,,,,0.0,0.0,,,,,,,,,,,,,,,,,,,0.0,37.0,0.0,0.0,30.2,0.0,,0.0,29.2,,,35.9,0.0,0.0,-0.7,1.4,0.6,,,,,57.0,31.0,55.0,32.0,55.0,33.0,53.0,32.0,,,-16.0,183.0,,29.2,-7.0,0.0,,,0.658,0.791,0.0,37.5,,,,,,2026-02-14-N890GF-SN35347-17.4.0.23677-2ND_TAXI-USER_LOG_DATA.csv,,,,,,,62.6,98.6,,,,,134.6,87.8,131.0,89.6,131.0,91.4,127.4,89.6,,,99.5,0.0,131.0,2.092651757188498,1.5750798722044728,0.0006666666666666666,0.3373333333333333,386.6,True,2026-02-14 01:11:43 - Flight 23,
44.06,1.0,9.0,2026-02-14 01:12:21,37.08165,-121.59964,390.0,0.0,27.5,-12.6,,,,,0.0,10.9,-1.6,51.1,0.0,103.0,-0.0,-0.03,1.0,,-59.0,17.0,0.0,30.11,338.0,,,326.0,,,,,0.0,0.0,,,,,,,,,,,,,,,,,,,0.0,38.0,0.0,0.0,30.2,0.0,,0.0,29.1,,,35.9,0.0,0.0,-0.7,1.4,0.6,,,,,57.0,31.0,55.0,32.0,55.0,33.0,53.0,32.0,,,-16.0,142.5,,29.1,-7.0,0.0,,,0.658,0.791,0.0,37.5,,,,,,2026-02-14-N890GF-SN35347-17.4.0.23677-2ND_TAXI-USER_LOG_DATA.csv,,,,,,,62.6,100.4,,,,,134.6,87.8,131.0,89.6,131.0,91.4,127.4,89.6,,,99.5,0.0,131.0,2.092651757188498,1.6038338658146964,0.0006666666666666666,0.3373333333333333,386.6,True,2026-02-14 01:11:43 - Flight 23,
45.06,1.0,9.0,2026-02-14 01:12:22,37.08165,-121.59964,390.0,0.1,27.5,-12.6,,,,,0.0,10.9,-1.5,51.1,0.0,103.0,-0.0,-0.03,1.0,,-34.0,17.0,0.0,30.11,338.0,,,326.0,,,,,0.0,0.0,,,,,,,,,,,,,,,,,,,0.0,37.0,0.0,0.0,30.2,0.0,,0.0,29.0,,,35.9,0.0,0.0,-0.7,1.4,0.6,,,,,57.0,31.0,55.0,32.0,55.0,33.0,53.0,32.0,,,-16.0,111.0,,29.0,-7.0,0.0,,,0.658,0.791,0.0,37.5,,,,,,2026-02-14-N890GF-SN35347-17.4.0.23677-2ND_TAXI-USER_LOG_DATA.csv,,,,,,,62.6,98.6,,,,,134.6,87.8,131.0,89.6,131.0,91.4,127.4,89.6,,,99.5,0.0,131.0,2.092651757188498,1.5750798722044728,0.0006666666666666666,0.42166666666666663,386.6,True,2026-02-14 01:11:43 - Flight 23,
46.06,1.0,9.0,2026-02-14 01:12:23,37.08165,-121.59964,389.0,0.0,27.5,-12.6,,,,,0.0,10.9,-1.6,51.1,0.0,103.0,0.0,-0.03,1.0,,-16.0,17.0,0.0,30.11,339.0,,,326.0,,,,,0.0,0.0,,,,,,,,,,,,,,,,,,,0.0,38.0,0.0,0.0,30.2,0.0,,0.0,28.9,,,35.9,0.0,0.0,-0.7,1.4,0.6,,,,,57.0,31.0,55.0,32.0,55.0,33.0,53.0,32.0,,,-16.0,86.5,,28.9,-7.0,0.0,,,0.658,0.791,0.0,37.5,,,,,,2026-02-14-N890GF-SN35347-17.4.0.23677-2ND_TAXI-USER_LOG_DATA.csv,,,,,,,62.6,100.4,,,,,134.6,87.8,131.0,89.6,131.0,91.4,127.4,89.6,,,99.5,0.0,131.0,2.092651757188498,1.6038338658146964,0.0006666666666666666,0.506,386.6,True,2026-02-14 01:11:43 - Flight 23,
47.06,1.0,9.0,2026-02-14 01:12:24,37.08165,-121.59964,388.0,0.0,27.5,-12.6,,,,,0.0,10.8,-1.7,51.0,0.0,103.0,-0.0,-0.02,1.0,,-7.0,17.0,0.0,30.11,339.0,,,326.0,,,,,0.0,0.0,,,,,,,,,,,,,,,,,,,0.0,30.0,102.0,102.0,30.2,0.0,,0.0,29.0,,,35.9,0.0,0.0,-0.7,1.4,0.6,,,,,52.0,25.0,50.0,25.0,50.0,27.0,48.0,25.0,,,-15.0,67.4,,29.0,-7.0,0.0,,,0.657,0.79,0.0,30.3,,,,,,2026-02-14-N890GF-SN35347-17.4.0.23677-2ND_TAXI-USER_LOG_DATA.csv,,,,,,,62.6,86.0,,,,,125.6,77.0,122.0,77.0,122.0,80.6,118.4,77.0,,,86.53999999999999,102.0,122.0,1.9488817891373802,1.3738019169329072,0.0006666666666666666,0.506,386.6,True,2026-02-14 01:11:43 - Flight 23,
48.06,1.0,9.0,2026-02-14 01:12:25,37.08164,-121.59964,387.0,0.0,27.5,-12.6,,,,,0.0,10.9,-1.5,51.1,0.0,102.0,-0.0,-0.02,1.0,,0.0,17.0,0.0,30.11,339.0,,,326.0,,,,,0.0,0.0,,,,,,,,,,,,,,,,,,,0.0,34.0,182.0,182.0,30.0,0.0,,0.0,28.9,,,35.9,0.0,0.0,-0.6,1.4,0.6,,,,,55.0,29.0,53.0,29.0,53.0,31.0,51.0,29.0,,,-18.0,52.6,,28.9,-7.0,0.0,,,0.657,0.791,0.2,33.9,,,,,,2026-02-14-N890GF-SN35347-17.4.0.23677-2ND_TAXI-USER_LOG_DATA.csv,,,,,,,62.6,93.2,,,,,131.0,84.2,127.4,84.2,127.4,87.8,123.8,84.2,,,93.02,182.0,127.4,2.0351437699680512,1.488817891373802,0.0006666666666666666,0.506,386.6,True,2026-02-14 01:11:43 - Flight 23,
49.06,1.0,9.0,2026-02-14 01:12:26,37.08164,-121.59964,386.0,0.0,27.5,-12.6,,,,,0.0,10.9,-1.5,51.0,0.0,101.0,-0.0,-0.02,0.9,,-22.0,17.0,0.0,30.11,337.0,,,326.0,,,,,0.0,0.0,,,,,,,,,,,,,,,,,,,4.0,37.0,732.0,732.0,27.8,1.1,,1.1,24.2,,,35.9,0.0,0.0,-0.6,1.4,0.6,,,,,57.0,40.0,55.0,43.0,55.0,52.0,53.0,53.0,,,-16.0,41.1,,24.2,-7.0,0.0,,,0.664,0.792,4.4,36.8,,,,,,2026-02-14-N890GF-SN35347-17.4.0.23677-2ND_TAXI-USER_LOG_DATA.csv,,,,,,,62.6,98.6,,,,,134.6,104.0,131.0,109.4,131.0,125.6,127.4,127.4,,,98.24,732.0,131.0,2.092651757188498,1.5750798722044728,0.0008194444444444445,0.506,386.6,True,2026-02-14 01:11:43 - Flight 23,
50.06,1.0,9.0,2026-02-14 01:12:27,37.08164,-121.59964,385.0,0.1,27.5,-12.6,,,,,0.0,10.8,-1.6,51.1,0.0,101.0,-0.0,-0.02,1.0,,0.0,17.0,0.0,30.11,337.0,,,326.0,,,,,0.0,0.0,,,,,,,,,,,,,,,,,,,19.0,38.0,1024.0,1024.0,25.9,2.1,,2.1,24.5,,,35.9,0.0,0.0,-0.6,1.4,0.6,,,,,57.0,74.0,55.0,54.0,55.0,94.0,53.0,63.0,,,-16.0,32.2,,24.5,-7.0,0.0,,,0.659,0.791,19.1,37.5,,,8.0,L,,2026-02-14-N890GF-SN35347-17.4.0.23677-2ND_TAXI-USER_LOG_DATA.csv,,,,,,,62.6,100.4,,,,,134.6,165.2,131.0,129.2,131.0,201.2,127.4,145.4,,,99.5,1024.0,131.0,2.092651757188498,1.6038338658146964,0.001263888888888889,0.5903333333333333,386.6,True,2026-02-14 01:11:43 - Flight 23,0.2625
51.06,1.0,9.0,2026-02-14 01:12:28,37.08164,-121.59964,384.0,0.0,27.5,-12.6,,,,,0.0,10.8,-1.5,51.1,0.0,101.0,-0.0,-0.03,0.9,,6.0,17.0,0.0,30.11,337.0,,,326.0,,,,,0.0,0.0,,,,,,,,,,,,,,,,,,,59.0,38.0,1171.0,1171.0,21.6,2.8,,2.8,25.1,,,35.9,0.0,0.0,-0.6,1.4,0.6,,,,,58.0,115.0,55.0,67.0,55.0,153.0,54.0,129.0,,,-16.0,25.2,,25.1,-7.0,0.0,,,0.659,0.791,58.6,37.5,,,15.0,P,,2026-02-14-N890GF-SN35347-17.4.0.23677-2ND_TAXI-USER_LOG_DATA.csv,,,,,,,62.6,100.4,,,,,136.4,239.0,131.0,152.6,131.0,307.4,129.2,264.2,,,99.5,1171.0,131.9,2.1070287539936103,1.6038338658146964,0.0019444444444444444,0.6746666666666666,386.6,True,2026-02-14 01:11:43 - Flight 23,0.18666666666666665
52.06,1.0,9.0,2026-02-14 01:12:29,37.08164,-121.59964,384.0,0.0,27.5,-12.6,,,,,0.0,10.8,-1.6,51.1,0.0,101.0,-0.0,-0.03,1.0,,5.0,17.0,0.0,30.11,335.0,,,326.0,,,,,0.0,0.0,,,,,,,,,,,,,,,,,,,71.0,38.0,1282.0,1282.0,20.6,3.3,,3.3,25.4,,,35.9,0.0,0.0,-0.7,1.4,0.6,,,,,58.0,142.0,55.0,87.0,55.0,201.0,54.0,177.0,,,-16.0,19.8,,25.4,-7.0,0.0,,,0.659,0.792,70.6,37.5,,,18.0,R,,2026-02-14-N890GF-SN35347-17.4.0.23677-2ND_TAXI-USER_LOG_DATA.csv,,,,,,,62.6,100.4,,,,,136.4,287.6,131.0,188.6,131.0,393.8,129.2,350.6,,,99.5,1282.0,131.9,2.1070287539936103,1.6038338658146964,0.0027916666666666667,0.6746666666666666,386.6,True,2026-02-14 01:11:43 - Flight 23,0.18333333333333332
53.06,1.0,9.0,2026-02-14 01:12:30,37.08164,-121.59964,383.0,0.0,27.5,-12.6,,,,,0.0,10.8,-1.5,51.1,0.0,101.0,-0.0,-0.02,0.9,,68.0,17.0,0.0,30.11,335.0,,,326.0,,,,,0.0,0.0,,,,,,,,,,,,,,,,,,,76.0,37.0,1491.0,1491.0,18.8,3.8,,3.8,25.6,,,35.9,0.0,0.0,-0.7,1.4,0.6,,,,,58.0,191.0,56.0,128.0,56.0,247.0,55.0,225.0,,,-16.0,15.6,,25.6,-7.0,0.0,,,0.657,0.791,76.4,37.5,,,18.0,R,,2026-02-14-N890GF-SN35347-17.4.0.23677-2ND_TAXI-USER_LOG_DATA.csv,,,,,,,62.6,98.6,,,,,136.4,375.8,132.8,262.4,132.8,476.6,131.0,437.0,,,99.5,1491.0,133.25,2.128594249201278,1.5750798722044728,0.0037777777777777775,0.6746666666666666,386.6,True,2026-02-14 01:11:43 - Flight 23,0.2111111111111111
54.06,1.0,9.0,2026-02-14 01:12:31,37.08164,-121.59964,382.0,0.0,27.5,-12.6,,,,,0.0,10.7,-1.5,51.1,0.0,101.0,-0.0,-0.03,1.0,,78.0,17.0,0.0,30.11,335.0,,,326.0,,,,,0.0,0.0,,,,,,,,,,,,,,,,,,,81.0,37.0,1599.0,1599.0,16.6,4.1,,4.1,25.7,,,35.9,0.0,0.0,-0.7,1.4,0.6,,,,,58.0,252.0,56.0,194.0,56.0,293.0,55.0,275.0,,,-16.0,12.3,,25.7,-7.0,0.0,,,0.657,0.791,81.2,37.4,,,,,,2026-02-14-N890GF-SN35347-17.4.0.23677-2ND_TAXI-USER_LOG_DATA.csv,,,,,,,62.6,98.6,,,,,136.4,485.6,132.8,381.2,132.8,559.4,131.0,527.0,,,99.32,1599.0,133.25,2.128594249201278,1.5750798722044728,0.004875,0.6746666666666666,386.6,True,2026-02-14 01:11:43 - Flight 23,
55.06,1.0,9.0,2026-02-14 01:12:32,37.08164,-121.59964,382.0,0.0,27.5,-12.6,,,,,0.0,10.8,-1.5,51.1,0.0,101.0,-0.0,-0.03,1.1,,63.0,17.0,0.0,30.11,336.0,,,326.0,,,,,0.0,0.0,,,,,,,,,,,,,,,,,,,76.0,37.0,1400.0,1400.0,15.0,4.1,,4.1,25.9,,,35.9,0.0,0.0,-0.7,1.4,0.6,,,,,58.0,305.0,57.0,249.0,57.0,332.0,56.0,316.0,,,-16.0,9.8,,25.9,-7.0,0.0,,,0.657,0.791,76.4,37.4,,,,,,2026-02-14-N890GF-SN35347-17.4.0.23677-2ND_TAXI-USER_LOG_DATA.csv,,,,,,,62.6,98.6,,,,,136.4,581.0,134.6,480.2,134.6,629.6,132.8,600.8,,,99.32,1400.0,134.6,2.1501597444089455,1.5750798722044728,0.006013888888888888,0.6746666666666666,386.6,True,2026-02-14 01:11:43 - Flight 23,
56.06,1.0,9.0,2026-02-14 01:12:33,37.08164,-121.59964,381.0,0.0,27.5,-12.6,,,,,0.0,10.7,-1.5,51.2,0.0,101.0,-0.0,-0.03,1.0,,33.0,17.0,0.0,30.11,336.0,,,326.0,,,,,0.0,0.0,,,,,,,,,,,,,,,,,,,73.0,37.0,1276.0,1276.0,14.5,4.1,,4.1,25.9,,,35.9,0.0,0.0,-0.7,1.4,0.6,,,,,59.0,344.0,57.0,292.0,57.0,362.0,56.0,349.0,,,-16.0,7.8,,25.9,-7.0,0.0,,,0.657,0.791,73.2,37.4,,,,,,2026-02-14-N890GF-SN35347-17.4.0.23677-2ND_TAXI-USER_LOG_DATA.csv,,,,,,,62.6,98.6,,,,,138.2,651.2,134.6,557.6,134.6,683.6,132.8,660.2,,,99.32,1276.0,135.05,2.157348242811502,1.5750798722044728,0.007152777777777777,0.6746666666666666,386.6,True,2026-02-14 01:11:43 - Flight 23,
57.06,1.0,9.0,2026-02-14 01:12:34,37.08164,-121.59964,381.0,0.0,27.5,-12.6,,,,,0.0,10.8,-1.5,51.1,0.0,101.0,-0.0,-0.03,1.0,,22.0,17.0,0.0,30.11,336.0,,,326.0,,,,,0.0,0.0,,,,,,,,,,,,,,,,,,,69.0,37.0,1148.0,1148.0,14.0,3.8,,3.8,25.9,,,35.9,0.0,0.0,-0.7,1.4,0.6,,,,,59.0,372.0,58.0,325.0,57.0,386.0,57.0,377.0,,,-16.0,6.3,,25.9,-7.0,0.0,,,0.656,0.791,68.7,37.4,,,,,,2026-02-14-N890GF-SN35347-17.4.0.23677-2ND_TAXI-USER_LOG_DATA.csv,,,,,,,62.6,98.6,,,,,138.2,701.6,136.4,617.0,134.6,726.8,134.6,710.6,,,99.32,1148.0,135.95,2.171725239616613,1.5750798722044728,0.008249999999999999,0.6746666666666666,386.6,True,2026-02-14 01:11:43 - Flight 23,
58.06,1.0,9.0,2026-02-14 01:12:35,37.08164,-121.59963,380.0,0.0,27.5,-12.6,,,,,0.0,10.8,-1.5,51.1,0.0,101.0,-0.1,-0.03,1.0,,29.0,17.0,0.0,30.11,336.0,,,326.0,,,,,0.0,0.0,,,,,,,,,,,,,,,,,,,67.0,37.0,1084.0,1084.0,13.9,3.6,,3.6,25.9,,,35.9,0.0,0.0,-0.7,1.4,0.6,,,,,60.0,395.0,58.0,353.0,58.0,405.0,57.0,399.0,,,-16.0,5.1,,25.9,-7.0,0.0,,,0.656,0.791,66.7,37.4,,,,,,2026-02-14-N890GF-SN35347-17.4.0.23677-2ND_TAXI-USER_LOG_DATA.csv,,,,,,,62.6,98.6,,,,,140.0,743.0,136.4,667.4,136.4,761.0,134.6,750.2,,,99.32,1084.0,136.85,2.1861022364217253,1.5750798722044728,0.009277777777777777,0.6746666666666666,386.6,True,2026-02-14 01:11:43 - Flight 23,
59.06,1.0,9.0,2026-02-14 01:12:36,37.08164,-121.59963,380.0,0.0,27.5,-12.6,,,,,0.0,10.8,-1.5,51.1,0.0,101.0,-0.0,-0.03,1.0,,19.0,17.0,0.0,30.11,336.0,,,326.0,,,,,0.0,0.0,,,,,,,,,,,,,,,,,,,65.0,37.0,996.0,996.0,13.7,3.4,,3.4,26.0,,,35.9,0.0,0.0,-0.7,1.4,0.6,,,,,60.0,412.0,58.0,375.0,58.0,420.0,58.0,417.0,,,-16.0,4.2,,26.0,-7.0,0.0,,,0.66,0.791,65.0,37.4,,,,,,2026-02-14-N890GF-SN35347-17.4.0.23677-2ND_TAXI-USER_LOG_DATA.csv,,,,,,,62.6,98.6,,,,,140.0,773.6,136.4,707.0,136.4,788.0,136.4,782.6,,,99.32,996.0,137.3,2.193290734824281,1.5750798722044728,0.010249999999999999,0.6746666666666666,386.6,True,2026-02-14 01:11:43 - Flight 23,
60.06,1.0,9.0,2026-02-14 01:12:37,37.08164,-121.59963,379.0,0.1,27.5,-12.6,,,,,0.0,10.8,-1.5,51.1,0.0,101.0,-0.0,-0.03,1.0,,41.0,17.0,0.0,30.11,336.0,,,326.0,,,,,0.0,0.0,,,,,,,,,,,,,,,,,,,63.0,37.0,955.0,955.0,13.8,3.2,,3.2,26.0,,,35.9,0.0,0.0,-0.7,1.4,0.6,,,,,61.0,426.0,58.0,383.0,58.0,429.0,58.0,431.0,,,-16.0,3.5,,26.0,-7.0,0.0,,,0.66,0.791,63.1,37.4,,,,,,2026-02-14-N890GF-SN35347-17.4.0.23677-2ND_TAXI-USER_LOG_DATA.csv,,,,,,,62.6,98.6,,,,,141.8,798.8,136.4,721.4,136.4,804.2,136.4,807.8,,,99.32,955.0,137.75,2.200479233226837,1.5750798722044728,0.011166666666666665,0.759,386.6,True,2026-02-14 01:11:43 - Flight 23,
61.06,1.0,9.0,2026-02-14 01:12:38,37.08164,-121.59963,379.0,0.0,27.5,-12.6,,,,,0.0,10.8,-1.5,51.1,0.0,101.0,-0.0,-0.03,1.0,,49.0,17.0,0.0,30.11,336.0,,,326.0,,,,,0.0,0.0,,,,,,,,,,,,,,,,,,,63.0,37.0,963.0,963.0,13.9,3.1,,3.1,26.0,,,35.9,0.0,0.0,-0.7,1.4,0.6,,,,,61.0,437.0,59.0,381.0,59.0,437.0,58.0,442.0,,,-16.0,2.9,,26.0,-7.0,0.0,,,0.659,0.791,62.9,37.4,,,,,,2026-02-14-N890GF-SN35347-17.4.0.23677-2ND_TAXI-USER_LOG_DATA.csv,,,,,,,62.6,98.6,,,,,141.8,818.6,138.2,717.8,138.2,818.6,136.4,827.6,,,99.32,963.0,138.65,2.2148562300319488,1.5750798722044728,0.012041666666666666,0.8433333333333333,386.6,True,2026-02-14 01:11:43 - Flight 23,
62.06,1.0,9.0,2026-02-14 01:12:39,37.08164,-121.59963,378.0,0.0,27.5,-12.6,,,,,0.0,10.8,-1.6,51.0,0.0,101.0,-0.0,-0.03,1.0,,42.0,17.0,0.0,30.11,336.0,,,326.0,,,,,0.0,0.0,,,,,,,,,,,,,,,,,,,63.0,37.0,975.0,975.0,13.8,3.0,,3.0,26.0,,,35.9,0.0,0.0,-0.7,1.4,0.6,,,,,61.0,441.0,59.0,384.0,59.0,444.0,59.0,453.0,,,-16.0,2.5,,26.0,-7.0,0.0,,,0.659,0.791,63.3,37.4,,,,,,2026-02-14-N890GF-SN35347-17.4.0.23677-2ND_TAXI-USER_LOG_DATA.csv,,,,,,,62.6,98.6,,,,,141.8,825.8,138.2,723.2,138.2,831.2,138.2,847.4,,,99.32,975.0,139.1,2.2220447284345046,1.5750798722044728,0.012888888888888887,0.8433333333333333,386.6,True,2026-02-14 01:11:43 - Flight 23,
63.06,1.0,9.0,2026-02-14 01:12:40,37.08164,-121.59963,377.0,0.0,27.5,-12.6,,,,,0.0,10.8,-1.6,51.0,0.0,102.0,-0.0,-0.03,1.0,,19.0,17.0,0.0,30.11,336.0,,,326.0,,,,,0.0,0.0,,,,,,,,,,,,,,,,,,,63.0,37.0,964.0,964.0,13.8,2.8,,2.8,26.0,,,35.9,0.0,0.0,-0.7,1.4,0.6,,,,,61.0,449.0,59.0,393.0,59.0,451.0,59.0,462.0,,,-16.0,2.2,,26.0,-7.0,0.0,,,0.66,0.791,63.1,37.4,,,,,,2026-02-14-N890GF-SN35347-17.4.0.23677-2ND_TAXI-USER_LOG_DATA.csv,,,,,,,62.6,98.6,,,,,141.8,840.2,138.2,739.4,138.2,843.8,138.2,863.6,,,99.32,964.0,139.1,2.2220447284345046,1.5750798722044728,0.013694444444444443,0.8433333333333333,386.6,True,2026-02-14 01:11:43 - Flight 23,
64.06,1.0,9.0,2026-02-14 01:12:41,37.08164,-121.59963,377.0,0.0,27.5,-12.6,,,,,0.0,10.8,-1.6,51.0,0.0,102.0,-0.0,-0.03,1.0,,19.0,17.0,0.0,30.11,337.0,,,326.0,,,,,0.0,0.0,,,,,,,,,,,,,,,,,,,63.0,37.0,959.0,959.0,13.7,2.7,,2.7,26.0,,,35.9,0.0,0.0,-0.7,1.4,0.6,,,,,62.0,456.0,59.0,401.0,60.0,458.0,59.0,471.0,,,-16.0,1.9,,26.0,-7.0,0.0,,,0.659,0.791,62.8,37.4,,,,,,2026-02-14-N890GF-SN35347-17.4.0.23677-2ND_TAXI-USER_LOG_DATA.csv,,,,,,,62.6,98.6,,,,,143.6,852.8,138.2,753.8,140.0,856.4,138.2,879.8,,,99.32,959.0,140.0,2.2364217252396164,1.5750798722044728,0.014458333333333332,0.8433333333333333,386.6,True,2026-02-14 01:11:43 - Flight 23,
65.06,1.0,9.0,2026-02-14 01:12:42,37.08164,-121.59963,376.0,0.0,27.5,-12.6,,,,,0.0,10.8,-1.6,50.9,0.0,102.0,-0.0,-0.02,1.0,,21.0,17.0,0.0,30.11,337.0,,,326.0,,,,,0.0,0.0,,,,,,,,,,,,,,,,,,,63.0,37.0,983.0,983.0,13.8,2.7,,2.7,26.0,,,35.9,0.0,0.0,-0.7,1.4,0.6,,,,,62.0,465.0,60.0,401.0,60.0,464.0,60.0,478.0,,,-16.0,1.7,,26.0,-7.0,0.0,,,0.659,0.791,63.2,37.4,,,,,,2026-02-14-N890GF-SN35347-17.4.0.23677-2ND_TAXI-USER_LOG_DATA.csv,,,,,,,62.6,98.6,,,,,143.6,869.0,140.0,753.8,140.0,867.2,140.0,892.4,,,99.32,983.0,140.9,2.2507987220447285,1.5750798722044728,0.015208333333333332,0.8433333333333333,386.6,True,2026-02-14 01:11:43 - Flight 23,
66.06,1.0,9.0,2026-02-14 01:12:43,37.08164,-121.59963,375.0,0.0,27.5,-12.6,,,,,0.0,10.9,-1.6,50.9,0.0,102.0,-0.0,-0.02,1.0,,18.0,17.0,0.0,30.11,337.0,,,326.0,,,,,0.0,0.0,,,,,,,,,,,,,,,,,,,63.0,37.0,969.0,969.0,13.6,2.6,,2.6,26.0,,,35.9,0.0,0.0,-0.7,1.4,0.6,,,,,62.0,474.0,60.0,404.0,61.0,469.0,60.0,486.0,,,-16.0,1.5,,26.0,-7.0,0.0,,,0.659,0.791,63.2,37.4,,,,,,2026-02-14-N890GF-SN35347-17.4.0.23677-2ND_TAXI-USER_LOG_DATA.csv,,,,,,,62.6,98.6,,,,,143.6,885.2,140.0,759.2,141.8,876.2,140.0,906.8,,,99.32,969.0,141.35,2.2579872204472844,1.5750798722044728,0.015944444444444445,0.8433333333333333,386.6,True,2026-02-14 01:11:43 - Flight 23,
67.06,1.0,9.0,2026-02-14 01:12:44,37.08164,-121.59962,357.0,0.0,27.5,-12.6,,,,,0.0,10.8,-1.6,50.9,0.0,103.0,-0.0,-0.03,1.0,,25.0,17.0,0.0,30.11,337.0,,,326.0,,,,,0.0,0.0,,,,,,,,,,,,,,,,,,,64.0,37.0,973.0,973.0,13.6,2.6,,2.6,26.0,,,35.9,0.0,0.0,-0.7,1.4,0.6,,,,,63.0,482.0,60.0,406.0,61.0,474.0,61.0,492.0,,,-16.0,1.4,,26.0,-7.0,0.0,,,0.659,0.791,63.6,37.4,,,,,,2026-02-14-N890GF-SN35347-17.4.0.23677-2ND_TAXI-USER_LOG_DATA.csv,,,,,,,62.6,98.6,,,,,145.4,899.6,140.0,762.8,141.8,885.2,141.8,917.6,,,99.32,973.0,142.25,2.272364217252396,1.5750798722044728,0.016666666666666666,0.8433333333333333,386.6,True,2026-02-14 01:11:43 - Flight 23,
68.06,1.0,9.0,2026-02-14 01:12:45,37.08164,-121.59962,357.0,0.0,27.5,-12.6,,,,,0.0,10.9,-1.6,50.9,0.0,103.0,-0.0,-0.03,1.0,,28.0,17.0,0.0,30.11,337.0,,,326.0,,,,,0.0,0.0,,,,,,,,,,,,,,,,,,,63.0,37.0,968.0,968.0,13.6,2.6,,2.6,26.0,,,35.9,0.0,0.0,-0.7,1.4,0.6,,,,,63.0,490.0,61.0,412.0,61.0,479.0,61.0,499.0,,,-16.0,1.3,,26.0,-7.0,0.0,,,0.659,0.791,63.0,37.4,,,,,,2026-02-14-N890GF-SN35347-17.4.0.23677-2ND_TAXI-USER_LOG_DATA.csv,,,,,,,62.6,98.6,,,,,145.4,914.0,141.8,773.6,141.8,894.2,141.8,930.2,,,99.32,968.0,142.70000000000002,2.2795527156549524,1.5750798722044728,0.017388888888888888,0.8433333333333333,386.6,True,2026-02-14 01:11:43 - Flight 23,
69.06,1.0,9.0,2026-02-14 01:12:46,37.08164,-121.59962,357.0,0.0,27.5,-12.6,,,,,0.0,10.9,-1.5,50.9,0.0,103.0,0.0,-0.03,1.0,,25.0,17.0,0.0,30.11,337.0,,,326.0,,,,,0.0,0.0,,,,,,,,,,,,,,,,,,,63.0,38.0,969.0,969.0,13.6,2.6,,2.6,26.1,,,35.9,0.0,0.0,0.2,1.4,0.6,,,,,64.0,496.0,62.0,413.0,62.0,483.0,62.0,505.0,,,-16.0,1.3,,26.1,-7.0,0.0,,,0.659,0.791,63.2,38.1,,,,,,2026-02-14-N890GF-SN35347-17.4.0.23677-2ND_TAXI-USER_LOG_DATA.csv,,,,,,,62.6,100.4,,,,,147.2,924.8,143.6,775.4,143.6,901.4,143.6,941.0,,,100.58000000000001,969.0,144.5,2.3083067092651754,1.6038338658146964,0.01811111111111111,0.8433333333333333,386.6,True,2026-02-14 01:11:43 - Flight 23,
70.06,1.0,9.0,2026-02-14 01:12:47,37.08163,-121.59962,357.0,0.0,27.5,-12.6,,,,,0.0,10.8,-1.5,50.9,0.0,103.0,-0.0,-0.03,1.0,,-8.0,17.0,0.0,30.11,340.0,,,326.0,,,,,0.0,0.0,,,,,,,0.0,,,-24.0,,,,,,,,,61.0,39.0,887.0,887.0,14.4,2.5,,2.5,25.9,,,35.9,0.0,0.0,22.6,1.4,0.6,,,,,65.0,501.0,62.0,420.0,64.0,487.0,63.0,510.0,,,-16.0,1.2,,25.9,-7.0,0.0,,,0.659,0.791,61.1,39.3,,,,,,2026-02-14-N890GF-SN35347-17.4.0.23677-2ND_TAXI-USER_LOG_DATA.csv,,,,,,,62.6,102.2,,,,,149.0,933.8,143.6,788.0,147.2,908.6,145.4,950.0,,,102.74,887.0,146.3,2.3370607028753994,1.6325878594249201,0.018819444444444444,0.8433333333333333,386.6,True,2026-02-14 01:11:43 - Flight 23,
71.06,1.0,9.0,2026-02-14 01:12:48,37.08163,-121.59962,359.0,0.0,27.5,-12.6,,,,,0.0,10.8,-1.5,50.8,0.0,103.0,-0.0,-0.03,1.0,,-33.0,17.0,0.0,30.11,340.0,,,326.0,,,,,0.0,0.0,,,,,,,0.0,,,-28.0,,,,,,,,,61.0,39.0,869.0,869.0,15.1,2.5,,2.5,26.0,,,35.9,0.0,0.0,35.8,1.4,0.6,,,,,65.0,505.0,63.0,427.0,64.0,490.0,64.0,513.0,,,-16.0,1.1,,26.0,-7.0,0.0,,,0.659,0.791,60.5,39.2,,,,,,2026-02-14-N890GF-SN35347-17.4.0.23677-2ND_TAXI-USER_LOG_DATA.csv,,,,,,,62.6,102.2,,,,,149.0,941.0,145.4,800.6,147.2,914.0,147.2,955.4,,,102.56,869.0,147.2,2.351437699680511,1.6325878594249201,0.01951388888888889,0.8433333333333333,386.6,True,2026-02-14 01:11:43 - Flight 23,
72.06,1.0,9.0,2026-02-14 01:12:49,37.08163,-121.59962,360.0,0.0,27.5,-12.6,,,,,0.0,10.9,-1.5,50.8,0.0,103.0,-0.0,-0.03,1.0,,-20.0,17.0,0.0,30.11,340.0,,,326.0,,,,,0.0,0.0,,,,,,,0.0,,,-33.0,,,,,,,,,60.0,39.0,875.0,875.0,15.2,2.4,,2.4,26.0,,,35.9,0.0,0.0,43.5,1.4,0.6,,,,,65.0,509.0,63.0,438.0,64.0,493.0,64.0,516.0,,,-16.0,1.1,,26.0,-7.0,0.0,,,0.658,0.791,60.5,39.2,,,,,,2026-02-14-N890GF-SN35347-17.4.0.23677-2ND_TAXI-USER_LOG_DATA.csv,,,,,,,62.6,102.2,,,,,149.0,948.2,145.4,820.4,147.2,919.4,147.2,960.8,,,102.56,875.0,147.2,2.351437699680511,1.6325878594249201,0.020194444444444445,0.8433333333333333,386.6,True,2026-02-14 01:11:43 - Flight 23,
73.06,1.0,9.0,2026-02-14 01:12:50,37.08163,-121.59962,360.0,0.0,27.5,-12.6,,,,,0.0,10.8,-1.6,50.7,0.0,103.0,-0.1,-0.03,1.0,,8.0,17.0,0.0,30.11,340.0,,,326.0,,,,,0.0,0.0,,,,,,,0.0,,,-36.0,,,,,,,,,62.0,39.0,914.0,914.0,14.9,2.4,,2.4,26.0,,,35.9,0.0,0.0,49.1,1.4,0.6,,,,,66.0,513.0,63.0,448.0,64.0,496.0,64.0,519.0,,,-16.0,1.1,,26.0,-7.0,0.0,,,0.658,0.791,61.7,39.3,,,,,,2026-02-14-N890GF-SN35347-17.4.0.23677-2ND_TAXI-USER_LOG_DATA.csv,,,,,,,62.6,102.2,,,,,150.8,955.4,145.4,838.4,147.2,924.8,147.2,966.2,,,102.74,914.0,147.64999999999998,2.3586261980830665,1.6325878594249201,0.02086111111111111,0.8433333333333333,386.6,True,2026-02-14 01:11:43 - Flight 23,
74.06,1.0,9.0,2026-02-14 01:12:51,37.08163,-121.59962,361.0,0.0,27.5,-12.6,,,,,0.0,10.9,-1.6,50.8,0.0,103.0,-0.0,-0.03,0.9,,8.0,17.0,0.0,30.11,340.0,,,326.0,,,,,0.0,0.0,,,,,,,0.0,,,-39.0,,,,,3.0,0.0,0.0,1200.0,61.0,39.0,896.0,896.0,14.8,2.4,,2.4,26.0,,,35.9,0.0,0.0,50.5,1.4,0.6,,,,,66.0,516.0,64.0,456.0,65.0,498.0,64.0,522.0,,,-16.0,1.0,,26.0,-7.0,0.0,,,0.658,0.791,61.3,39.0,,,,,,2026-02-14-N890GF-SN35347-17.4.0.23677-2ND_TAXI-USER_LOG_DATA.csv,,,,,,,62.6,102.2,,,,,150.8,960.8,147.2,852.8,149.0,928.4,147.2,971.6,,,102.2,896.0,148.55,2.373003194888179,1.6325878594249201,0.021527777777777778,0.8433333333333333,386.6,True,2026-02-14 01:11:43 - Flight 23,
75.06,1.0,9.0,2026-02-14 01:12:52,37.08163,-121.59962,362.0,0.0,27.5,-12.6,,,,,0.0,10.8,-1.6,50.8,0.0,103.0,0.0,-0.03,1.0,,-55.0,17.0,0.0,30.11,340.0,,,326.0,,,,,0.0,0.0,,,,,,,0.0,,,-40.0,,,,,1.0,0.0,0.0,1200.0,62.0,39.0,912.0,912.0,14.8,2.4,,2.4,26.0,,,35.9,0.0,0.0,47.4,1.4,0.6,,,,,66.0,518.0,64.0,465.0,65.0,501.0,65.0,525.0,,,-16.0,1.0,,26.0,-7.0,0.0,,,0.658,0.791,61.6,38.8,,,,,,2026-02-14-N890GF-SN35347-17.4.0.23677-2ND_TAXI-USER_LOG_DATA.csv,,,,,,,62.6,102.2,,,,,150.8,964.4,147.2,869.0,149.0,933.8,149.0,977.0,,,101.84,912.0,149.0,2.380191693290735,1.6325878594249201,0.022194444444444444,0.8433333333333333,386.6,True,2026-02-14 01:11:43 - Flight 23,
76.06,1.0,9.0,2026-02-14 01:12:53,37.08163,-121.59962,363.0,0.0,27.5,-12.6,,,,,0.0,10.8,-1.6,50.8,0.0,103.0,-0.0,-0.03,1.0,,-12.0,17.0,0.0,30.11,340.0,,,326.0,,,,,0.0,0.0,,,,,,,0.0,,,-41.0,,,,,1.0,0.0,0.0,1200.0,62.0,39.0,927.0,927.0,14.7,2.4,,2.4,26.0,,,35.9,0.0,0.0,42.9,1.4,0.6,,,,,66.0,523.0,64.0,472.0,65.0,503.0,65.0,528.0,,,-16.0,1.0,,26.0,-7.0,0.0,,,0.658,0.791,61.8,38.6,,,,,,2026-02-14-N890GF-SN35347-17.4.0.23677-2ND_TAXI-USER_LOG_DATA.csv,,,,,,,62.6,102.2,,,,,150.8,973.4,147.2,881.6,149.0,937.4,149.0,982.4,,,101.48,927.0,149.0,2.380191693290735,1.6325878594249201,0.02286111111111111,0.8433333333333333,386.6,True,2026-02-14 01:11:43 - Flight 23,
77.06,1.0,9.0,2026-02-14 01:12:54,37.08163,-121.59962,363.0,0.0,27.5,-12.6,,,,,0.0,10.8,-1.6,50.8,0.0,103.0,-0.0,-0.03,1.0,,6.0,17.0,0.0,30.11,341.0,,,326.0,,,,,0.0,0.0,,,,,,,0.0,,,-43.0,,,,,,,,,62.0,38.0,940.0,940.0,14.6,2.4,,2.4,26.0,,,35.9,0.0,0.0,38.3,1.4,0.6,,,,,67.0,525.0,64.0,479.0,66.0,506.0,66.0,529.0,,,-16.0,1.0,,26.0,-7.0,0.0,,,0.658,0.791,62.0,38.5,,,,,,2026-02-14-N890GF-SN35347-17.4.0.23677-2ND_TAXI-USER_LOG_DATA.csv,,,,,,,62.6,100.4,,,,,152.6,977.0,147.2,894.2,150.8,942.8,150.8,984.2,,,101.3,940.0,150.35,2.4017571884984026,1.6038338658146964,0.023527777777777776,0.8433333333333333,386.6,True,2026-02-14 01:11:43 - Flight 23,
78.06,1.0,9.0,2026-02-14 01:12:55,37.08163,-121.59962,364.0,0.0,27.5,-12.6,,,,,0.0,10.9,-1.7,50.8,0.0,103.0,-0.0,-0.03,1.0,,2.0,17.0,0.0,30.11,341.0,,,326.0,,,,,0.0,0.0,,,,,,,0.0,,,-44.0,,,,,,,,,62.0,38.0,933.0,933.0,14.3,2.3,,2.3,26.0,,,35.9,0.0,0.0,34.0,1.4,0.6,,,,,67.0,528.0,65.0,486.0,66.0,508.0,66.0,532.0,,,-16.0,1.0,,26.0,-7.0,0.0,,,0.658,0.791,62.2,38.3,,,,,,2026-02-14-N890GF-SN35347-17.4.0.23677-2ND_TAXI-USER_LOG_DATA.csv,,,,,,,62.6,100.4,,,,,152.6,982.4,149.0,906.8,150.8,946.4,150.8,989.6,,,100.94,933.0,150.8,2.4089456869009584,1.6038338658146964,0.024180555555555556,0.8433333333333333,386.6,True,2026-02-14 01:11:43 - Flight 23,
79.06,1.0,9.0,2026-02-14 01:12:56,37.08163,-121.59962,365.0,0.0,27.5,-12.6,,,,,0.0,10.8,-1.6,50.8,0.0,103.0,-0.0,-0.03,1.0,,-23.0,17.0,0.0,30.11,341.0,,,326.0,,,,,0.0,0.0,,,,,,,0.0,,,-46.0,,,,,,,,,62.0,38.0,923.0,923.0,14.1,2.3,,2.3,26.0,,,35.9,0.0,0.0,30.1,1.4,0.6,,,,,67.0,532.0,65.0,491.0,66.0,510.0,66.0,534.0,,,-16.0,1.0,,26.0,-7.0,0.0,,,0.657,0.791,62.2,38.2,,,,,,2026-02-14-N890GF-SN35347-17.4.0.23677-2ND_TAXI-USER_LOG_DATA.csv,,,,,,,62.6,100.4,,,,,152.6,989.6,149.0,915.8,150.8,950.0,150.8,993.2,,,100.76,923.0,150.8,2.4089456869009584,1.6038338658146964,0.024819444444444443,0.8433333333333333,386.6,True,2026-02-14 01:11:43 - Flight 23,
80.06,1.0,9.0,2026-02-14 01:12:57,37.08163,-121.59962,366.0,0.0,27.5,-12.6,,,,,0.0,10.8,-1.6,50.9,0.0,103.0,-0.0,-0.03,1.0,,-57.0,17.0,0.0,30.11,349.0,,,326.0,,,,,0.0,0.0,,,,,,,0.0,,,-47.0,,,,,,,,,61.0,38.0,854.0,854.0,14.1,2.3,,2.3,26.0,,,35.9,0.0,0.0,27.0,1.4,0.6,,,,,67.0,535.0,65.0,496.0,67.0,511.0,67.0,537.0,,,-16.0,1.0,,26.0,-7.0,0.0,,,0.657,0.791,60.7,38.1,,,,,,2026-02-14-N890GF-SN35347-17.4.0.23677-2ND_TAXI-USER_LOG_DATA.csv,,,,,,,62.6,100.4,,,,,152.6,995.0,149.0,924.8,152.6,951.8,152.6,998.6,,,100.58000000000001,854.0,151.7,2.42332268370607,1.6038338658146964,0.025458333333333333,0.8433333333333333,386.6,True,2026-02-14 01:11:43 - Flight 23,
81.06,1.0,9.0,2026-02-14 01:12:58,37.08163,-121.59962,367.0,0.0,27.5,-12.6,,,,,0.0,10.8,-1.7,50.9,0.0,103.0,-0.0,-0.03,1.0,,-53.0,17.0,0.0,30.11,349.0,,,326.0,,,,,0.0,0.0,,,,,,,0.0,,,-47.0,,,,,,,,,59.0,38.0,826.0,826.0,14.5,2.2,,2.2,26.0,,,35.9,0.0,0.0,24.3,1.4,0.6,,,,,68.0,536.0,65.0,500.0,67.0,512.0,67.0,538.0,,,-16.0,1.0,,26.0,-7.0,0.0,,,0.657,0.792,59.4,38.1,,,,,,2026-02-14-N890GF-SN35347-17.4.0.23677-2ND_TAXI-USER_LOG_DATA.csv,,,,,,,62.6,100.4,,,,,154.4,996.8,149.0,932.0,152.6,953.6,152.6,1000.4,,,100.58000000000001,826.0,152.15,2.430511182108626,1.6038338658146964,0.026083333333333333,0.8433333333333333,386.6,True,2026-02-14 01:11:43 - Flight 23,
82.06,1.0,9.0,2026-02-14 01:12:59,37.08163,-121.59962,367.0,0.0,27.5,-12.6,,,,,0.0,10.8,-1.6,50.9,0.0,103.0,-0.0,-0.03,1.0,,-54.0,17.0,0.0,30.11,348.0,,,326.0,,,,,0.0,0.0,,,,,,,0.0,,,-47.0,,,,,,,,,59.0,38.0,823.0,823.0,14.5,2.1,,2.1,26.0,,,35.9,0.0,0.0,21.9,1.4,0.6,,,,,68.0,535.0,66.0,500.0,67.0,513.0,67.0,539.0,,,-16.0,1.0,,26.0,-7.0,0.0,,,0.656,0.791,59.4,38.0,,,,,,2026-02-14-N890GF-SN35347-17.4.0.23677-2ND_TAXI-USER_LOG_DATA.csv,,,,,,,62.6,100.4,,,,,154.4,995.0,150.8,932.0,152.6,955.4,152.6,1002.2,,,100.4,823.0,152.6,2.437699680511182,1.6038338658146964,0.026680555555555555,0.8433333333333333,386.6,True,2026-02-14 01:11:43 - Flight 23,
83.06,1.0,9.0,2026-02-14 01:13:00,37.08163,-121.59962,368.0,0.0,27.5,-12.6,,,,,0.0,10.9,-1.6,50.9,0.0,103.0,0.0,-0.02,1.0,,-42.0,17.0,0.0,30.11,348.0,,,326.0,,,,,0.0,0.0,,,,,,,0.0,,,-47.0,,,,,,,,,59.0,38.0,828.0,828.0,14.6,2.1,,2.1,26.0,,,35.9,0.0,0.0,19.8,1.4,0.6,,,,,68.0,536.0,66.0,504.0,67.0,514.0,67.0,540.0,,,-16.0,1.0,,26.0,-7.0,0.0,,,0.657,0.792,59.4,37.9,,,,,,2026-02-14-N890GF-SN35347-17.4.0.23677-2ND_TAXI-USER_LOG_DATA.csv,,,,,,,62.6,100.4,,,,,154.4,996.8,150.8,939.2,152.6,957.2,152.6,1004.0,,,100.22,828.0,152.6,2.437699680511182,1.6038338658146964,0.02726388888888889,0.8433333333333333,386.6,True,2026-02-14 01:11:43 - Flight 23,
84.06,1.0,9.0,2026-02-14 01:13:01,37.08163,-121.59962,369.0,0.0,27.5,-12.6,,,,,0.0,10.9,-1.6,50.9,0.0,102.0,-0.0,-0.03,1.0,,-48.0,17.0,0.0,30.11,347.0,,,326.0,,,,,0.0,0.0,,,,,,,0.0,,,-48.0,,,,,,,,,60.0,38.0,854.0,854.0,14.5,2.0,,2.0,26.0,,,35.9,0.0,0.0,18.0,1.4,0.6,,,,,69.0,537.0,66.0,508.0,68.0,515.0,68.0,543.0,,,-16.0,1.0,,26.0,-7.0,0.0,,,0.656,0.791,59.6,37.9,,,,,,2026-02-14-N890GF-SN35347-17.4.0.23677-2ND_TAXI-USER_LOG_DATA.csv,,,,,,,62.6,100.4,,,,,156.2,998.6,150.8,946.4,154.4,959.0,154.4,1009.4,,,100.22,854.0,153.95,2.4592651757188495,1.6038338658146964,0.02783333333333333,0.8433333333333333,386.6,True,2026-02-14 01:11:43 - Flight 23,
85.06,1.0,9.0,2026-02-14 01:13:02,37.08162,-121.59959,369.0,0.0,27.5,-12.6,,,,,0.0,10.8,-1.6,50.9,0.0,102.0,-0.0,-0.03,0.9,,-25.0,17.0,0.0,30.11,347.0,,,326.0,,,,,0.0,0.0,,,,,,,0.0,,,-48.0,,,,,,,,,60.0,38.0,838.0,838.0,14.4,2.0,,2.0,26.0,,,35.9,0.0,0.0,16.4,1.4,0.6,,,,,69.0,537.0,66.0,512.0,68.0,518.0,69.0,545.0,,,-16.0,1.0,,26.0,-7.0,0.0,,,0.656,0.792,59.6,37.8,,,,,,2026-02-14-N890GF-SN35347-17.4.0.23677-2ND_TAXI-USER_LOG_DATA.csv,,,,,,,62.6,100.4,,,,,156.2,998.6,150.8,953.6,154.4,964.4,156.2,1013.0,,,100.03999999999999,838.0,154.4,2.466453674121406,1.6038338658146964,0.028388888888888887,0.8433333333333333,386.6,True,2026-02-14 01:11:43 - Flight 23,
86.06,1.0,9.0,2026-02-14 01:13:03,37.08162,-121.59959,390.0,0.0,27.5,-12.6,,,,,0.0,10.8,-1.6,50.9,0.0,102.0,0.0,-0.03,1.0,,10.0,17.0,0.0,30.11,347.0,,,326.0,,,,,0.0,0.0,,,,,,,0.0,,,-48.0,,,,,,,,,59.0,38.0,832.0,832.0,14.3,1.9,,1.9,26.0,,,35.9,0.0,0.0,14.7,1.4,0.6,,,,,69.0,538.0,67.0,516.0,69.0,520.0,69.0,545.0,,,-16.0,1.0,,26.0,-7.0,0.0,,,0.656,0.791,59.4,37.7,,,,,,2026-02-14-N890GF-SN35347-17.4.0.23677-2ND_TAXI-USER_LOG_DATA.csv,,,,,,,62.6,100.4,,,,,156.2,1000.4,152.6,960.8,156.2,968.0,156.2,1013.0,,,99.86,832.0,155.3,2.4808306709265175,1.6038338658146964,0.028930555555555557,0.8433333333333333,386.6,True,2026-02-14 01:11:43 - Flight 23,
87.06,1.0,9.0,2026-02-14 01:13:04,37.08162,-121.59959,390.0,0.0,27.5,-12.6,,,,,0.0,10.8,-1.6,50.9,0.0,102.0,-0.0,-0.03,1.0,,22.0,17.0,0.0,30.11,339.0,,,326.0,,,,,0.0,0.0,,,,,,,0.0,,,-48.0,,,,,,,,,59.0,38.0,827.0,827.0,14.4,1.9,,1.9,26.0,,,35.9,0.0,0.0,13.4,1.4,0.6,,,,,69.0,540.0,67.0,519.0,69.0,522.0,69.0,547.0,,,-16.0,0.0,,26.0,-7.0,0.0,,,0.656,0.791,59.4,37.7,,,,,,2026-02-14-N890GF-SN35347-17.4.0.23677-2ND_TAXI-USER_LOG_DATA.csv,,,,,,,62.6,100.4,,,,,156.2,1004.0,152.6,966.2,156.2,971.6,156.2,1016.6,,,99.86,827.0,155.3,2.4808306709265175,1.6038338658146964,0.029458333333333333,0.8433333333333333,386.6,True,2026-02-14 01:11:43 - Flight 23,
88.06,1.0,9.0,2026-02-14 01:13:05,37.08162,-121.59959,390.0,0.0,27.5,-12.6,,,,,0.0,10.8,-1.6,51.0,0.0,102.0,0.0,-0.03,1.0,,19.0,17.0,0.0,30.11,339.0,,,326.0,,,,,0.0,0.0,,,,,,,0.0,,,-48.0,,,,,,,,,60.0,38.0,860.0,860.0,14.4,1.9,,1.9,26.0,,,35.9,0.0,0.0,12.3,1.4,0.6,,,,,70.0,541.0,67.0,522.0,70.0,523.0,70.0,548.0,,,-16.0,0.0,,26.0,-7.0,0.0,,,0.656,0.792,59.7,37.7,,,,,,2026-02-14-N890GF-SN35347-17.4.0.23677-2ND_TAXI-USER_LOG_DATA.csv,,,,,,,62.6,100.4,,,,,158.0,1005.8,152.6,971.6,158.0,973.4,158.0,1018.4,,,99.86,860.0,156.65,2.502396166134185,1.6038338658146964,0.02998611111111111,0.8433333333333333,386.6,True,2026-02-14 01:11:43 - Flight 23,
89.06,1.0,9.0,2026-02-14 01:13:06,37.08162,-121.59959,390.0,0.0,27.5,-12.6,,,,,0.0,10.8,-1.6,51.0,0.0,102.0,0.0,-0.03,1.0,,28.0,17.0,0.0,30.11,339.0,,,326.0,,,,,0.0,0.0,,,,,,,0.0,,,-48.0,,,,,,,,,60.0,38.0,845.0,845.0,14.2,1.9,,1.9,26.0,,,35.9,0.0,0.0,11.4,1.4,0.6,,,,,70.0,542.0,68.0,524.0,70.0,526.0,70.0,551.0,,,-16.0,0.0,,26.0,-7.0,0.0,,,0.656,0.791,59.9,37.7,,,,,,2026-02-14-N890GF-SN35347-17.4.0.23677-2ND_TAXI-USER_LOG_DATA.csv,,,,,,,62.6,100.4,,,,,158.0,1007.6,154.4,975.2,158.0,978.8,158.0,1023.8,,,99.86,845.0,157.1,2.509584664536741,1.6038338658146964,0.03051388888888889,0.8433333333333333,386.6,True,2026-02-14 01:11:43 - Flight 23,
90.06,1.0,9.0,2026-02-14 01:13:07,37.08162,-121.59959,390.0,0.0,27.5,-12.6,,,,,0.0,10.7,-1.6,51.0,0.0,102.0,-0.0,-0.03,1.0,,48.0,17.0,0.0,30.11,337.0,,,326.0,,,,,0.0,0.0,,,,,,,0.0,,,-48.0,,,,,,,,,60.0,38.0,861.0,861.0,14.1,1.9,,1.9,26.0,,,35.9,0.0,0.0,10.6,1.4,0.6,,,,,71.0,543.0,68.0,526.0,70.0,528.0,70.0,552.0,,,-16.0,0.0,,26.0,-7.0,0.0,,,0.656,0.792,60.1,37.6,,,,,,2026-02-14-N890GF-SN35347-17.4.0.23677-2ND_TAXI-USER_LOG_DATA.csv,,,,,,,62.6,100.4,,,,,159.8,1009.4,154.4,978.8,158.0,982.4,158.0,1025.6,,,99.68,861.0,157.55,2.5167731629392973,1.6038338658146964,0.031041666666666665,0.8433333333333333,386.6,True,2026-02-14 01:11:43 - Flight 23,
91.06,1.0,9.0,2026-02-14 01:13:08,37.08162,-121.59959,390.0,0.0,27.5,-12.6,,,,,0.0,10.7,-1.7,51.0,0.0,102.0,-0.0,-0.03,1.0,,58.0,17.0,0.0,30.11,339.0,,,326.0,,,,,0.0,0.0,,,,,,,0.0,,,-48.0,,,,,,,,,59.0,38.0,830.0,830.0,14.0,1.9,,1.9,25.9,,,35.9,0.0,0.0,10.0,1.4,0.6,,,,,71.0,545.0,68.0,527.0,71.0,530.0,71.0,555.0,,,-16.0,0.0,,25.9,-7.0,0.0,,,0.656,0.791,59.4,37.6,,,,,,2026-02-14-N890GF-SN35347-17.4.0.23677-2ND_TAXI-USER_LOG_DATA.csv,,,,,,,62.6,100.4,,,,,159.8,1013.0,154.4,980.6,159.8,986.0,159.8,1031.0,,,99.68,830.0,158.45,2.5311501597444086,1.6038338658146964,0.03156944444444444,0.8433333333333333,386.6,True,2026-02-14 01:11:43 - Flight 23,
92.06,1.0,9.0,2026-02-14 01:13:09,37.08162,-121.59959,390.0,0.0,27.5,-12.6,,,,,0.0,10.8,-1.6,51.0,0.0,102.0,-0.0,-0.03,1.0,,34.0,17.0,0.0,30.11,339.0,,,326.0,,,,,0.0,0.0,,,,,,,0.0,,,-48.0,,,,,,,,,59.0,38.0,810.0,810.0,14.6,1.9,,1.9,25.9,,,35.9,0.0,0.0,9.4,1.4,0.6,,,,,71.0,546.0,69.0,524.0,71.0,530.0,71.0,556.0,,,-16.0,0.0,,25.9,-7.0,0.0,,,0.656,0.792,58.8,37.6,,,,,,2026-02-14-N890GF-SN35347-17.4.0.23677-2ND_TAXI-USER_LOG_DATA.csv,,,,,,,62.6,100.4,,,,,159.8,1014.8,156.2,975.2,159.8,986.0,159.8,1032.8,,,99.68,810.0,158.9,2.538338658146965,1.6038338658146964,0.03209722222222222,0.8433333333333333,386.6,True,2026-02-14 01:11:43 - Flight 23,
93.06,1.0,9.0,2026-02-14 01:13:10,37.08162,-121.59959,389.0,0.0,27.5,-12.6,,,,,0.0,10.8,-1.7,51.1,0.0,102.0,0.0,-0.03,1.0,,45.0,17.0,0.0,30.11,339.0,,,326.0,,,,,0.0,0.0,,,,,,,0.0,,,-48.0,,,,,,,,,62.0,38.0,943.0,943.0,13.5,1.8,,1.8,26.2,,,35.9,0.0,0.0,8.9,1.4,0.6,,,,,71.0,546.0,69.0,522.0,71.0,533.0,71.0,560.0,,,-16.0,0.0,,26.2,-7.0,0.0,,,0.656,0.791,61.7,37.6,,,,,,2026-02-14-N890GF-SN35347-17.4.0.23677-2ND_TAXI-USER_LOG_DATA.csv,,,,,,,62.6,100.4,,,,,159.8,1014.8,156.2,971.6,159.8,991.4,159.8,1040.0,,,99.68,943.0,158.9,2.538338658146965,1.6038338658146964,0.03261111111111111,0.8433333333333333,386.6,True,2026-02-14 01:11:43 - Flight 23,
94.06,1.0,9.0,2026-02-14 01:13:11,37.08162,-121.59959,388.0,0.0,27.5,-12.6,,,,,0.0,10.8,-1.6,51.0,0.0,102.0,-0.0,-0.03,0.9,,65.0,17.0,0.0,30.11,347.0,,,326.0,,,,,0.0,0.0,,,,,,,0.0,,,-50.0,,,,,,,,,62.0,38.0,901.0,901.0,13.0,1.7,,1.7,26.2,,,35.9,0.0,0.0,9.3,1.4,0.6,,,,,72.0,547.0,69.0,525.0,72.0,538.0,72.0,564.0,,,-16.0,0.0,,26.2,-7.0,0.0,,,0.657,0.791,61.6,37.6,,,,,,2026-02-14-N890GF-SN35347-17.4.0.23677-2ND_TAXI-USER_LOG_DATA.csv,,,,,,,62.6,100.4,,,,,161.6,1016.6,156.2,977.0,161.6,1000.4,161.6,1047.2,,,99.68,901.0,160.25,2.5599041533546325,1.6038338658146964,0.03309722222222222,0.8433333333333333,386.6,True,2026-02-14 01:11:43 - Flight 23,
95.06,1.0,9.0,2026-02-14 01:13:12,37.08162,-121.59959,387.0,0.0,27.5,-12.6,,,,,0.0,10.8,-1.6,51.0,0.0,102.0,0.0,-0.03,1.0,,47.0,17.0,0.0,30.11,347.0,,,326.0,,,,,0.0,0.0,,,,,,,0.0,,,-51.0,,,,,,,,,62.0,38.0,945.0,945.0,12.8,1.7,,1.7,26.2,,,35.9,0.0,0.0,9.6,1.4,0.6,,,,,72.0,548.0,70.0,527.0,72.0,546.0,72.0,573.0,,,-16.0,0.0,,26.2,-7.0,0.0,,,0.657,0.791,62.2,37.6,,,,,,2026-02-14-N890GF-SN35347-17.4.0.23677-2ND_TAXI-USER_LOG_DATA.csv,,,,,,,62.6,100.4,,,,,161.6,1018.4,158.0,980.6,161.6,1014.8,161.6,1063.4,,,99.68,945.0,160.7,2.5670926517571884,1.6038338658146964,0.03356944444444444,0.8433333333333333,386.6,True,2026-02-14 01:11:43 - Flight 23,
96.06,1.0,9.0,2026-02-14 01:13:13,37.08162,-121.5996,386.0,0.0,27.5,-12.6,,,,,0.0,10.8,-1.6,51.0,0.0,102.0,-0.0,-0.03,1.0,,25.0,17.0,0.0,30.11,347.0,,,326.0,,,,,0.0,0.0,,,,,,,0.0,,,-51.0,,,,,,,,,62.0,38.0,941.0,941.0,12.7,1.6,,1.6,26.1,,,35.9,0.0,0.0,9.7,1.4,0.6,,,,,73.0,549.0,70.0,531.0,73.0,550.0,73.0,571.0,,,-16.0,0.0,,26.1,-7.0,0.0,,,0.657,0.791,62.1,37.6,,,,,,2026-02-14-N890GF-SN35347-17.4.0.23677-2ND_TAXI-USER_LOG_DATA.csv,,,,,,,62.6,100.4,,,,,163.4,1020.2,158.0,987.8,163.4,1022.0,163.4,1059.8,,,99.68,941.0,162.05,2.5886581469648564,1.6038338658146964,0.034027777777777775,0.8433333333333333,386.6,True,2026-02-14 01:11:43 - Flight 23,
