Session Time,GPS Fix Quality,Number of Satellites,GPS Date & Time,Latitude (deg),Longitude (deg),GPS Altitude (feet),Ground Speed (knots),Ground Track (deg),Mag Var (deg),Cross Track Error (NM),Destination Waypoint ID,Range to Destination (NM),Bearing to Destination (deg),System Time,Pitch (deg),Roll (deg),Magnetic Heading (deg),Indicated Airspeed (knots),Pressure Altitude (ft),Turn Rate (deg/s),Lateral Accel (g),Vertical Accel(g),Angle of Attack (%),Vertical Speed (ft/min),OAT (deg C),True Airspeed (knots),Barometer Setting (inHg),Density Altitude (ft),Wind Direction (deg),Wind Speed (knots),Heading Bug (deg),Altitude Bug (ft),Airspeed Bug (knots),Vertical Speed Bug (ft/min),Course (deg),CDI Source Type,CDI Source Port,CDI Scale (NM),CDI Deflection (%),Glideslope (%),AP Engaged,AP Roll Mode,AP Roll Force,AP Roll Position (steps),AP Roll Slip (bool),AP Pitch Force,AP Pitch Position (steps),AP Pitch Slip (bool),AP Yaw Force,AP Yaw Position,AP Yaw Slip (bool),Transponder Status,Transponder Reply (bool),Transponder Identing (bool),Transponder Code (octal),Oil Pressure (PSI),Oil Temp (deg C),RPM L,RPM R,Manifold Pressure (inHg),Fuel Flow 1 (gal/hr),Fuel Flow 2 (gal/hr),Total Fuel Flow (gal/hr),Fuel Pressure (PSI),Fuel Level L (gal),Fuel Level R (gal),Fuel Remaining (gal),Volts 1,Volts 2,Amps,Hobbs Time,Tach Time,Thermocouple 1 (deg C),Thermocouple 2 (deg C),Thermocouple 3 (deg C),Thermocouple 4 (deg C),CHT 4 (deg C),EGT 4 (deg C),CHT 3 (deg C),EGT 3 (deg C),CHT 2 (deg C),EGT 2 (deg C),CHT 1 (deg C),EGT 1 (deg C),Thermocouple 13 (deg C),Thermocouple 14 (deg C),ELEV POSITION (%),CO PPM PRESSURE (PSI),GP Input 3,FUEL PRESSURE (PSI),AILERN POSITION (%),CANOPY CONTACT (V),GP Input 7,GP Input 8,LEFT LEVEL (Sensor V),RIGHT LEVEL (Sensor V),OIL PRESSURE (PSI),OIL TEMPERATURE (deg C),GP Input 13,Contacts,Percent Power,EGT Leaning State,Unnamed: 103,source_file,Unnamed: 0,press_alt,ias,hdg,gps_gs,gps_trk,OAT (deg F),Oil Temp (deg F),Thermocouple 1 (deg F),Thermocouple 2 (deg F),Thermocouple 3 (deg F),Thermocouple 4 (deg F),CHT 4 (deg F),EGT 4 (deg F),CHT 3 (deg F),EGT 3 (deg F),CHT 2 (deg F),EGT 2 (deg F),CHT 1 (deg F),EGT 1 (deg F),Thermocouple 13 (deg F),Thermocouple 14 (deg F),OIL TEMPERATURE (deg F),RPM,AVG_CHT,CHT_OAT_Ratio,OIL_OAT_Ratio,Fuel Flow Integral,Distance Traveled,Max CHT,Engine Run,Flight ID,efficiency
0.06,1.0,9.0,2026-01-04 22:43:52,37.08162,-121.59948,257.0,0.0,337.8,-12.7,,,,,0.0,,,,,,,,,,,13.0,,,,,,230.0,,110.0,0.0,,0.0,0.0,,,,,,,,,,,,,,,,,,,,,0.0,0.0,,0.0,,,,,,38.2,,,,0.6,0.2,,,,,,,,,,,,,,,,,,,,,,,,,,,,,,,,2026-02-01-N890GF-SN35347-17.4.0.23677-FIRST-USER_LOG_DATA-PART_02.csv,,,,,,,55.4,,,,,,,,,,,,,,,,,0.0,,,,0.0,0.0,242.6,True,2026-01-04 22:43:52 - Flight 17,
1.06,1.0,9.0,2026-01-04 22:43:53,37.08162,-121.59948,256.0,0.0,337.8,-12.6,,,,,0.0,11.0,0.3,240.9,0.0,338.0,-0.0,0.01,0.9,,-55.0,13.0,0.0,29.88,157.0,,,230.0,,110.0,0.0,,0.0,0.0,,,,,,,,,,,,,,,,,,,,,0.0,0.0,,0.0,,0.0,,,,38.2,0.0,0.0,-0.2,0.6,0.2,,,,,13.0,13.0,12.0,13.0,13.0,13.0,12.0,13.0,,,-10.0,254.5,,28.8,-1.0,4.998,,,0.656,0.703,0.0,53.2,,,,,,2026-02-01-N890GF-SN35347-17.4.0.23677-FIRST-USER_LOG_DATA-PART_02.csv,,,,,,,55.4,,,,,,55.4,55.4,53.6,55.4,55.4,55.4,53.6,55.4,,,127.76,0.0,54.5,0.983754512635379,,0.0,0.0,242.6,True,2026-01-04 22:43:52 - Flight 17,
2.06,1.0,9.0,2026-01-04 22:43:54,37.08162,-121.59949,255.0,0.0,337.8,-12.6,,,,,0.0,11.0,0.2,241.0,0.0,336.0,-0.0,0.01,1.0,,-70.0,13.0,0.0,29.88,157.0,,,230.0,,110.0,0.0,,0.0,0.0,,,,,,,,,,,,,,,,,,,,,0.0,0.0,,0.0,,0.0,,,,38.2,0.0,0.0,-0.3,0.6,0.2,,,,,13.0,14.0,13.0,13.0,13.0,14.0,13.0,14.0,,,-10.0,254.5,,28.8,0.0,4.998,,,0.656,0.703,0.0,53.2,,,,,,2026-02-01-N890GF-SN35347-17.4.0.23677-FIRST-USER_LOG_DATA-PART_02.csv,,,,,,,55.4,,,,,,55.4,57.2,55.4,55.4,55.4,57.2,55.4,57.2,,,127.76,0.0,55.4,1.0,,0.0,0.0,242.6,True,2026-01-04 22:43:52 - Flight 17,
3.06,1.0,9.0,2026-01-04 22:43:55,37.08162,-121.59949,255.0,0.0,337.8,-12.6,,,,,0.0,11.0,0.2,241.0,0.0,335.0,-0.0,0.01,1.0,,-82.0,13.0,0.0,29.88,157.0,,,230.0,,110.0,0.0,,0.0,0.0,,,,,,,,,,,,,,,,,,,,,0.0,0.0,,0.0,,0.0,,,,38.2,0.0,0.0,-0.3,0.6,0.2,,,,,13.0,13.0,12.0,13.0,13.0,13.0,12.0,13.0,,,-10.0,254.5,,27.4,0.0,4.998,,,0.656,0.703,0.0,12.0,,,,,,2026-02-01-N890GF-SN35347-17.4.0.23677-FIRST-USER_LOG_DATA-PART_02.csv,,,,,,,55.4,,,,,,55.4,55.4,53.6,55.4,55.4,55.4,53.6,55.4,,,53.6,0.0,54.5,0.983754512635379,,0.0,0.0,242.6,True,2026-01-04 22:43:52 - Flight 17,
4.06,1.0,9.0,2026-01-04 22:43:56,37.08162,-121.59949,254.0,0.0,337.8,-12.6,,,,,0.0,11.0,0.2,241.0,0.0,334.0,-0.0,0.0,1.0,,-61.0,13.0,0.0,29.88,153.0,,,230.0,,110.0,0.0,,0.0,0.0,,,,,,,,,,,,,,,,,,,,,0.0,0.0,,0.0,,0.0,,,,38.2,0.0,0.0,-0.3,0.6,0.2,,,,,13.0,14.0,13.0,13.0,13.0,14.0,13.0,14.0,,,-10.0,254.5,,26.8,0.0,4.998,,,0.656,0.703,0.0,12.0,,,,,,2026-02-01-N890GF-SN35347-17.4.0.23677-FIRST-USER_LOG_DATA-PART_02.csv,,,,,,,55.4,,,,,,55.4,57.2,55.4,55.4,55.4,57.2,55.4,57.2,,,53.6,0.0,55.4,1.0,,0.0,0.0,242.6,True,2026-01-04 22:43:52 - Flight 17,
5.06,1.0,9.0,2026-01-04 22:43:57,37.08162,-121.59949,254.0,0.0,337.8,-12.6,,,,,0.0,11.0,0.3,241.0,0.0,334.0,-0.0,0.01,1.0,,-51.0,13.0,0.0,29.88,153.0,,,230.0,,,,,0.0,0.0,,,,,,,,,,,,,,,,,,,0.0,12.0,0.0,0.0,30.0,0.0,,0.0,26.5,,,38.2,0.0,0.0,-0.3,0.6,0.2,,,,,13.0,13.0,12.0,13.0,13.0,13.0,12.0,13.0,,,-10.0,254.5,,26.5,0.0,4.998,,,0.656,0.703,0.0,12.0,,,,,,2026-02-01-N890GF-SN35347-17.4.0.23677-FIRST-USER_LOG_DATA-PART_02.csv,,,,,,,55.4,53.6,,,,,55.4,55.4,53.6,55.4,55.4,55.4,53.6,55.4,,,53.6,0.0,54.5,0.983754512635379,0.9675090252707582,0.0,0.0,242.6,True,2026-01-04 22:43:52 - Flight 17,
6.06,1.0,9.0,2026-01-04 22:43:58,37.08162,-121.59949,253.0,0.0,337.8,-12.6,,,,,0.0,11.0,0.3,241.0,0.0,332.0,-0.0,0.0,1.0,,-64.0,13.0,0.0,29.88,153.0,,,230.0,,,,,0.0,0.0,,,,,,,,,,,,,,,,,,,0.0,12.0,0.0,0.0,30.0,0.0,,0.0,26.1,,,38.2,0.0,0.0,-0.3,0.6,0.2,,,,,13.0,13.0,12.0,13.0,13.0,13.0,12.0,13.0,,,-10.0,254.5,,26.1,0.0,4.998,,,0.656,0.703,0.0,12.0,,,,,,2026-02-01-N890GF-SN35347-17.4.0.23677-FIRST-USER_LOG_DATA-PART_02.csv,,,,,,,55.4,53.6,,,,,55.4,55.4,53.6,55.4,55.4,55.4,53.6,55.4,,,53.6,0.0,54.5,0.983754512635379,0.9675090252707582,0.0,0.0,242.6,True,2026-01-04 22:43:52 - Flight 17,
7.06,1.0,9.0,2026-01-04 22:43:59,37.08162,-121.59949,252.0,0.1,337.8,-12.6,,,,,0.0,11.0,0.3,241.0,0.0,331.0,-0.0,0.01,1.0,,-56.0,13.0,0.0,29.88,149.0,,,230.0,,,,,0.0,0.0,,,,,,,,,,,,,,,,,,,0.0,12.0,0.0,0.0,30.0,0.0,,0.0,25.7,,,38.2,0.0,0.0,-0.3,0.6,0.2,,,,,13.0,13.0,12.0,13.0,13.0,13.0,12.0,13.0,,,-10.0,254.5,,25.7,0.0,4.998,,,0.656,0.703,0.0,12.0,,,,,,2026-02-01-N890GF-SN35347-17.4.0.23677-FIRST-USER_LOG_DATA-PART_02.csv,,,,,,,55.4,53.6,,,,,55.4,55.4,53.6,55.4,55.4,55.4,53.6,55.4,,,53.6,0.0,54.5,0.983754512635379,0.9675090252707582,0.0,0.08433333333333333,242.6,True,2026-01-04 22:43:52 - Flight 17,
8.06,1.0,9.0,2026-01-04 22:44:00,37.08161,-121.59949,252.0,0.0,337.8,-12.6,,,,,0.0,11.0,0.3,241.0,0.0,330.0,-0.0,0.01,1.0,,-68.0,13.0,0.0,29.88,149.0,,,230.0,,,,,0.0,0.0,,,,,,,,,,,,,,,,,,,0.0,12.0,0.0,0.0,30.0,0.0,,0.0,25.3,,,38.2,0.0,0.0,-0.3,0.6,0.2,,,,,13.0,13.0,12.0,13.0,13.0,13.0,12.0,13.0,,,-10.0,254.5,,25.3,0.0,4.998,,,0.656,0.703,0.0,12.0,,,,,,2026-02-01-N890GF-SN35347-17.4.0.23677-FIRST-USER_LOG_DATA-PART_02.csv,,,,,,,55.4,53.6,,,,,55.4,55.4,53.6,55.4,55.4,55.4,53.6,55.4,,,53.6,0.0,54.5,0.983754512635379,0.9675090252707582,0.0,0.16866666666666674,242.6,True,2026-01-04 22:43:52 - Flight 17,
9.06,1.0,9.0,2026-01-04 22:44:01,37.08161,-121.59949,251.0,0.0,337.8,-12.6,,,,,0.0,11.0,0.2,241.1,0.0,329.0,-0.0,0.01,1.0,,-64.0,13.0,0.0,29.88,149.0,,,230.0,,,,,0.0,0.0,,,,,,,,,,,,,,,,,,,0.0,12.0,0.0,0.0,30.0,0.0,,0.0,24.9,,,38.2,0.0,0.0,-0.3,0.6,0.2,,,,,13.0,13.0,12.0,13.0,13.0,13.0,12.0,13.0,,,-10.0,254.5,,24.9,0.0,4.998,,,0.656,0.703,0.0,12.0,,,,,,2026-02-01-N890GF-SN35347-17.4.0.23677-FIRST-USER_LOG_DATA-PART_02.csv,,,,,,,55.4,53.6,,,,,55.4,55.4,53.6,55.4,55.4,55.4,53.6,55.4,,,53.6,0.0,54.5,0.983754512635379,0.9675090252707582,0.0,0.16866666666666674,242.6,True,2026-01-04 22:43:52 - Flight 17,
10.06,1.0,9.0,2026-01-04 22:44:02,37.08161,-121.59949,251.0,0.0,337.8,-12.6,,,,,0.0,11.0,0.3,241.1,0.0,327.0,-0.0,0.01,1.0,,-82.0,13.0,0.0,29.88,145.0,,,230.0,,,,,0.0,0.0,,,,,,,,,,,,,,,,,,,0.0,12.0,0.0,0.0,30.0,0.0,,0.0,24.6,,,38.2,0.0,0.0,-0.3,0.6,0.2,,,,,13.0,13.0,12.0,13.0,13.0,13.0,12.0,13.0,,,-10.0,254.5,,24.6,0.0,4.998,,,0.656,0.703,0.0,12.0,,,,,,2026-02-01-N890GF-SN35347-17.4.0.23677-FIRST-USER_LOG_DATA-PART_02.csv,,,,,,,55.4,53.6,,,,,55.4,55.4,53.6,55.4,55.4,55.4,53.6,55.4,,,53.6,0.0,54.5,0.983754512635379,0.9675090252707582,0.0,0.16866666666666674,242.6,True,2026-01-04 22:43:52 - Flight 17,
11.06,1.0,9.0,2026-01-04 22:44:03,37.08161,-121.59949,250.0,0.0,337.8,-12.6,,,,,0.0,11.0,0.3,241.1,0.0,327.0,-0.0,0.01,1.0,,-50.0,13.0,0.0,29.88,145.0,,,230.0,,,,,0.0,0.0,,,,,,,,,,,,,,,,,,,0.0,12.0,0.0,0.0,30.0,0.0,,0.0,24.2,,,38.2,0.0,0.0,-0.3,0.6,0.2,,,,,13.0,13.0,12.0,13.0,13.0,13.0,12.0,13.0,,,-10.0,254.5,,24.2,0.0,4.998,,,0.656,0.703,0.0,12.0,,,,,,2026-02-01-N890GF-SN35347-17.4.0.23677-FIRST-USER_LOG_DATA-PART_02.csv,,,,,,,55.4,53.6,,,,,55.4,55.4,53.6,55.4,55.4,55.4,53.6,55.4,,,53.6,0.0,54.5,0.983754512635379,0.9675090252707582,0.0,0.16866666666666674,242.6,True,2026-01-04 22:43:52 - Flight 17,
12.06,1.0,9.0,2026-01-04 22:44:04,37.08161,-121.59949,249.0,0.0,337.8,-12.6,,,,,0.0,11.0,0.3,241.1,0.0,327.0,-0.0,0.01,1.0,,-29.0,13.0,0.0,29.88,145.0,,,230.0,,,,,0.0,0.0,,,,,,,,,,,,,,,,,,,0.0,12.0,0.0,0.0,30.0,0.0,,0.0,23.9,,,38.2,0.0,0.0,-0.3,0.6,0.2,,,,,13.0,13.0,12.0,13.0,13.0,13.0,12.0,13.0,,,-10.0,254.5,,23.9,0.0,4.998,,,0.656,0.703,0.0,12.0,,,,,,2026-02-01-N890GF-SN35347-17.4.0.23677-FIRST-USER_LOG_DATA-PART_02.csv,,,,,,,55.4,53.6,,,,,55.4,55.4,53.6,55.4,55.4,55.4,53.6,55.4,,,53.6,0.0,54.5,0.983754512635379,0.9675090252707582,0.0,0.16866666666666674,242.6,True,2026-01-04 22:43:52 - Flight 17,
13.06,1.0,9.0,2026-01-04 22:44:05,37.08161,-121.59949,248.0,0.0,337.8,-12.6,,,,,0.0,11.0,0.3,241.1,0.0,327.0,-0.0,0.01,1.0,,-5.0,13.0,0.0,29.88,144.0,,,230.0,,,,,0.0,0.0,,,,,,,,,,,,,,,,,,,0.0,12.0,0.0,0.0,30.0,0.0,,0.0,23.6,,,38.2,0.0,0.0,-0.4,0.6,0.2,,,,,13.0,13.0,12.0,13.0,13.0,13.0,12.0,13.0,,,-10.0,254.5,,23.6,0.0,4.998,,,0.656,0.703,0.0,12.0,,,,,,2026-02-01-N890GF-SN35347-17.4.0.23677-FIRST-USER_LOG_DATA-PART_02.csv,,,,,,,55.4,53.6,,,,,55.4,55.4,53.6,55.4,55.4,55.4,53.6,55.4,,,53.6,0.0,54.5,0.983754512635379,0.9675090252707582,0.0,0.16866666666666674,242.6,True,2026-01-04 22:43:52 - Flight 17,
14.06,1.0,9.0,2026-01-04 22:44:06,37.08161,-121.59949,248.0,0.0,337.8,-12.6,,,,,0.0,11.0,0.2,241.1,0.0,327.0,-0.0,0.0,1.0,,-14.0,13.0,0.0,29.88,144.0,,,230.0,,,,,0.0,0.0,,,,,,,,,,,,,,,,,,,0.0,12.0,0.0,0.0,30.0,0.0,,0.0,23.3,,,38.2,0.0,0.0,-0.4,0.6,0.2,,,,,13.0,13.0,12.0,13.0,13.0,13.0,12.0,13.0,,,-10.0,254.5,,23.3,0.0,4.998,,,0.656,0.703,0.0,12.0,,,,,,2026-02-01-N890GF-SN35347-17.4.0.23677-FIRST-USER_LOG_DATA-PART_02.csv,,,,,,,55.4,53.6,,,,,55.4,55.4,53.6,55.4,55.4,55.4,53.6,55.4,,,53.6,0.0,54.5,0.983754512635379,0.9675090252707582,0.0,0.16866666666666674,242.6,True,2026-01-04 22:43:52 - Flight 17,
15.06,1.0,9.0,2026-01-04 22:44:07,37.08161,-121.59949,247.0,0.0,337.8,-12.6,,,,,0.0,11.1,0.2,241.1,0.0,327.0,-0.0,0.0,1.0,,8.0,13.0,0.0,29.88,144.0,,,230.0,,,,,0.0,0.0,,,,,,,,,,,,,,,,,,,0.0,12.0,0.0,0.0,30.0,0.0,,0.0,23.0,,,38.2,0.0,0.0,-0.4,0.6,0.2,,,,,13.0,13.0,12.0,13.0,13.0,13.0,12.0,13.0,,,-10.0,254.5,,23.0,0.0,4.998,,,0.656,0.703,0.0,12.0,,,,,,2026-02-01-N890GF-SN35347-17.4.0.23677-FIRST-USER_LOG_DATA-PART_02.csv,,,,,,,55.4,53.6,,,,,55.4,55.4,53.6,55.4,55.4,55.4,53.6,55.4,,,53.6,0.0,54.5,0.983754512635379,0.9675090252707582,0.0,0.16866666666666674,242.6,True,2026-01-04 22:43:52 - Flight 17,
16.06,1.0,9.0,2026-01-04 22:44:08,37.08161,-121.59949,246.0,0.0,337.8,-12.6,,,,,0.0,11.0,0.3,241.0,0.0,327.0,-0.0,0.01,1.0,,-8.0,13.0,0.0,29.88,144.0,,,230.0,,,,,0.0,0.0,,,,,,,,,,,,,,,,,,,0.0,12.0,0.0,0.0,30.0,0.0,,0.0,22.7,,,38.2,0.0,0.0,-0.4,0.6,0.2,,,,,13.0,13.0,12.0,13.0,13.0,13.0,12.0,13.0,,,-10.0,254.5,,22.7,0.0,4.998,,,0.656,0.703,0.0,12.0,,,,,,2026-02-01-N890GF-SN35347-17.4.0.23677-FIRST-USER_LOG_DATA-PART_02.csv,,,,,,,55.4,53.6,,,,,55.4,55.4,53.6,55.4,55.4,55.4,53.6,55.4,,,53.6,0.0,54.5,0.983754512635379,0.9675090252707582,0.0,0.16866666666666674,242.6,True,2026-01-04 22:43:52 - Flight 17,
17.06,1.0,9.0,2026-01-04 22:44:09,37.08161,-121.59949,245.0,0.0,337.8,-12.6,,,,,0.0,11.1,0.2,241.1,0.0,326.0,0.0,0.0,1.0,,-25.0,13.0,0.0,29.88,144.0,,,230.0,,,,,0.0,0.0,,,,,,,,,,,,,,,,,,,0.0,12.0,0.0,0.0,30.0,0.0,,0.0,22.4,,,38.2,0.0,0.0,-0.4,0.6,0.2,,,,,13.0,13.0,12.0,13.0,13.0,13.0,12.0,13.0,,,-10.0,254.5,,22.4,0.0,4.998,,,0.656,0.703,0.0,12.0,,,,,,2026-02-01-N890GF-SN35347-17.4.0.23677-FIRST-USER_LOG_DATA-PART_02.csv,,,,,,,55.4,53.6,,,,,55.4,55.4,53.6,55.4,55.4,55.4,53.6,55.4,,,53.6,0.0,54.5,0.983754512635379,0.9675090252707582,0.0,0.16866666666666674,242.6,True,2026-01-04 22:43:52 - Flight 17,
18.06,1.0,9.0,2026-01-04 22:44:10,37.08161,-121.59949,244.0,0.0,337.8,-12.6,,,,,0.0,11.0,0.2,241.1,0.0,326.0,-0.0,0.0,1.0,,-43.0,13.0,0.0,29.88,144.0,,,230.0,,,,,0.0,0.0,,,,,,,,,,,,,,,,,,,0.0,12.0,0.0,0.0,30.0,0.0,,0.0,22.1,,,38.2,0.0,0.0,-0.4,0.6,0.2,,,,,13.0,13.0,12.0,13.0,13.0,13.0,12.0,13.0,,,-10.0,254.5,,22.1,0.0,4.998,,,0.656,0.703,0.0,12.0,,,,,,2026-02-01-N890GF-SN35347-17.4.0.23677-FIRST-USER_LOG_DATA-PART_02.csv,,,,,,,55.4,53.6,,,,,55.4,55.4,53.6,55.4,55.4,55.4,53.6,55.4,,,53.6,0.0,54.5,0.983754512635379,0.9675090252707582,0.0,0.16866666666666674,242.6,True,2026-01-04 22:43:52 - Flight 17,
19.06,1.0,9.0,2026-01-04 22:44:11,37.08161,-121.59949,244.0,0.0,337.8,-12.6,,,,,0.0,11.0,0.2,241.1,0.0,326.0,-0.0,0.0,1.0,,-40.0,13.0,0.0,29.88,142.0,,,230.0,,,,,0.0,0.0,,,,,,,,,,,,,,,,,,,0.0,12.0,0.0,0.0,30.0,0.0,,0.0,21.8,,,38.2,0.0,0.0,-0.4,0.6,0.2,,,,,13.0,13.0,12.0,13.0,13.0,13.0,12.0,13.0,,,-10.0,254.5,,21.8,0.0,4.998,,,0.656,0.703,0.0,12.0,,,,,,2026-02-01-N890GF-SN35347-17.4.0.23677-FIRST-USER_LOG_DATA-PART_02.csv,,,,,,,55.4,53.6,,,,,55.4,55.4,53.6,55.4,55.4,55.4,53.6,55.4,,,53.6,0.0,54.5,0.983754512635379,0.9675090252707582,0.0,0.16866666666666674,242.6,True,2026-01-04 22:43:52 - Flight 17,
20.06,1.0,9.0,2026-01-04 22:44:12,37.08161,-121.59949,244.0,0.0,337.8,-12.6,,,,,0.0,11.0,0.3,241.1,0.0,325.0,0.0,0.0,1.0,,-18.0,13.0,0.0,29.88,142.0,,,230.0,,,,,0.0,0.0,,,,,,,,,,,,,,,,,,,0.0,12.0,0.0,0.0,30.0,0.0,,0.0,21.6,,,38.2,0.0,0.0,-0.4,0.6,0.2,,,,,13.0,14.0,13.0,13.0,13.0,14.0,13.0,13.0,,,-10.0,254.5,,21.6,0.0,4.998,,,0.656,0.703,0.0,12.0,,,,,,2026-02-01-N890GF-SN35347-17.4.0.23677-FIRST-USER_LOG_DATA-PART_02.csv,,,,,,,55.4,53.6,,,,,55.4,57.2,55.4,55.4,55.4,57.2,55.4,55.4,,,53.6,0.0,55.4,1.0,0.9675090252707582,0.0,0.16866666666666674,242.6,True,2026-01-04 22:43:52 - Flight 17,
21.06,1.0,9.0,2026-01-04 22:44:13,37.08161,-121.59949,244.0,0.1,337.8,-12.6,,,,,0.0,11.0,0.3,241.1,0.0,323.0,-0.0,0.01,1.0,,-64.0,13.0,0.0,29.88,142.0,,,230.0,,,,,0.0,0.0,,,,,,,,,,,,,,,,,,,0.0,12.0,0.0,0.0,30.0,0.0,,0.0,21.3,,,38.2,0.0,0.0,-0.4,0.6,0.2,,,,,13.0,13.0,12.0,13.0,13.0,13.0,12.0,13.0,,,-10.0,254.5,,21.3,0.0,4.998,,,0.656,0.703,0.0,12.0,,,,,,2026-02-01-N890GF-SN35347-17.4.0.23677-FIRST-USER_LOG_DATA-PART_02.csv,,,,,,,55.4,53.6,,,,,55.4,55.4,53.6,55.4,55.4,55.4,53.6,55.4,,,53.6,0.0,54.5,0.983754512635379,0.9675090252707582,0.0,0.25300000000000006,242.6,True,2026-01-04 22:43:52 - Flight 17,
22.06,1.0,9.0,2026-01-04 22:44:14,37.08161,-121.59949,244.0,0.0,337.8,-12.6,,,,,0.0,11.0,0.3,241.1,0.0,323.0,0.0,0.0,1.0,,-40.0,13.0,0.0,29.88,139.0,,,230.0,,,,,0.0,0.0,,,,,,,,,,,,,,,,,,,0.0,12.0,0.0,0.0,30.0,0.0,,0.0,21.1,,,38.2,0.0,0.0,-0.4,0.6,0.2,,,,,13.0,14.0,13.0,13.0,13.0,14.0,13.0,14.0,,,-10.0,254.5,,21.1,0.0,4.998,,,0.656,0.703,0.0,12.0,,,,,,2026-02-01-N890GF-SN35347-17.4.0.23677-FIRST-USER_LOG_DATA-PART_02.csv,,,,,,,55.4,53.6,,,,,55.4,57.2,55.4,55.4,55.4,57.2,55.4,57.2,,,53.6,0.0,55.4,1.0,0.9675090252707582,0.0,0.3373333333333334,242.6,True,2026-01-04 22:43:52 - Flight 17,
23.06,1.0,9.0,2026-01-04 22:44:15,37.08161,-121.59949,244.0,0.0,337.8,-12.6,,,,,0.0,11.0,0.3,241.1,0.0,322.0,-0.0,0.0,1.0,,-65.0,13.0,0.0,29.88,139.0,,,230.0,,,,,0.0,0.0,,,,,,,,,,,,,,,,,,,0.0,12.0,0.0,0.0,30.0,0.0,,0.0,20.8,,,38.2,0.0,0.0,-0.4,0.6,0.2,,,,,13.0,13.0,12.0,13.0,13.0,13.0,12.0,13.0,,,-10.0,254.5,,20.8,0.0,4.998,,,0.656,0.703,0.0,12.0,,,,,,2026-02-01-N890GF-SN35347-17.4.0.23677-FIRST-USER_LOG_DATA-PART_02.csv,,,,,,,55.4,53.6,,,,,55.4,55.4,53.6,55.4,55.4,55.4,53.6,55.4,,,53.6,0.0,54.5,0.983754512635379,0.9675090252707582,0.0,0.3373333333333334,242.6,True,2026-01-04 22:43:52 - Flight 17,
24.06,1.0,9.0,2026-01-04 22:44:16,37.08161,-121.59949,244.0,0.0,337.8,-12.6,,,,,0.0,11.0,0.3,241.1,0.0,321.0,-0.0,0.0,1.0,,-48.0,13.0,0.0,29.88,139.0,,,230.0,,,,,0.0,0.0,,,,,,,,,,,,,,,,,,,0.0,12.0,0.0,0.0,30.0,0.0,,0.0,20.6,,,38.2,0.0,0.0,-0.4,0.6,0.2,,,,,13.0,13.0,12.0,13.0,13.0,13.0,12.0,13.0,,,-10.0,254.5,,20.6,0.0,4.998,,,0.656,0.703,0.0,12.0,,,,,,2026-02-01-N890GF-SN35347-17.4.0.23677-FIRST-USER_LOG_DATA-PART_02.csv,,,,,,,55.4,53.6,,,,,55.4,55.4,53.6,55.4,55.4,55.4,53.6,55.4,,,53.6,0.0,54.5,0.983754512635379,0.9675090252707582,0.0,0.3373333333333334,242.6,True,2026-01-04 22:43:52 - Flight 17,
25.06,1.0,9.0,2026-01-04 22:44:17,37.08161,-121.59949,244.0,0.0,337.8,-12.6,,,,,0.0,11.0,0.1,241.1,0.0,320.0,-0.0,0.0,1.0,,-55.0,13.0,0.0,29.88,136.0,,,230.0,,,,,0.0,0.0,,,,,,,,,,,,,,,,,,,0.0,12.0,0.0,0.0,30.0,0.0,,0.0,20.4,,,38.2,0.0,0.0,-0.4,0.6,0.2,,,,,13.0,14.0,13.0,13.0,13.0,14.0,13.0,14.0,,,-10.0,254.5,,20.4,0.0,4.998,,,0.656,0.703,0.0,12.0,,,,,,2026-02-01-N890GF-SN35347-17.4.0.23677-FIRST-USER_LOG_DATA-PART_02.csv,,,,,,,55.4,53.6,,,,,55.4,57.2,55.4,55.4,55.4,57.2,55.4,57.2,,,53.6,0.0,55.4,1.0,0.9675090252707582,0.0,0.3373333333333334,242.6,True,2026-01-04 22:43:52 - Flight 17,
26.06,1.0,10.0,2026-01-04 22:44:18,37.08163,-121.59949,248.0,0.0,337.8,-12.6,,,,,0.0,11.0,0.2,241.1,0.0,320.0,-0.1,0.01,1.0,,-15.0,13.0,0.0,29.88,136.0,,,230.0,,,,,0.0,0.0,,,,,,,,,,,,,,,,,,,0.0,12.0,0.0,0.0,30.0,0.0,,0.0,20.1,,,38.2,0.0,0.0,-0.4,0.6,0.2,,,,,13.0,14.0,13.0,13.0,13.0,14.0,13.0,14.0,,,-10.0,254.5,,20.1,0.0,1.499,,,0.656,0.703,0.0,12.0,,,,,,2026-02-01-N890GF-SN35347-17.4.0.23677-FIRST-USER_LOG_DATA-PART_02.csv,,,,,,,55.4,53.6,,,,,55.4,57.2,55.4,55.4,55.4,57.2,55.4,57.2,,,53.6,0.0,55.4,1.0,0.9675090252707582,0.0,0.3373333333333334,242.6,True,2026-01-04 22:43:52 - Flight 17,
27.06,1.0,10.0,2026-01-04 22:44:19,37.08162,-121.59949,248.0,0.1,337.8,-12.6,,,,,0.0,11.0,0.2,241.2,0.0,319.0,-0.0,0.01,1.0,,-46.0,13.0,0.0,29.88,136.0,,,230.0,,,,,0.0,0.0,,,,,,,,,,,,,,,,,,,0.0,12.0,0.0,0.0,30.0,0.0,,0.0,19.9,,,38.2,0.0,0.0,-0.4,0.6,0.2,,,,,13.0,14.0,13.0,13.0,13.0,14.0,13.0,13.0,,,-10.0,254.5,,19.9,0.0,0.001,,,0.656,0.703,0.0,12.0,,,,,,2026-02-01-N890GF-SN35347-17.4.0.23677-FIRST-USER_LOG_DATA-PART_02.csv,,,,,,,55.4,53.6,,,,,55.4,57.2,55.4,55.4,55.4,57.2,55.4,55.4,,,53.6,0.0,55.4,1.0,0.9675090252707582,0.0,0.42166666666666675,242.6,True,2026-01-04 22:43:52 - Flight 17,
28.06,1.0,10.0,2026-01-04 22:44:20,37.08162,-121.59949,249.0,0.0,337.8,-12.6,,,,,0.0,11.0,0.3,241.1,0.0,318.0,-0.0,0.01,1.0,,-38.0,13.0,0.0,29.88,133.0,,,230.0,,,,,0.0,0.0,,,,,,,,,,,,,,,,,,,0.0,12.0,0.0,0.0,30.0,0.0,,0.0,19.7,,,38.2,0.0,0.0,-0.4,0.6,0.2,,,,,13.0,14.0,13.0,13.0,13.0,14.0,13.0,13.0,,,-10.0,254.5,,19.7,0.0,0.0,,,0.656,0.703,0.0,12.0,,,,,,2026-02-01-N890GF-SN35347-17.4.0.23677-FIRST-USER_LOG_DATA-PART_02.csv,,,,,,,55.4,53.6,,,,,55.4,57.2,55.4,55.4,55.4,57.2,55.4,55.4,,,53.6,0.0,55.4,1.0,0.9675090252707582,0.0,0.506,242.6,True,2026-01-04 22:43:52 - Flight 17,
29.06,1.0,10.0,2026-01-04 22:44:21,37.08162,-121.59949,251.0,0.0,337.8,-12.6,,,,,0.0,11.0,0.3,241.2,0.0,316.0,0.0,0.01,1.0,,-78.0,13.0,0.0,29.88,134.0,,,230.0,,,,,0.0,0.0,,,,,,,,,,,,,,,,,,,0.0,12.0,0.0,0.0,30.0,0.0,,0.0,19.5,,,38.2,0.0,0.0,-0.4,0.6,0.2,,,,,13.0,13.0,12.0,13.0,13.0,13.0,12.0,13.0,,,-10.0,254.5,,19.5,0.0,0.0,,,0.656,0.703,0.0,12.0,,,,,,2026-02-01-N890GF-SN35347-17.4.0.23677-FIRST-USER_LOG_DATA-PART_02.csv,,,,,,,55.4,53.6,,,,,55.4,55.4,53.6,55.4,55.4,55.4,53.6,55.4,,,53.6,0.0,54.5,0.983754512635379,0.9675090252707582,0.0,0.506,242.6,True,2026-01-04 22:43:52 - Flight 17,
30.06,1.0,10.0,2026-01-04 22:44:22,37.08162,-121.5995,253.0,0.0,337.8,-12.6,,,,,0.0,11.0,0.2,241.1,0.0,314.0,-0.0,0.01,1.0,,-82.0,13.0,0.0,29.88,134.0,,,230.0,,,,,0.0,0.0,,,,,,,,,,,,,,,,,,,0.0,12.0,0.0,0.0,30.0,0.0,,0.0,19.3,,,38.2,0.0,0.0,-0.4,0.6,0.2,,,,,13.0,14.0,13.0,13.0,13.0,14.0,13.0,13.0,,,-10.0,254.5,,19.3,0.0,0.0,,,0.656,0.703,0.0,12.0,,,,,,2026-02-01-N890GF-SN35347-17.4.0.23677-FIRST-USER_LOG_DATA-PART_02.csv,,,,,,,55.4,53.6,,,,,55.4,57.2,55.4,55.4,55.4,57.2,55.4,55.4,,,53.6,0.0,55.4,1.0,0.9675090252707582,0.0,0.506,242.6,True,2026-01-04 22:43:52 - Flight 17,
31.06,1.0,10.0,2026-01-04 22:44:23,37.08162,-121.5995,256.0,0.0,337.8,-12.6,,,,,0.0,11.1,0.2,241.1,0.0,313.0,-0.0,0.01,1.0,,-59.0,13.0,0.0,29.88,134.0,,,230.0,,,,,0.0,0.0,,,,,,,,,,,,,,,,,,,0.0,12.0,0.0,0.0,30.0,0.0,,0.0,19.1,,,38.2,0.0,0.0,-0.4,0.6,0.2,,,,,13.0,13.0,12.0,13.0,13.0,13.0,12.0,13.0,,,-10.0,254.4,,19.1,0.0,0.0,,,0.656,0.703,0.0,12.0,,,,,,2026-02-01-N890GF-SN35347-17.4.0.23677-FIRST-USER_LOG_DATA-PART_02.csv,,,,,,,55.4,53.6,,,,,55.4,55.4,53.6,55.4,55.4,55.4,53.6,55.4,,,53.6,0.0,54.5,0.983754512635379,0.9675090252707582,0.0,0.506,242.6,True,2026-01-04 22:43:52 - Flight 17,
32.06,1.0,10.0,2026-01-04 22:44:24,37.08162,-121.5995,258.0,0.0,337.8,-12.6,,,,,0.0,11.1,0.2,241.1,0.0,311.0,-0.1,0.01,1.0,,-98.0,13.0,0.0,29.88,133.0,,,230.0,,,,,0.0,0.0,,,,,,,,,,,,,,,,,,,0.0,12.0,0.0,0.0,30.0,0.0,,0.0,18.9,,,38.2,0.0,0.0,-0.4,0.6,0.2,,,,,13.0,14.0,13.0,13.0,13.0,14.0,13.0,13.0,,,-10.0,254.4,,18.9,0.0,0.0,,,0.656,0.703,0.0,12.0,,,,,,2026-02-01-N890GF-SN35347-17.4.0.23677-FIRST-USER_LOG_DATA-PART_02.csv,,,,,,,55.4,53.6,,,,,55.4,57.2,55.4,55.4,55.4,57.2,55.4,55.4,,,53.6,0.0,55.4,1.0,0.9675090252707582,0.0,0.506,242.6,True,2026-01-04 22:43:52 - Flight 17,
33.06,1.0,10.0,2026-01-04 22:44:25,37.08162,-121.59951,261.0,0.0,337.8,-12.6,,,,,0.0,11.0,0.2,241.1,0.0,309.0,-0.0,0.01,1.0,,-117.0,13.0,0.0,29.88,131.0,,,230.0,,,,,0.0,0.0,,,,,,,,,,,,,,,,,,,0.0,12.0,0.0,0.0,30.0,0.0,,0.0,18.7,,,38.2,0.0,0.0,-0.4,0.6,0.2,,,,,13.0,14.0,13.0,13.0,13.0,14.0,13.0,13.0,,,-10.0,254.4,,18.7,0.0,0.0,,,0.656,0.703,0.0,12.0,,,,,,2026-02-01-N890GF-SN35347-17.4.0.23677-FIRST-USER_LOG_DATA-PART_02.csv,,,,,,,55.4,53.6,,,,,55.4,57.2,55.4,55.4,55.4,57.2,55.4,55.4,,,53.6,0.0,55.4,1.0,0.9675090252707582,0.0,0.506,242.6,True,2026-01-04 22:43:52 - Flight 17,
34.06,1.0,10.0,2026-01-04 22:44:26,37.08162,-121.59951,264.0,0.0,337.8,-12.6,,,,,0.0,11.0,0.2,241.2,0.0,308.0,-0.0,0.0,1.0,,-106.0,13.0,0.0,29.88,129.0,,,230.0,,,,,0.0,0.0,,,,,,,,,,,,,,,,,,,0.0,12.0,0.0,0.0,30.0,0.0,,0.0,18.5,,,38.2,0.0,0.0,-0.4,0.6,0.2,,,,,13.0,14.0,13.0,13.0,13.0,14.0,13.0,13.0,,,-10.0,254.4,,18.5,0.0,0.0,,,0.656,0.703,0.0,12.0,,,,,,2026-02-01-N890GF-SN35347-17.4.0.23677-FIRST-USER_LOG_DATA-PART_02.csv,,,,,,,55.4,53.6,,,,,55.4,57.2,55.4,55.4,55.4,57.2,55.4,55.4,,,53.6,0.0,55.4,1.0,0.9675090252707582,0.0,0.506,242.6,True,2026-01-04 22:43:52 - Flight 17,
35.06,1.0,10.0,2026-01-04 22:44:27,37.08162,-121.59952,266.0,0.0,337.8,-12.6,,,,,0.0,11.0,0.2,241.2,0.0,305.0,-0.0,0.0,1.0,,-124.0,13.0,0.0,29.88,126.0,,,230.0,,,,,0.0,0.0,,,,,,,,,,,,,,,,,,,0.0,12.0,0.0,0.0,30.0,0.0,,0.0,18.3,,,38.2,0.0,0.0,-0.4,0.6,0.2,,,,,13.0,14.0,13.0,13.0,13.0,14.0,13.0,14.0,,,-10.0,254.4,,18.3,0.0,0.0,,,0.656,0.703,0.0,12.0,,,,,,2026-02-01-N890GF-SN35347-17.4.0.23677-FIRST-USER_LOG_DATA-PART_02.csv,,,,,,,55.4,53.6,,,,,55.4,57.2,55.4,55.4,55.4,57.2,55.4,57.2,,,53.6,0.0,55.4,1.0,0.9675090252707582,0.0,0.506,242.6,True,2026-01-04 22:43:52 - Flight 17,
36.06,1.0,10.0,2026-01-04 22:44:28,37.08162,-121.59952,269.0,0.0,337.8,-12.6,,,,,0.0,11.0,0.2,241.2,0.0,303.0,-0.0,0.0,1.0,,-101.0,13.0,0.0,29.88,124.0,,,230.0,,,,,0.0,0.0,,,,,,,,,,,,,,,,,,,0.0,12.0,0.0,0.0,30.0,0.0,,0.0,18.1,,,38.2,0.0,0.0,-0.4,0.6,0.2,,,,,13.0,14.0,13.0,14.0,13.0,14.0,13.0,14.0,,,-10.0,254.4,,18.1,0.0,0.0,,,0.656,0.703,0.0,12.0,,,,,,2026-02-01-N890GF-SN35347-17.4.0.23677-FIRST-USER_LOG_DATA-PART_02.csv,,,,,,,55.4,53.6,,,,,55.4,57.2,55.4,57.2,55.4,57.2,55.4,57.2,,,53.6,0.0,55.4,1.0,0.9675090252707582,0.0,0.506,242.6,True,2026-01-04 22:43:52 - Flight 17,
37.06,1.0,10.0,2026-01-04 22:44:29,37.08162,-121.59952,272.0,0.0,337.8,-12.6,,,,,0.0,11.0,0.2,241.2,0.0,303.0,-0.0,0.01,1.0,,-78.0,13.0,0.0,29.88,124.0,,,230.0,,,,,0.0,0.0,,,,,,,,,,,,,,,,,,,0.0,12.0,0.0,0.0,30.0,0.0,,0.0,17.9,,,38.2,0.0,0.0,-0.4,0.6,0.2,,,,,13.0,14.0,13.0,14.0,13.0,14.0,13.0,14.0,,,-10.0,254.4,,17.9,0.0,0.0,,,0.656,0.703,0.0,12.0,,,,,,2026-02-01-N890GF-SN35347-17.4.0.23677-FIRST-USER_LOG_DATA-PART_02.csv,,,,,,,55.4,53.6,,,,,55.4,57.2,55.4,57.2,55.4,57.2,55.4,57.2,,,53.6,0.0,55.4,1.0,0.9675090252707582,0.0,0.506,242.6,True,2026-01-04 22:43:52 - Flight 17,
38.06,1.0,10.0,2026-01-04 22:44:30,37.08162,-121.59953,275.0,0.0,337.8,-12.6,,,,,0.0,11.1,0.2,241.2,0.0,303.0,-0.0,0.0,1.0,,-66.0,13.0,0.0,29.88,123.0,,,230.0,,,,,0.0,0.0,,,,,,,,,,,,,,,,,,,0.0,12.0,0.0,0.0,30.0,0.0,,0.0,17.8,,,38.2,0.0,0.0,-0.4,0.6,0.2,,,,,13.0,14.0,13.0,13.0,13.0,14.0,13.0,13.0,,,-10.0,254.4,,17.8,0.0,0.0,,,0.656,0.703,0.0,12.0,,,,,,2026-02-01-N890GF-SN35347-17.4.0.23677-FIRST-USER_LOG_DATA-PART_02.csv,,,,,,,55.4,53.6,,,,,55.4,57.2,55.4,55.4,55.4,57.2,55.4,55.4,,,53.6,0.0,55.4,1.0,0.9675090252707582,0.0,0.506,242.6,True,2026-01-04 22:43:52 - Flight 17,
39.06,1.0,10.0,2026-01-04 22:44:31,37.08162,-121.59962,353.0,0.0,337.8,-12.6,,,,,0.0,11.1,0.2,241.2,0.0,303.0,-0.0,0.0,1.0,,-22.0,13.0,0.0,29.88,123.0,,,230.0,,,,,0.0,0.0,,,,,,,,,,,,,,,,,,,0.0,12.0,0.0,0.0,30.0,0.0,,0.0,17.6,,,38.2,0.0,0.0,-0.4,0.6,0.2,,,,,13.0,14.0,13.0,13.0,13.0,14.0,13.0,13.0,,,-10.0,254.4,,17.6,0.0,0.0,,,0.656,0.703,0.0,12.0,,,,,,2026-02-01-N890GF-SN35347-17.4.0.23677-FIRST-USER_LOG_DATA-PART_02.csv,,,,,,,55.4,53.6,,,,,55.4,57.2,55.4,55.4,55.4,57.2,55.4,55.4,,,53.6,0.0,55.4,1.0,0.9675090252707582,0.0,0.506,242.6,True,2026-01-04 22:43:52 - Flight 17,
40.06,1.0,10.0,2026-01-04 22:44:32,37.08162,-121.59962,351.0,0.0,337.8,-12.6,,,,,0.0,11.1,0.1,241.2,0.0,303.0,-0.0,0.01,1.0,,-5.0,13.0,0.0,29.88,123.0,,,230.0,,,,,0.0,0.0,,,,,,,,,,,,,,,,,,,0.0,12.0,0.0,0.0,30.0,0.0,,0.0,17.4,,,38.2,0.0,0.0,-0.4,0.6,0.2,,,,,13.0,14.0,13.0,13.0,13.0,14.0,13.0,13.0,,,-10.0,254.4,,17.4,0.0,0.0,,,0.656,0.703,0.0,12.0,,,,,,2026-02-01-N890GF-SN35347-17.4.0.23677-FIRST-USER_LOG_DATA-PART_02.csv,,,,,,,55.4,53.6,,,,,55.4,57.2,55.4,55.4,55.4,57.2,55.4,55.4,,,53.6,0.0,55.4,1.0,0.9675090252707582,0.0,0.506,242.6,True,2026-01-04 22:43:52 - Flight 17,
41.06,1.0,10.0,2026-01-04 22:44:33,37.08162,-121.59962,349.0,0.0,337.8,-12.6,,,,,0.0,11.1,0.2,241.2,0.0,303.0,-0.0,0.0,1.0,,-18.0,13.0,0.0,29.88,125.0,,,230.0,,,,,0.0,0.0,,,,,,,,,,,,,,,,,,,0.0,12.0,0.0,0.0,30.0,0.0,,0.0,17.3,,,38.2,0.0,0.0,-0.4,0.6,0.2,,,,,13.0,14.0,13.0,14.0,13.0,14.0,13.0,14.0,,,-9.0,254.4,,17.3,0.0,0.0,,,0.656,0.703,0.0,12.0,,,,,,2026-02-01-N890GF-SN35347-17.4.0.23677-FIRST-USER_LOG_DATA-PART_02.csv,,,,,,,55.4,53.6,,,,,55.4,57.2,55.4,57.2,55.4,57.2,55.4,57.2,,,53.6,0.0,55.4,1.0,0.9675090252707582,0.0,0.506,242.6,True,2026-01-04 22:43:52 - Flight 17,
42.06,1.0,10.0,2026-01-04 22:44:34,37.08162,-121.59962,348.0,0.0,337.8,-12.6,,,,,0.0,11.1,0.2,241.2,0.0,300.0,-0.0,0.0,1.0,,-55.0,13.0,0.0,29.88,120.0,,,230.0,,,,,0.0,0.0,,,,,,,,,,,,,,,,,,,0.0,12.0,0.0,0.0,30.0,0.0,,0.0,17.1,,,38.2,0.0,0.0,-0.4,0.6,0.2,,,,,13.0,14.0,13.0,13.0,13.0,14.0,13.0,13.0,,,-10.0,230.5,,17.1,0.0,0.0,,,0.656,0.703,0.0,12.0,,,,,,2026-02-01-N890GF-SN35347-17.4.0.23677-FIRST-USER_LOG_DATA-PART_02.csv,,,,,,,55.4,53.6,,,,,55.4,57.2,55.4,55.4,55.4,57.2,55.4,55.4,,,53.6,0.0,55.4,1.0,0.9675090252707582,0.0,0.506,242.6,True,2026-01-04 22:43:52 - Flight 17,
43.06,1.0,10.0,2026-01-04 22:44:35,37.08162,-121.59962,346.0,0.0,337.8,-12.6,,,,,0.0,11.0,0.2,241.2,0.0,299.0,-0.0,0.0,1.0,,-41.0,13.0,0.0,29.88,120.0,,,230.0,,,,,0.0,0.0,,,,,,,,,,,,,,,,,,,0.0,12.0,0.0,0.0,30.0,0.0,,0.0,16.9,,,38.2,0.0,0.0,-0.4,0.6,0.2,,,,,13.0,14.0,13.0,13.0,13.0,14.0,13.0,13.0,,,-10.0,179.4,,16.9,0.0,0.0,,,0.656,0.703,0.0,12.0,,,,,,2026-02-01-N890GF-SN35347-17.4.0.23677-FIRST-USER_LOG_DATA-PART_02.csv,,,,,,,55.4,53.6,,,,,55.4,57.2,55.4,55.4,55.4,57.2,55.4,55.4,,,53.6,0.0,55.4,1.0,0.9675090252707582,0.0,0.506,242.6,True,2026-01-04 22:43:52 - Flight 17,
44.06,1.0,10.0,2026-01-04 22:44:36,37.08162,-121.59961,344.0,0.0,337.8,-12.6,,,,,0.0,11.1,0.2,241.2,0.0,299.0,-0.0,0.01,1.0,,-59.0,13.0,0.0,29.88,118.0,,,230.0,,,,,0.0,0.0,,,,,,,,,,,,,,,,,,,0.0,12.0,0.0,0.0,30.0,0.0,,0.0,16.8,,,38.2,0.0,0.0,-0.4,0.6,0.2,,,,,13.0,14.0,13.0,13.0,13.0,14.0,13.0,14.0,,,-10.0,139.7,,16.8,0.0,0.0,,,0.656,0.703,0.0,12.0,,,,,,2026-02-01-N890GF-SN35347-17.4.0.23677-FIRST-USER_LOG_DATA-PART_02.csv,,,,,,,55.4,53.6,,,,,55.4,57.2,55.4,55.4,55.4,57.2,55.4,57.2,,,53.6,0.0,55.4,1.0,0.9675090252707582,0.0,0.506,242.6,True,2026-01-04 22:43:52 - Flight 17,
45.06,1.0,10.0,2026-01-04 22:44:37,37.08162,-121.59961,342.0,0.0,337.8,-12.6,,,,,0.0,11.1,0.2,241.2,0.0,299.0,-0.0,0.0,1.0,,-40.0,13.0,0.0,29.88,118.0,,,230.0,,,,,0.0,0.0,,,,,,,,,,,,,,,,,,,0.0,12.0,0.0,0.0,30.0,0.5,,0.5,5.3,,,38.2,0.0,0.0,-0.4,0.6,0.2,,,,,13.0,14.0,13.0,13.0,13.0,14.0,13.0,13.0,,,-10.0,108.8,,5.3,0.0,0.0,,,0.656,0.703,0.0,12.0,,,,,,2026-02-01-N890GF-SN35347-17.4.0.23677-FIRST-USER_LOG_DATA-PART_02.csv,,,,,,,55.4,53.6,,,,,55.4,57.2,55.4,55.4,55.4,57.2,55.4,55.4,,,53.6,0.0,55.4,1.0,0.9675090252707582,6.944444444444444e-05,0.506,242.6,True,2026-01-04 22:43:52 - Flight 17,
46.06,1.0,10.0,2026-01-04 22:44:38,37.08162,-121.5996,340.0,0.0,337.8,-12.6,,,,,0.0,11.1,0.2,241.2,0.0,299.0,-0.0,0.0,1.0,,-5.0,13.0,0.0,29.88,118.0,,,230.0,,,,,0.0,0.0,,,,,,,,,,,,,,,,,,,0.0,12.0,0.0,0.0,30.0,0.6,,0.6,3.9,,,38.2,0.0,0.0,-0.4,0.6,0.2,,,,,13.0,14.0,13.0,13.0,13.0,14.0,13.0,13.0,,,-10.0,84.8,,3.9,0.0,0.0,,,0.656,0.703,0.0,12.0,,,,,,2026-02-01-N890GF-SN35347-17.4.0.23677-FIRST-USER_LOG_DATA-PART_02.csv,,,,,,,55.4,53.6,,,,,55.4,57.2,55.4,55.4,55.4,57.2,55.4,55.4,,,53.6,0.0,55.4,1.0,0.9675090252707582,0.00022222222222222223,0.506,242.6,True,2026-01-04 22:43:52 - Flight 17,
47.06,1.0,10.0,2026-01-04 22:44:39,37.08162,-121.5996,338.0,0.0,337.8,-12.6,,,,,0.0,11.1,0.2,241.2,0.0,299.0,-0.0,0.0,1.0,,-2.0,13.0,0.0,29.88,119.0,,,230.0,,,,,0.0,0.0,,,,,,,,,,,,,,,,,,,0.0,12.0,0.0,0.0,30.0,1.5,,1.5,24.2,,,38.2,0.0,0.0,-0.4,0.6,0.2,,,,,13.0,14.0,13.0,14.0,13.0,14.0,13.0,14.0,,,-10.0,66.1,,24.2,0.0,0.0,,,0.656,0.703,0.0,12.0,,,,,,2026-02-01-N890GF-SN35347-17.4.0.23677-FIRST-USER_LOG_DATA-PART_02.csv,,,,,,,55.4,53.6,,,,,55.4,57.2,55.4,57.2,55.4,57.2,55.4,57.2,,,53.6,0.0,55.4,1.0,0.9675090252707582,0.0005138888888888889,0.506,242.6,True,2026-01-04 22:43:52 - Flight 17,
48.06,1.0,10.0,2026-01-04 22:44:40,37.08162,-121.59959,336.0,0.0,337.8,-12.6,,,,,0.0,11.1,0.2,241.2,0.0,299.0,-0.1,0.0,1.0,,25.0,13.0,0.0,29.88,118.0,,,230.0,,,,,0.0,0.0,,,,,,,,,,,,,,,,,,,0.0,12.0,0.0,0.0,30.0,2.3,,2.3,30.9,,,38.2,0.0,0.0,-0.3,0.6,0.2,,,,,13.0,14.0,13.0,13.0,13.0,14.0,13.0,13.0,,,-10.0,51.6,,30.9,0.0,0.0,,,0.656,0.703,0.0,12.0,,,,,,2026-02-01-N890GF-SN35347-17.4.0.23677-FIRST-USER_LOG_DATA-PART_02.csv,,,,,,,55.4,53.6,,,,,55.4,57.2,55.4,55.4,55.4,57.2,55.4,55.4,,,53.6,0.0,55.4,1.0,0.9675090252707582,0.0010416666666666667,0.506,242.6,True,2026-01-04 22:43:52 - Flight 17,
49.06,1.0,10.0,2026-01-04 22:44:41,37.08162,-121.59959,334.0,0.0,337.8,-12.6,,,,,0.0,11.1,0.2,241.3,0.0,299.0,-0.0,0.01,1.0,,15.0,13.0,0.0,29.88,118.0,,,230.0,,,,,0.0,0.0,,,,,,,,,,,,,,,,,,,0.0,12.0,0.0,0.0,30.0,2.9,,2.9,32.1,,,38.2,0.0,0.0,-0.3,0.6,0.2,,,,,13.0,14.0,13.0,14.0,13.0,14.0,13.0,14.0,,,-10.0,40.3,,32.1,0.0,0.0,,,0.656,0.703,0.0,12.0,,,,,,2026-02-01-N890GF-SN35347-17.4.0.23677-FIRST-USER_LOG_DATA-PART_02.csv,,,,,,,55.4,53.6,,,,,55.4,57.2,55.4,57.2,55.4,57.2,55.4,57.2,,,53.6,0.0,55.4,1.0,0.9675090252707582,0.0017638888888888888,0.506,242.6,True,2026-01-04 22:43:52 - Flight 17,
50.06,1.0,10.0,2026-01-04 22:44:42,37.08162,-121.59959,332.0,0.0,337.8,-12.6,,,,,0.0,11.1,0.2,241.3,0.0,299.0,-0.0,0.0,1.0,,8.0,13.0,0.0,29.88,118.0,,,230.0,,,,,0.0,0.0,,,,,,,,,,,,,,,,,,,0.0,12.0,0.0,0.0,30.0,2.9,,2.9,33.6,,,38.2,0.0,0.0,-0.3,0.6,0.2,,,,,13.0,14.0,13.0,14.0,13.0,14.0,13.0,14.0,,,-10.0,31.5,,33.6,0.0,0.0,,,0.656,0.703,0.0,12.0,,,,,,2026-02-01-N890GF-SN35347-17.4.0.23677-FIRST-USER_LOG_DATA-PART_02.csv,,,,,,,55.4,53.6,,,,,55.4,57.2,55.4,57.2,55.4,57.2,55.4,57.2,,,53.6,0.0,55.4,1.0,0.9675090252707582,0.0025694444444444445,0.506,242.6,True,2026-01-04 22:43:52 - Flight 17,
51.06,1.0,10.0,2026-01-04 22:44:43,37.08162,-121.59959,330.0,0.0,337.8,-12.6,,,,,0.0,11.1,0.2,241.3,0.0,299.0,-0.0,0.0,1.0,,20.0,13.0,0.0,29.88,119.0,,,230.0,,,,,0.0,0.0,,,,,,,,,,,,,,,,,,,0.0,12.0,0.0,0.0,30.0,2.6,,2.6,32.9,,,38.2,0.0,0.0,-0.3,0.6,0.2,,,,,13.0,14.0,13.0,13.0,13.0,14.0,13.0,13.0,,,-10.0,24.7,,32.9,0.0,0.0,,,0.656,0.703,0.0,12.0,,,,,,2026-02-01-N890GF-SN35347-17.4.0.23677-FIRST-USER_LOG_DATA-PART_02.csv,,,,,,,55.4,53.6,,,,,55.4,57.2,55.4,55.4,55.4,57.2,55.4,55.4,,,53.6,0.0,55.4,1.0,0.9675090252707582,0.003333333333333333,0.506,242.6,True,2026-01-04 22:43:52 - Flight 17,
52.06,1.0,10.0,2026-01-04 22:44:44,37.08162,-121.59959,328.0,0.0,337.8,-12.6,,,,,0.0,11.1,0.1,241.3,0.0,299.0,-0.0,0.0,1.0,,47.0,13.0,0.0,29.88,119.0,,,230.0,,,,,0.0,0.0,,,,,,,,,,,,,,,,,,,0.0,12.0,0.0,0.0,30.0,2.6,,2.6,32.6,,,38.2,0.0,0.0,-0.3,0.6,0.2,,,,,13.0,14.0,13.0,14.0,13.0,14.0,13.0,14.0,,,-10.0,19.4,,32.6,0.0,0.0,,,0.656,0.703,0.0,12.0,,,,,,2026-02-01-N890GF-SN35347-17.4.0.23677-FIRST-USER_LOG_DATA-PART_02.csv,,,,,,,55.4,53.6,,,,,55.4,57.2,55.4,57.2,55.4,57.2,55.4,57.2,,,53.6,0.0,55.4,1.0,0.9675090252707582,0.004055555555555555,0.506,242.6,True,2026-01-04 22:43:52 - Flight 17,
53.06,1.0,10.0,2026-01-04 22:44:45,37.08162,-121.59958,326.0,0.0,337.8,-12.6,,,,,0.0,11.1,0.1,241.3,0.0,299.0,-0.0,0.0,1.0,,18.0,13.0,0.0,29.88,119.0,,,230.0,,,,,0.0,0.0,,,,,,,,,,,,,,,,,,,0.0,12.0,0.0,0.0,30.0,0.0,,0.0,32.4,,,38.2,0.0,0.0,-0.4,0.6,0.2,,,,,13.0,14.0,13.0,13.0,13.0,14.0,13.0,13.0,,,-10.0,15.3,,32.4,1.0,0.0,,,0.656,0.703,0.0,12.0,,,,,,2026-02-01-N890GF-SN35347-17.4.0.23677-FIRST-USER_LOG_DATA-PART_02.csv,,,,,,,55.4,53.6,,,,,55.4,57.2,55.4,55.4,55.4,57.2,55.4,55.4,,,53.6,0.0,55.4,1.0,0.9675090252707582,0.004416666666666667,0.506,242.6,True,2026-01-04 22:43:52 - Flight 17,
54.06,1.0,10.0,2026-01-04 22:44:46,37.08162,-121.59958,324.0,0.0,337.8,-12.6,,,,,0.0,11.1,0.1,241.3,0.0,299.0,-0.0,0.0,1.0,,41.0,13.0,0.0,29.88,119.0,,,230.0,,,,,0.0,0.0,,,,,,,,,,,,,,,,,,,0.0,12.0,0.0,0.0,30.0,0.0,,0.0,32.2,,,38.2,0.0,0.0,-0.4,0.6,0.2,,,,,13.0,14.0,13.0,14.0,13.0,14.0,13.0,14.0,,,-10.0,12.1,,32.2,1.0,0.0,,,0.656,0.703,0.0,12.0,,,,,,2026-02-01-N890GF-SN35347-17.4.0.23677-FIRST-USER_LOG_DATA-PART_02.csv,,,,,,,55.4,53.6,,,,,55.4,57.2,55.4,57.2,55.4,57.2,55.4,57.2,,,53.6,0.0,55.4,1.0,0.9675090252707582,0.004416666666666667,0.506,242.6,True,2026-01-04 22:43:52 - Flight 17,
55.06,1.0,10.0,2026-01-04 22:44:47,37.08162,-121.59958,322.0,0.0,337.8,-12.6,,,,,0.0,11.1,0.2,241.3,0.0,299.0,-0.0,0.0,1.0,,16.0,13.0,0.0,29.88,119.0,,,230.0,,,,,0.0,0.0,,,,,,,,,,,,,,,,,,,0.0,12.0,0.0,0.0,30.0,0.0,,0.0,32.0,,,38.2,0.0,0.0,-0.4,0.6,0.2,,,,,13.0,14.0,13.0,14.0,13.0,14.0,13.0,14.0,,,-10.0,9.6,,32.0,1.0,0.0,,,0.656,0.703,0.0,12.0,,,,,,2026-02-01-N890GF-SN35347-17.4.0.23677-FIRST-USER_LOG_DATA-PART_02.csv,,,,,,,55.4,53.6,,,,,55.4,57.2,55.4,57.2,55.4,57.2,55.4,57.2,,,53.6,0.0,55.4,1.0,0.9675090252707582,0.004416666666666667,0.506,242.6,True,2026-01-04 22:43:52 - Flight 17,
56.06,1.0,10.0,2026-01-04 22:44:48,37.08162,-121.59957,321.0,0.0,337.8,-12.6,,,,,0.0,11.1,0.2,241.2,0.0,299.0,-0.0,0.01,1.0,,47.0,13.0,0.0,29.88,119.0,,,230.0,,,,,0.0,0.0,,,,,,,,,,,,,,,,,,,0.0,12.0,0.0,0.0,30.0,0.0,,0.0,31.9,,,38.2,0.0,0.0,-0.4,0.6,0.2,,,,,13.0,14.0,13.0,14.0,13.0,14.0,13.0,14.0,,,-10.0,7.7,,31.9,1.0,0.0,,,0.656,0.703,0.0,12.0,,,,,,2026-02-01-N890GF-SN35347-17.4.0.23677-FIRST-USER_LOG_DATA-PART_02.csv,,,,,,,55.4,53.6,,,,,55.4,57.2,55.4,57.2,55.4,57.2,55.4,57.2,,,53.6,0.0,55.4,1.0,0.9675090252707582,0.004416666666666667,0.506,242.6,True,2026-01-04 22:43:52 - Flight 17,
57.06,1.0,10.0,2026-01-04 22:44:49,37.0816,-121.59956,327.0,0.0,337.8,-12.6,,,,,0.0,11.1,0.2,241.2,0.0,299.0,-0.0,0.0,1.0,,23.0,13.0,0.0,29.88,119.0,,,230.0,,,,,0.0,0.0,,,,,,,,,,,,,,,,,,,0.0,12.0,0.0,0.0,30.0,0.0,,0.0,31.7,,,38.2,0.0,0.0,-0.4,0.6,0.2,,,,,13.0,14.0,13.0,13.0,13.0,14.0,13.0,13.0,,,-10.0,6.2,,31.7,1.0,0.0,,,0.656,0.703,0.0,12.0,,,,,,2026-02-01-N890GF-SN35347-17.4.0.23677-FIRST-USER_LOG_DATA-PART_02.csv,,,,,,,55.4,53.6,,,,,55.4,57.2,55.4,55.4,55.4,57.2,55.4,55.4,,,53.6,0.0,55.4,1.0,0.9675090252707582,0.004416666666666667,0.506,242.6,True,2026-01-04 22:43:52 - Flight 17,
58.06,1.0,10.0,2026-01-04 22:44:50,37.0816,-121.59956,325.0,0.0,337.8,-12.6,,,,,0.0,11.0,0.3,241.2,0.0,299.0,-0.0,0.01,1.0,,43.0,13.0,0.0,29.88,119.0,,,230.0,,,,,0.0,0.0,,,,,,,,,,,,,,,,,,,0.0,12.0,0.0,0.0,30.0,0.0,,0.0,31.6,,,38.2,0.0,0.0,-0.4,0.6,0.2,,,,,13.0,14.0,13.0,13.0,13.0,14.0,13.0,13.0,,,-10.0,5.0,,31.6,1.0,0.0,,,0.656,0.703,0.0,12.0,,,,,,2026-02-01-N890GF-SN35347-17.4.0.23677-FIRST-USER_LOG_DATA-PART_02.csv,,,,,,,55.4,53.6,,,,,55.4,57.2,55.4,55.4,55.4,57.2,55.4,55.4,,,53.6,0.0,55.4,1.0,0.9675090252707582,0.004416666666666667,0.506,242.6,True,2026-01-04 22:43:52 - Flight 17,
59.06,1.0,10.0,2026-01-04 22:44:51,37.0816,-121.59956,324.0,0.0,337.8,-12.6,,,,,0.0,11.1,0.2,241.2,0.0,299.0,-0.0,0.01,1.0,,14.0,13.0,0.0,29.88,119.0,,,230.0,,,,,0.0,0.0,,,,,,,,,,,,,,,,,,,0.0,12.0,0.0,0.0,30.0,0.0,,0.0,31.4,,,38.2,0.0,0.0,-0.4,0.6,0.2,,,,,13.0,14.0,13.0,13.0,13.0,14.0,13.0,13.0,,,-10.0,4.1,,31.4,1.0,0.0,,,0.656,0.703,0.0,12.0,,,,,,2026-02-01-N890GF-SN35347-17.4.0.23677-FIRST-USER_LOG_DATA-PART_02.csv,,,,,,,55.4,53.6,,,,,55.4,57.2,55.4,55.4,55.4,57.2,55.4,55.4,,,53.6,0.0,55.4,1.0,0.9675090252707582,0.004416666666666667,0.506,242.6,True,2026-01-04 22:43:52 - Flight 17,
60.06,1.0,10.0,2026-01-04 22:44:52,37.0816,-121.59956,323.0,0.0,337.8,-12.6,,,,,0.0,11.1,0.2,241.2,0.0,299.0,-0.0,0.01,1.0,,11.0,13.0,0.0,29.88,119.0,,,230.0,,,,,0.0,0.0,,,,,,,,,,,,,,,,,,,0.0,12.0,0.0,0.0,30.0,0.0,,0.0,31.3,,,38.2,0.0,0.0,-0.4,0.6,0.2,,,,,13.0,14.0,13.0,14.0,13.0,14.0,13.0,14.0,,,-10.0,3.4,,31.3,1.0,0.0,,,0.656,0.703,0.0,12.0,,,,,,2026-02-01-N890GF-SN35347-17.4.0.23677-FIRST-USER_LOG_DATA-PART_02.csv,,,,,,,55.4,53.6,,,,,55.4,57.2,55.4,57.2,55.4,57.2,55.4,57.2,,,53.6,0.0,55.4,1.0,0.9675090252707582,0.004416666666666667,0.506,242.6,True,2026-01-04 22:43:52 - Flight 17,
61.06,1.0,10.0,2026-01-04 22:44:53,37.0816,-121.59956,322.0,0.0,337.8,-12.6,,,,,0.0,11.1,0.2,241.2,0.0,299.0,-0.0,0.0,1.0,,5.0,13.0,0.0,29.88,119.0,,,230.0,,,,,0.0,0.0,,,,,,,,,,,,,,,,,,,0.0,12.0,0.0,0.0,30.0,0.0,,0.0,31.1,,,38.2,0.0,0.0,-0.4,0.6,0.2,,,,,13.0,14.0,13.0,13.0,13.0,14.0,13.0,13.0,,,-10.0,2.9,,31.1,1.0,0.0,,,0.656,0.703,0.0,12.0,,,,,,2026-02-01-N890GF-SN35347-17.4.0.23677-FIRST-USER_LOG_DATA-PART_02.csv,,,,,,,55.4,53.6,,,,,55.4,57.2,55.4,55.4,55.4,57.2,55.4,55.4,,,53.6,0.0,55.4,1.0,0.9675090252707582,0.004416666666666667,0.506,242.6,True,2026-01-04 22:43:52 - Flight 17,
62.06,1.0,10.0,2026-01-04 22:44:54,37.0816,-121.59956,321.0,0.0,337.8,-12.6,,,,,0.0,11.1,0.2,241.2,0.0,299.0,-0.0,0.0,1.0,,-14.0,13.0,0.0,29.88,119.0,,,230.0,,,,,0.0,0.0,,,,,,,,,,,,,,,,,,,0.0,12.0,0.0,0.0,30.0,0.0,,0.0,31.0,,,38.2,0.0,0.0,-0.4,0.6,0.2,,,,,13.0,14.0,13.0,13.0,13.0,14.0,13.0,13.0,,,-10.0,2.4,,31.0,1.0,0.0,,,0.656,0.703,0.0,12.0,,,,,,2026-02-01-N890GF-SN35347-17.4.0.23677-FIRST-USER_LOG_DATA-PART_02.csv,,,,,,,55.4,53.6,,,,,55.4,57.2,55.4,55.4,55.4,57.2,55.4,55.4,,,53.6,0.0,55.4,1.0,0.9675090252707582,0.004416666666666667,0.506,242.6,True,2026-01-04 22:43:52 - Flight 17,
63.06,1.0,10.0,2026-01-04 22:44:55,37.0816,-121.59956,321.0,0.0,337.8,-12.6,,,,,0.0,11.1,0.2,241.2,0.0,299.0,-0.0,0.01,1.0,,-18.0,13.0,0.0,29.88,119.0,,,230.0,,,,,0.0,0.0,,,,,,,,,,,,,,,,,,,0.0,12.0,0.0,0.0,30.0,0.0,,0.0,30.9,,,38.2,0.0,0.0,-0.4,0.6,0.2,,,,,13.0,14.0,13.0,13.0,13.0,14.0,13.0,13.0,,,-10.0,2.1,,30.9,1.0,0.0,,,0.656,0.703,0.0,12.0,,,,,,2026-02-01-N890GF-SN35347-17.4.0.23677-FIRST-USER_LOG_DATA-PART_02.csv,,,,,,,55.4,53.6,,,,,55.4,57.2,55.4,55.4,55.4,57.2,55.4,55.4,,,53.6,0.0,55.4,1.0,0.9675090252707582,0.004416666666666667,0.506,242.6,True,2026-01-04 22:43:52 - Flight 17,
64.06,1.0,10.0,2026-01-04 22:44:56,37.0816,-121.59956,320.0,0.0,337.8,-12.6,,,,,0.0,11.1,0.2,241.1,0.0,299.0,-0.0,0.0,1.0,,-15.0,13.0,0.0,29.88,121.0,,,230.0,,,,,0.0,0.0,,,,,,,,,,,,,,,,,,,0.0,12.0,0.0,0.0,30.0,0.0,,0.0,30.8,,,38.2,0.0,0.0,-0.4,0.6,0.2,,,,,13.0,14.0,13.0,13.0,13.0,14.0,13.0,13.0,,,-10.0,1.9,,30.8,1.0,0.0,,,0.656,0.703,0.0,12.0,,,,,,2026-02-01-N890GF-SN35347-17.4.0.23677-FIRST-USER_LOG_DATA-PART_02.csv,,,,,,,55.4,53.6,,,,,55.4,57.2,55.4,55.4,55.4,57.2,55.4,55.4,,,53.6,0.0,55.4,1.0,0.9675090252707582,0.004416666666666667,0.506,242.6,True,2026-01-04 22:43:52 - Flight 17,
65.06,1.0,10.0,2026-01-04 22:44:57,37.0816,-121.59956,320.0,0.0,337.8,-12.6,,,,,0.0,11.1,0.2,241.2,0.0,299.0,-0.0,0.0,1.0,,-3.0,13.0,0.0,29.88,121.0,,,230.0,,,,,0.0,0.0,,,,,,,,,,,,,,,,,,,0.0,12.0,0.0,0.0,30.0,0.0,,0.0,30.6,,,38.2,0.0,0.0,-0.4,0.6,0.2,,,,,13.0,14.0,13.0,13.0,13.0,14.0,13.0,13.0,,,-10.0,1.7,,30.6,1.0,0.0,,,0.656,0.703,0.0,12.0,,,,,,2026-02-01-N890GF-SN35347-17.4.0.23677-FIRST-USER_LOG_DATA-PART_02.csv,,,,,,,55.4,53.6,,,,,55.4,57.2,55.4,55.4,55.4,57.2,55.4,55.4,,,53.6,0.0,55.4,1.0,0.9675090252707582,0.004416666666666667,0.506,242.6,True,2026-01-04 22:43:52 - Flight 17,
66.06,1.0,10.0,2026-01-04 22:44:58,37.0816,-121.59956,320.0,0.0,337.8,-12.6,,,,,0.0,11.1,0.2,241.2,0.0,299.0,-0.0,0.0,1.0,,-34.0,13.0,0.0,29.88,121.0,,,230.0,,,,,0.0,0.0,,,,,,,,,,,,,,,,,,,0.0,12.0,0.0,0.0,30.0,0.0,,0.0,30.5,,,38.2,0.0,0.0,-0.4,0.6,0.2,,,,,13.0,14.0,13.0,13.0,13.0,14.0,13.0,13.0,,,-10.0,1.5,,30.5,1.0,0.0,,,0.656,0.703,0.0,12.0,,,,,,2026-02-01-N890GF-SN35347-17.4.0.23677-FIRST-USER_LOG_DATA-PART_02.csv,,,,,,,55.4,53.6,,,,,55.4,57.2,55.4,55.4,55.4,57.2,55.4,55.4,,,53.6,0.0,55.4,1.0,0.9675090252707582,0.004416666666666667,0.506,242.6,True,2026-01-04 22:43:52 - Flight 17,
67.06,1.0,10.0,2026-01-04 22:44:59,37.0816,-121.59956,320.0,0.0,337.8,-12.6,,,,,0.0,11.1,0.2,241.2,0.0,299.0,-0.0,0.0,1.0,,-33.0,13.0,0.0,29.88,119.0,,,230.0,,,,,0.0,0.0,,,,,,,,,,,,,,,,,,,0.0,12.0,0.0,0.0,30.0,0.0,,0.0,30.4,,,38.2,0.0,0.0,-0.4,0.6,0.2,,,,,13.0,14.0,13.0,13.0,13.0,14.0,13.0,13.0,,,-10.0,1.4,,30.4,1.0,0.0,,,0.656,0.703,0.0,12.0,,,,,,2026-02-01-N890GF-SN35347-17.4.0.23677-FIRST-USER_LOG_DATA-PART_02.csv,,,,,,,55.4,53.6,,,,,55.4,57.2,55.4,55.4,55.4,57.2,55.4,55.4,,,53.6,0.0,55.4,1.0,0.9675090252707582,0.004416666666666667,0.506,242.6,True,2026-01-04 22:43:52 - Flight 17,
68.06,1.0,10.0,2026-01-04 22:45:00,37.0816,-121.59956,320.0,0.0,337.8,-12.6,,,,,0.0,11.1,0.2,241.2,0.0,299.0,-0.0,0.0,1.0,,-50.0,13.0,0.0,29.88,121.0,,,230.0,,,,,0.0,0.0,,,,,,,,,,,,,,,,,,,0.0,12.0,0.0,0.0,30.0,0.0,,0.0,30.3,,,38.2,0.0,0.0,-0.4,0.6,0.2,,,,,13.0,14.0,13.0,13.0,13.0,14.0,13.0,13.0,,,-10.0,1.3,,30.3,1.0,0.0,,,0.656,0.703,0.0,12.0,,,,,,2026-02-01-N890GF-SN35347-17.4.0.23677-FIRST-USER_LOG_DATA-PART_02.csv,,,,,,,55.4,53.6,,,,,55.4,57.2,55.4,55.4,55.4,57.2,55.4,55.4,,,53.6,0.0,55.4,1.0,0.9675090252707582,0.004416666666666667,0.506,242.6,True,2026-01-04 22:43:52 - Flight 17,
69.06,1.0,10.0,2026-01-04 22:45:01,37.0816,-121.59956,320.0,0.0,337.8,-12.6,,,,,0.0,11.1,0.2,241.3,0.0,299.0,0.0,0.0,1.0,,-25.0,13.0,0.0,29.88,121.0,,,230.0,,,,,0.0,0.0,,,,,,,,,,,,,,,,,,,0.0,12.0,0.0,0.0,30.0,0.0,,0.0,30.2,,,38.2,0.0,0.0,-0.4,0.6,0.2,,,,,13.0,14.0,13.0,13.0,13.0,14.0,13.0,13.0,,,-10.0,1.2,,30.2,1.0,0.0,,,0.656,0.703,0.0,12.0,,,,,,2026-02-01-N890GF-SN35347-17.4.0.23677-FIRST-USER_LOG_DATA-PART_02.csv,,,,,,,55.4,53.6,,,,,55.4,57.2,55.4,55.4,55.4,57.2,55.4,55.4,,,53.6,0.0,55.4,1.0,0.9675090252707582,0.004416666666666667,0.506,242.6,True,2026-01-04 22:43:52 - Flight 17,
70.06,1.0,10.0,2026-01-04 22:45:02,37.0816,-121.59956,321.0,0.0,337.8,-12.6,,,,,0.0,11.1,0.2,241.3,0.0,299.0,-0.0,0.0,1.0,,-20.0,13.0,0.0,29.88,121.0,,,230.0,,,,,0.0,0.0,,,,,,,,,,,,,,,,,,,0.0,12.0,0.0,0.0,30.0,0.0,,0.0,30.0,,,38.2,0.0,0.0,-0.4,0.6,0.2,,,,,13.0,14.0,13.0,13.0,13.0,14.0,13.0,13.0,,,-10.0,1.2,,30.0,1.0,0.0,,,0.656,0.703,0.0,12.0,,,,,,2026-02-01-N890GF-SN35347-17.4.0.23677-FIRST-USER_LOG_DATA-PART_02.csv,,,,,,,55.4,53.6,,,,,55.4,57.2,55.4,55.4,55.4,57.2,55.4,55.4,,,53.6,0.0,55.4,1.0,0.9675090252707582,0.004416666666666667,0.506,242.6,True,2026-01-04 22:43:52 - Flight 17,
71.06,1.0,10.0,2026-01-04 22:45:03,37.0816,-121.59956,321.0,0.0,337.8,-12.6,,,,,0.0,11.1,0.2,241.3,0.0,299.0,-0.0,0.0,1.0,,-37.0,13.0,0.0,29.88,121.0,,,230.0,,,,,0.0,0.0,,,,,,,,,,,,,,,,,,,0.0,12.0,0.0,0.0,30.0,0.0,,0.0,29.9,,,38.2,0.0,0.0,-0.4,0.6,0.2,,,,,13.0,14.0,13.0,14.0,13.0,14.0,13.0,14.0,,,-10.0,1.1,,29.9,1.0,0.0,,,0.656,0.703,0.0,12.0,,,,,,2026-02-01-N890GF-SN35347-17.4.0.23677-FIRST-USER_LOG_DATA-PART_02.csv,,,,,,,55.4,53.6,,,,,55.4,57.2,55.4,57.2,55.4,57.2,55.4,57.2,,,53.6,0.0,55.4,1.0,0.9675090252707582,0.004416666666666667,0.506,242.6,True,2026-01-04 22:43:52 - Flight 17,
72.06,1.0,10.0,2026-01-04 22:45:04,37.0816,-121.59956,321.0,0.0,337.8,-12.6,,,,,0.0,11.1,0.3,241.2,0.0,299.0,-0.0,0.0,1.0,,-45.0,13.0,0.0,29.88,121.0,,,230.0,,,,,0.0,0.0,,,,,,,,,,,,,,,,,,,0.0,12.0,0.0,0.0,30.0,0.0,,0.0,29.8,,,38.2,0.0,0.0,-0.4,0.6,0.2,,,,,13.0,14.0,13.0,13.0,13.0,14.0,13.0,13.0,,,-10.0,1.1,,29.8,1.0,0.0,,,0.656,0.703,0.0,12.0,,,,,,2026-02-01-N890GF-SN35347-17.4.0.23677-FIRST-USER_LOG_DATA-PART_02.csv,,,,,,,55.4,53.6,,,,,55.4,57.2,55.4,55.4,55.4,57.2,55.4,55.4,,,53.6,0.0,55.4,1.0,0.9675090252707582,0.004416666666666667,0.506,242.6,True,2026-01-04 22:43:52 - Flight 17,
73.06,1.0,10.0,2026-01-04 22:45:05,37.0816,-121.59956,322.0,0.1,337.8,-12.6,,,,,0.0,11.1,0.3,241.3,0.0,299.0,-0.0,0.0,1.0,,-37.0,13.0,0.0,29.88,121.0,,,230.0,,,,,0.0,0.0,,,,,,,,,,,,,,,,,,,0.0,12.0,0.0,0.0,30.0,0.0,,0.0,29.7,,,38.2,0.0,0.0,-0.4,0.6,0.2,,,,,13.0,14.0,13.0,13.0,13.0,14.0,13.0,13.0,,,-10.0,1.1,,29.7,1.0,0.0,,,0.656,0.703,0.0,12.0,,,,,,2026-02-01-N890GF-SN35347-17.4.0.23677-FIRST-USER_LOG_DATA-PART_02.csv,,,,,,,55.4,53.6,,,,,55.4,57.2,55.4,55.4,55.4,57.2,55.4,55.4,,,53.6,0.0,55.4,1.0,0.9675090252707582,0.004416666666666667,0.5903333333333334,242.6,True,2026-01-04 22:43:52 - Flight 17,
74.06,1.0,10.0,2026-01-04 22:45:06,37.0816,-121.59956,322.0,0.0,337.8,-12.6,,,,,0.0,11.2,0.3,241.3,0.0,299.0,-0.0,0.0,1.0,,-30.0,13.0,0.0,29.88,121.0,,,230.0,,,,,0.0,0.0,,,,,,,,,,,,,,,,,,,0.0,12.0,0.0,0.0,30.0,0.0,,0.0,29.6,,,38.2,0.0,0.0,-0.4,0.6,0.2,,,,,13.0,14.0,13.0,14.0,13.0,14.0,13.0,14.0,,,-10.0,1.0,,29.6,1.0,0.0,,,0.656,0.703,0.0,12.0,,,,,,2026-02-01-N890GF-SN35347-17.4.0.23677-FIRST-USER_LOG_DATA-PART_02.csv,,,,,,,55.4,53.6,,,,,55.4,57.2,55.4,57.2,55.4,57.2,55.4,57.2,,,53.6,0.0,55.4,1.0,0.9675090252707582,0.004416666666666667,0.6746666666666667,242.6,True,2026-01-04 22:43:52 - Flight 17,
75.06,1.0,10.0,2026-01-04 22:45:07,37.0816,-121.59956,322.0,0.1,337.8,-12.6,,,,,0.0,11.2,0.2,241.3,0.0,298.0,-0.0,0.0,1.0,,-31.0,13.0,0.0,29.88,121.0,,,230.0,,,,,0.0,0.0,,,,,,,,,,,,,,,,,,,0.0,12.0,0.0,0.0,30.0,0.0,,0.0,29.6,,,38.2,0.0,0.0,-0.4,0.6,0.2,,,,,13.0,14.0,13.0,14.0,13.0,14.0,13.0,14.0,,,-10.0,1.0,,29.6,1.0,0.0,,,0.656,0.703,0.0,12.0,,,,,,2026-02-01-N890GF-SN35347-17.4.0.23677-FIRST-USER_LOG_DATA-PART_02.csv,,,,,,,55.4,53.6,,,,,55.4,57.2,55.4,57.2,55.4,57.2,55.4,57.2,,,53.6,0.0,55.4,1.0,0.9675090252707582,0.004416666666666667,0.759,242.6,True,2026-01-04 22:43:52 - Flight 17,
76.06,1.0,10.0,2026-01-04 22:45:08,37.0816,-121.59956,323.0,0.0,337.8,-12.6,,,,,0.0,11.2,0.2,241.4,0.0,298.0,-0.0,0.0,1.0,,-38.0,13.0,0.0,29.88,121.0,,,230.0,,,,,0.0,0.0,,,,,,,,,,,,,,,,,,,0.0,12.0,0.0,0.0,30.0,0.0,,0.0,29.5,,,38.2,0.0,0.0,-0.4,0.6,0.2,,,,,13.0,14.0,13.0,14.0,13.0,14.0,13.0,14.0,,,-10.0,1.0,,29.5,1.0,0.0,,,0.656,0.703,0.0,12.0,,,,,,2026-02-01-N890GF-SN35347-17.4.0.23677-FIRST-USER_LOG_DATA-PART_02.csv,,,,,,,55.4,53.6,,,,,55.4,57.2,55.4,57.2,55.4,57.2,55.4,57.2,,,53.6,0.0,55.4,1.0,0.9675090252707582,0.004416666666666667,0.8433333333333334,242.6,True,2026-01-04 22:43:52 - Flight 17,
77.06,1.0,10.0,2026-01-04 22:45:09,37.0816,-121.59956,323.0,0.0,337.8,-12.6,,,,,0.0,11.2,0.2,241.4,0.0,298.0,-0.0,0.0,1.0,,-35.0,13.0,0.0,29.88,128.0,,,230.0,,,,,0.0,0.0,,,,,,,,,,,,,,,,,,,0.0,12.0,0.0,0.0,30.0,0.0,,0.0,29.4,,,38.2,0.0,0.0,-0.4,0.6,0.2,,,,,13.0,14.0,13.0,14.0,13.0,14.0,13.0,14.0,,,-10.0,1.0,,29.4,1.0,0.0,,,0.656,0.703,0.0,12.0,,,,,,2026-02-01-N890GF-SN35347-17.4.0.23677-FIRST-USER_LOG_DATA-PART_02.csv,,,,,,,55.4,53.6,,,,,55.4,57.2,55.4,57.2,55.4,57.2,55.4,57.2,,,53.6,0.0,55.4,1.0,0.9675090252707582,0.004416666666666667,0.8433333333333334,242.6,True,2026-01-04 22:43:52 - Flight 17,
78.06,1.0,10.0,2026-01-04 22:45:10,37.0816,-121.59956,324.0,0.0,337.8,-12.6,,,,,0.0,11.2,0.2,241.4,0.0,297.0,-0.0,0.01,1.0,,-24.0,13.0,0.0,29.88,127.0,,,230.0,,,,,0.0,0.0,,,,,,,,,,,,,,,,,,,0.0,12.0,0.0,0.0,30.0,0.0,,0.0,29.3,,,38.2,0.0,0.0,-0.4,0.6,0.2,,,,,13.0,14.0,13.0,14.0,13.0,14.0,13.0,14.0,,,-10.0,1.0,,29.3,1.0,0.0,,,0.656,0.703,0.0,12.0,,,,,,2026-02-01-N890GF-SN35347-17.4.0.23677-FIRST-USER_LOG_DATA-PART_02.csv,,,,,,,55.4,53.6,,,,,55.4,57.2,55.4,57.2,55.4,57.2,55.4,57.2,,,53.6,0.0,55.4,1.0,0.9675090252707582,0.004416666666666667,0.8433333333333334,242.6,True,2026-01-04 22:43:52 - Flight 17,
79.06,1.0,10.0,2026-01-04 22:45:11,37.0816,-121.59956,324.0,0.0,337.8,-12.6,,,,,0.0,11.2,0.2,241.4,0.0,297.0,0.0,0.0,1.0,,-7.0,13.0,0.0,29.88,127.0,,,230.0,,,,,0.0,0.0,,,,,,,,,,,,,,,,,,,0.0,12.0,0.0,0.0,30.0,0.0,,0.0,29.2,,,38.2,0.0,0.0,-0.4,0.6,0.2,,,,,13.0,14.0,13.0,14.0,13.0,14.0,13.0,14.0,,,-10.0,1.0,,29.2,1.0,0.0,,,0.656,0.703,0.0,12.1,,,,,,2026-02-01-N890GF-SN35347-17.4.0.23677-FIRST-USER_LOG_DATA-PART_02.csv,,,,,,,55.4,53.6,,,,,55.4,57.2,55.4,57.2,55.4,57.2,55.4,57.2,,,53.78,0.0,55.4,1.0,0.9675090252707582,0.004416666666666667,0.8433333333333334,242.6,True,2026-01-04 22:43:52 - Flight 17,
80.06,1.0,10.0,2026-01-04 22:45:12,37.0816,-121.59956,324.0,0.0,337.8,-12.6,,,,,0.0,11.2,0.2,241.4,0.0,297.0,0.0,0.0,1.0,,22.0,13.0,0.0,29.88,127.0,,,230.0,,,,,0.0,0.0,,,,,,,,,,,,,,,,,,,0.0,12.0,0.0,0.0,30.0,0.0,,0.0,29.1,,,38.2,0.0,0.0,-0.4,0.6,0.2,,,,,13.0,14.0,13.0,14.0,13.0,14.0,13.0,14.0,,,-10.0,1.0,,29.1,1.0,0.0,,,0.656,0.703,0.0,12.1,,,,,,2026-02-01-N890GF-SN35347-17.4.0.23677-FIRST-USER_LOG_DATA-PART_02.csv,,,,,,,55.4,53.6,,,,,55.4,57.2,55.4,57.2,55.4,57.2,55.4,57.2,,,53.78,0.0,55.4,1.0,0.9675090252707582,0.004416666666666667,0.8433333333333334,242.6,True,2026-01-04 22:43:52 - Flight 17,
81.06,1.0,10.0,2026-01-04 22:45:13,37.0816,-121.59956,325.0,0.0,337.8,-12.6,,,,,0.0,11.2,0.3,241.4,0.0,297.0,-0.0,0.0,1.0,,40.0,13.0,0.0,29.88,127.0,,,230.0,,,,,0.0,0.0,,,,,,,,,,,,,,,,,,,0.0,12.0,0.0,0.0,30.0,0.0,,0.0,29.0,,,38.2,0.0,0.0,-0.4,0.6,0.2,,,,,13.0,14.0,13.0,14.0,13.0,14.0,13.0,14.0,,,-10.0,1.0,,29.0,1.0,0.0,,,0.656,0.703,0.0,12.0,,,,,,2026-02-01-N890GF-SN35347-17.4.0.23677-FIRST-USER_LOG_DATA-PART_02.csv,,,,,,,55.4,53.6,,,,,55.4,57.2,55.4,57.2,55.4,57.2,55.4,57.2,,,53.6,0.0,55.4,1.0,0.9675090252707582,0.004416666666666667,0.8433333333333334,242.6,True,2026-01-04 22:43:52 - Flight 17,
82.06,2.0,10.0,2026-01-04 22:45:14,37.08161,-121.59956,325.0,0.0,337.8,-12.6,,,,,0.0,11.2,0.3,241.5,0.0,297.0,-0.0,0.01,1.0,,15.0,13.0,0.0,29.88,127.0,,,230.0,,,,,0.0,0.0,,,,,,,,,,,,,,,,,,,0.0,11.0,193.0,193.0,29.9,0.0,,0.0,29.1,,,38.2,0.0,0.0,-0.4,0.6,0.2,,,,,10.0,12.0,10.0,10.0,10.0,10.0,10.0,10.0,,,-10.0,1.0,,29.1,1.0,0.0,,,0.656,0.702,0.0,10.6,,,,,,2026-02-01-N890GF-SN35347-17.4.0.23677-FIRST-USER_LOG_DATA-PART_02.csv,,,,,,,55.4,51.8,,,,,50.0,53.6,50.0,50.0,50.0,50.0,50.0,50.0,,,51.08,193.0,50.0,0.9025270758122744,0.9350180505415162,0.004416666666666667,0.8433333333333334,242.6,True,2026-01-04 22:43:52 - Flight 17,
83.06,2.0,10.0,2026-01-04 22:45:15,37.08161,-121.59956,326.0,0.0,337.8,-12.6,,,,,0.0,11.1,0.3,241.5,0.0,297.0,0.0,0.0,1.0,,12.0,13.0,0.0,29.88,127.0,,,230.0,,,,,0.0,0.0,,,,,,,,,,,,,,,,,,,1.0,12.0,840.0,840.0,22.8,0.9,,0.9,23.3,,,38.2,0.0,0.0,-0.5,0.6,0.2,,,,,13.0,42.0,12.0,37.0,13.0,32.0,12.0,34.0,,,-10.0,1.0,,23.3,1.0,0.0,,,0.665,0.703,0.6,11.8,,,,,,2026-02-01-N890GF-SN35347-17.4.0.23677-FIRST-USER_LOG_DATA-PART_02.csv,,,,,,,55.4,53.6,,,,,55.4,107.6,53.6,98.6,55.4,89.6,53.6,93.2,,,53.24,840.0,54.5,0.983754512635379,0.9675090252707582,0.004541666666666667,0.8433333333333334,242.6,True,2026-01-04 22:43:52 - Flight 17,
84.06,2.0,10.0,2026-01-04 22:45:16,37.08161,-121.59956,326.0,0.1,337.8,-12.6,,,,,0.0,11.2,0.3,241.5,0.0,297.0,0.0,0.0,1.0,,78.0,13.0,0.0,29.88,129.0,,,230.0,,,,,0.0,0.0,,,,,,,,,,,,,,,,,,,3.0,12.0,988.0,988.0,17.5,1.7,,1.7,23.4,,,38.2,0.0,0.0,-0.4,0.6,0.2,,,,,14.0,95.0,13.0,63.0,13.0,71.0,13.0,65.0,,,-10.0,1.0,,23.4,1.0,0.0,,,0.659,0.703,2.6,12.1,,,,,,2026-02-01-N890GF-SN35347-17.4.0.23677-FIRST-USER_LOG_DATA-PART_02.csv,,,,,,,55.4,53.6,,,,,57.2,203.0,55.4,145.4,55.4,159.8,55.4,149.0,,,53.78,988.0,55.849999999999994,1.0081227436823104,0.9675090252707582,0.004902777777777778,0.9276666666666666,242.6,True,2026-01-04 22:43:52 - Flight 17,
85.06,2.0,10.0,2026-01-04 22:45:17,37.08161,-121.59956,326.0,0.1,337.8,-12.6,,,,,0.0,11.2,0.3,241.5,0.0,297.0,-0.0,0.01,1.0,,38.0,13.0,0.0,29.88,129.0,,,230.0,,,,,0.0,0.0,,,,,,,,,,,,,,,,,,,5.0,12.0,1020.0,1020.0,16.4,2.3,,2.3,23.8,,,38.2,0.0,0.0,-0.4,0.6,0.2,,,,,14.0,150.0,13.0,85.0,14.0,109.0,14.0,94.0,,,-10.0,1.0,,23.8,1.0,0.0,,,0.662,0.703,5.4,12.1,,,,,,2026-02-01-N890GF-SN35347-17.4.0.23677-FIRST-USER_LOG_DATA-PART_02.csv,,,,,,,55.4,53.6,,,,,57.2,302.0,55.4,185.0,57.2,228.2,57.2,201.2,,,53.78,1020.0,56.75,1.0243682310469315,0.9675090252707582,0.005458333333333333,1.0963333333333334,242.6,True,2026-01-04 22:43:52 - Flight 17,
86.06,2.0,10.0,2026-01-04 22:45:18,37.08161,-121.59956,326.0,0.0,337.8,-12.6,,,,,0.0,11.2,0.4,241.5,0.0,297.0,-0.0,0.01,1.0,,8.0,13.0,0.0,29.88,129.0,,,230.0,,,,,0.0,0.0,,,,,,,,,,,,,,,,,,,9.0,12.0,1039.0,1039.0,16.0,2.7,,2.7,24.0,,,38.2,0.0,0.0,-0.4,0.6,0.2,,,,,15.0,196.0,14.0,110.0,14.0,142.0,15.0,123.0,,,-10.0,1.0,,24.0,1.0,0.0,,,0.659,0.703,9.0,12.1,,,,,,2026-02-01-N890GF-SN35347-17.4.0.23677-FIRST-USER_LOG_DATA-PART_02.csv,,,,,,,55.4,53.6,,,,,59.0,384.8,57.2,230.0,57.2,287.6,59.0,253.4,,,53.78,1039.0,58.1,1.0487364620938628,0.9675090252707582,0.006152777777777778,1.1806666666666668,242.6,True,2026-01-04 22:43:52 - Flight 17,
87.06,2.0,10.0,2026-01-04 22:45:19,37.0816,-121.59956,336.0,0.1,337.8,-12.6,,,,,0.0,11.2,0.3,241.4,0.0,297.0,-0.0,0.0,1.0,,-5.0,13.0,0.0,29.88,129.0,,,230.0,,,,,0.0,0.0,,,,,,,,,,,,,,,,,,,14.0,12.0,1071.0,1071.0,15.7,2.9,,2.9,24.1,,,38.2,0.0,0.0,-0.4,0.6,0.2,,,,,15.0,237.0,14.0,137.0,15.0,173.0,16.0,149.0,,,-10.0,0.0,,24.1,1.0,0.0,,,0.662,0.703,13.7,12.1,,,,,,2026-02-01-N890GF-SN35347-17.4.0.23677-FIRST-USER_LOG_DATA-PART_02.csv,,,,,,,55.4,53.6,,,,,59.0,458.6,57.2,278.6,59.0,343.4,60.8,300.2,,,53.78,1071.0,59.0,1.0649819494584838,0.9675090252707582,0.006930555555555555,1.2650000000000001,242.6,True,2026-01-04 22:43:52 - Flight 17,
88.06,2.0,10.0,2026-01-04 22:45:20,37.0816,-121.59956,336.0,0.0,337.8,-12.6,,,,,0.0,11.2,0.4,241.4,0.0,297.0,-0.0,0.0,0.9,,-9.0,13.0,0.0,29.88,129.0,,,230.0,,,,,0.0,0.0,,,,,,,,,,,,,,,,,,,20.0,12.0,1125.0,1125.0,15.2,3.1,,3.1,24.3,,,38.2,0.0,0.0,-0.4,0.6,0.2,,,,,16.0,270.0,15.0,173.0,15.0,202.0,17.0,174.0,,,-10.0,0.0,,24.3,1.0,0.0,,,0.658,0.703,19.9,12.1,,,,,,2026-02-01-N890GF-SN35347-17.4.0.23677-FIRST-USER_LOG_DATA-PART_02.csv,,,,,,,55.4,53.6,,,,,60.8,518.0,59.0,343.4,59.0,395.6,62.6,345.2,,,53.78,1125.0,60.349999999999994,1.089350180505415,0.9675090252707582,0.007763888888888889,1.3493333333333333,242.6,True,2026-01-04 22:43:52 - Flight 17,
89.06,2.0,10.0,2026-01-04 22:45:21,37.0816,-121.59957,334.0,0.0,337.8,-12.6,,,,,0.0,11.1,0.4,241.4,0.0,297.0,-0.0,0.01,1.0,,2.0,13.0,0.0,29.88,129.0,,,230.0,,,,,0.0,0.0,,,,,,,,,,,,,,,,,,,28.0,12.0,1152.0,1152.0,14.8,3.2,,3.2,24.4,,,38.2,0.0,0.0,-0.4,0.6,0.2,,,,,16.0,300.0,15.0,204.0,16.0,229.0,17.0,198.0,,,-10.0,0.0,,24.4,2.0,0.0,,,0.662,0.703,28.1,12.1,,,,,,2026-02-01-N890GF-SN35347-17.4.0.23677-FIRST-USER_LOG_DATA-PART_02.csv,,,,,,,55.4,53.6,,,,,60.8,572.0,59.0,399.2,60.8,444.2,62.6,388.4,,,53.78,1152.0,60.8,1.0974729241877257,0.9675090252707582,0.008638888888888889,1.3493333333333333,242.6,True,2026-01-04 22:43:52 - Flight 17,
90.06,2.0,10.0,2026-01-04 22:45:22,37.0816,-121.59957,333.0,0.0,337.8,-12.6,,,,,0.0,11.1,0.4,241.4,0.0,297.0,-0.0,0.0,1.0,,34.0,13.0,0.0,29.88,129.0,,,230.0,,,,,0.0,0.0,,,,,,,,,,,,,,,,,,,38.0,12.0,1152.0,1152.0,14.3,3.3,,3.3,24.6,,,38.2,0.0,0.0,-0.4,0.6,0.2,,,,,16.0,327.0,15.0,231.0,16.0,255.0,18.0,221.0,,,-10.0,0.0,,24.6,1.0,0.0,,,0.663,0.703,38.3,12.1,,,,,,2026-02-01-N890GF-SN35347-17.4.0.23677-FIRST-USER_LOG_DATA-PART_02.csv,,,,,,,55.4,53.6,,,,,60.8,620.6,59.0,447.8,60.8,491.0,64.4,429.8,,,53.78,1152.0,61.25,1.105595667870036,0.9675090252707582,0.009541666666666667,1.3493333333333333,242.6,True,2026-01-04 22:43:52 - Flight 17,
91.06,2.0,10.0,2026-01-04 22:45:23,37.0816,-121.59957,332.0,0.0,337.8,-12.6,,,,,0.0,11.1,0.4,241.3,0.0,297.0,-0.0,0.01,1.0,,41.0,13.0,0.0,29.88,129.0,,,230.0,,,,,0.0,0.0,,,,,,,,,,,,,,,,,,,49.0,12.0,1120.0,1120.0,13.9,3.3,,3.3,24.8,,,38.2,0.0,0.0,-0.4,0.6,0.2,,,,,17.0,348.0,16.0,255.0,17.0,279.0,18.0,242.0,,,-10.0,0.0,,24.8,1.0,0.0,,,0.66,0.703,49.3,12.2,,,,,,2026-02-01-N890GF-SN35347-17.4.0.23677-FIRST-USER_LOG_DATA-PART_02.csv,,,,,,,55.4,53.6,,,,,62.6,658.4,60.8,491.0,62.6,534.2,64.4,467.6,,,53.96,1120.0,62.6,1.1299638989169676,0.9675090252707582,0.010458333333333333,1.3493333333333333,242.6,True,2026-01-04 22:43:52 - Flight 17,
92.06,2.0,10.0,2026-01-04 22:45:24,37.0816,-121.59957,332.0,0.0,337.8,-12.6,,,,,0.0,11.1,0.4,241.3,0.0,297.0,-0.0,0.0,1.0,,60.0,13.0,0.0,29.88,129.0,,,230.0,,,,,0.0,0.0,,,,,,,,,,,,,,,,,,,59.0,12.0,1112.0,1112.0,13.7,3.3,,3.3,24.9,,,38.2,0.0,0.0,-0.4,0.6,0.2,,,,,17.0,367.0,16.0,278.0,17.0,300.0,19.0,261.0,,,-10.0,0.0,,24.9,2.0,0.0,,,0.657,0.703,59.3,12.2,,,,,,2026-02-01-N890GF-SN35347-17.4.0.23677-FIRST-USER_LOG_DATA-PART_02.csv,,,,,,,55.4,53.6,,,,,62.6,692.6,60.8,532.4,62.6,572.0,66.2,501.8,,,53.96,1112.0,63.050000000000004,1.1380866425992782,0.9675090252707582,0.011375,1.3493333333333333,242.6,True,2026-01-04 22:43:52 - Flight 17,
93.06,2.0,10.0,2026-01-04 22:45:25,37.0816,-121.59957,331.0,0.0,337.8,-12.6,,,,,0.0,11.1,0.4,241.3,0.0,297.0,-0.0,0.0,1.0,,63.0,13.0,0.0,29.88,129.0,,,230.0,,,,,0.0,0.0,,,,,,,,,,,,,,,,,,,67.0,12.0,1086.0,1086.0,13.4,3.2,,3.2,25.0,,,38.2,0.0,0.0,-0.4,0.6,0.2,,,,,18.0,383.0,17.0,298.0,18.0,320.0,19.0,279.0,,,-10.0,0.0,,25.0,1.0,0.0,,,0.654,0.703,66.6,12.2,,,,,,2026-02-01-N890GF-SN35347-17.4.0.23677-FIRST-USER_LOG_DATA-PART_02.csv,,,,,,,55.4,53.6,,,,,64.4,721.4,62.6,568.4,64.4,608.0,66.2,534.2,,,53.96,1086.0,64.4,1.1624548736462095,0.9675090252707582,0.012277777777777778,1.3493333333333333,242.6,True,2026-01-04 22:43:52 - Flight 17,
94.06,2.0,10.0,2026-01-04 22:45:26,37.0816,-121.59957,331.0,0.0,337.8,-12.6,,,,,0.0,11.2,0.4,241.4,0.0,297.0,0.0,-0.0,0.9,,28.0,13.0,0.0,29.88,129.0,,,230.0,,,,,0.0,0.0,,,,,,,,,,,,,,,,,,,71.0,12.0,1067.0,1067.0,13.3,3.2,,3.2,25.0,,,38.2,0.0,0.0,-0.4,0.6,0.2,,,,,18.0,397.0,17.0,316.0,18.0,338.0,20.0,295.0,,,-10.0,0.0,,25.0,1.0,0.0,,,0.656,0.703,71.0,12.2,,,,,,2026-02-01-N890GF-SN35347-17.4.0.23677-FIRST-USER_LOG_DATA-PART_02.csv,,,,,,,55.4,53.6,,,,,64.4,746.6,62.6,600.8,64.4,640.4,68.0,563.0,,,53.96,1067.0,64.85,1.1705776173285198,0.9675090252707582,0.013166666666666667,1.3493333333333333,242.6,True,2026-01-04 22:43:52 - Flight 17,
95.06,2.0,10.0,2026-01-04 22:45:27,37.0816,-121.59957,332.0,0.0,337.8,-12.6,,,,,0.0,11.1,0.4,241.4,0.0,297.0,-0.0,0.0,1.0,,39.0,13.0,0.0,29.88,129.0,,,230.0,,,,,0.0,0.0,,,,,,,,,,,,,,,,,,,73.0,12.0,1044.0,1044.0,13.3,3.1,,3.1,25.1,,,38.2,0.0,0.0,-0.4,0.6,0.2,,,,,19.0,409.0,18.0,332.0,19.0,352.0,21.0,310.0,,,-10.0,0.0,,25.1,1.0,0.0,,,0.657,0.703,73.2,12.2,,,,,,2026-02-01-N890GF-SN35347-17.4.0.23677-FIRST-USER_LOG_DATA-PART_02.csv,,,,,,,55.4,53.6,,,,,66.2,768.2,64.4,629.6,66.2,665.6,69.8,590.0,,,53.96,1044.0,66.65,1.203068592057762,0.9675090252707582,0.014041666666666666,1.3493333333333333,242.6,True,2026-01-04 22:43:52 - Flight 17,
