Session Time,GPS Fix Quality,Number of Satellites,GPS Date & Time,Latitude (deg),Longitude (deg),GPS Altitude (feet),Ground Speed (knots),Ground Track (deg),Mag Var (deg),Cross Track Error (NM),Destination Waypoint ID,Range to Destination (NM),Bearing to Destination (deg),System Time,Pitch (deg),Roll (deg),Magnetic Heading (deg),Indicated Airspeed (knots),Pressure Altitude (ft),Turn Rate (deg/s),Lateral Accel (g),Vertical Accel(g),Angle of Attack (%),Vertical Speed (ft/min),OAT (deg C),True Airspeed (knots),Barometer Setting (inHg),Density Altitude (ft),Wind Direction (deg),Wind Speed (knots),Heading Bug (deg),Altitude Bug (ft),Airspeed Bug (knots),Vertical Speed Bug (ft/min),Course (deg),CDI Source Type,CDI Source Port,CDI Scale (NM),CDI Deflection (%),Glideslope (%),AP Engaged,AP Roll Mode,AP Roll Force,AP Roll Position (steps),AP Roll Slip (bool),AP Pitch Force,AP Pitch Position (steps),AP Pitch Slip (bool),AP Yaw Force,AP Yaw Position,AP Yaw Slip (bool),Transponder Status,Transponder Reply (bool),Transponder Identing (bool),Transponder Code (octal),Oil Pressure (PSI),Oil Temp (deg C),RPM L,RPM R,Manifold Pressure (inHg),Fuel Flow 1 (gal/hr),Fuel Flow 2 (gal/hr),Total Fuel Flow (gal/hr),Fuel Pressure (PSI),Fuel Level L (gal),Fuel Level R (gal),Fuel Remaining (gal),Volts 1,Volts 2,Amps,Hobbs Time,Tach Time,Thermocouple 1 (deg C),Thermocouple 2 (deg C),Thermocouple 3 (deg C),Thermocouple 4 (deg C),CHT 4 (deg C),EGT 4 (deg C),CHT 3 (deg C),EGT 3 (deg C),CHT 2 (deg C),EGT 2 (deg C),CHT 1 (deg C),EGT 1 (deg C),Thermocouple 13 (deg C),Thermocouple 14 (deg C),ELEV POSITION (%),CO PPM PRESSURE (PSI),GP Input 3,FUEL PRESSURE (PSI),AILERN POSITION (%),CANOPY CONTACT (V),GP Input 7,GP Input 8,LEFT LEVEL (Sensor V),RIGHT LEVEL (Sensor V),OIL PRESSURE (PSI),OIL TEMPERATURE (deg C),GP Input 13,Contacts,Percent Power,EGT Leaning State,Unnamed: 103,source_file,Unnamed: 0,press_alt,ias,hdg,gps_gs,gps_trk,OAT (deg F),Oil Temp (deg F),Thermocouple 1 (deg F),Thermocouple 2 (deg F),Thermocouple 3 (deg F),Thermocouple 4 (deg F),CHT 4 (deg F),EGT 4 (deg F),CHT 3 (deg F),EGT 3 (deg F),CHT 2 (deg F),EGT 2 (deg F),CHT 1 (deg F),EGT 1 (deg F),Thermocouple 13 (deg F),Thermocouple 14 (deg F),OIL TEMPERATURE (deg F),RPM,AVG_CHT,CHT_OAT_Ratio,OIL_OAT_Ratio,Fuel Flow Integral,Distance Traveled,Max CHT,Engine Run,Flight ID,efficiency
4.06,1.0,8.0,2026-02-20 23:42:49,37.08155,-121.59954,358.0,0.0,160.9,-12.6,,,,,0.0,11.0,-0.9,59.0,0.0,182.0,-0.0,-0.02,+1.0,,-112.0,14.0,0.0,30.11,91.0,,,326.0,,,,,0.0,0.0,,,,,,,,,,,,,,,,,,,0.0,11.0,0.0,0.0,30.1,0.0,,0.0,0.0,,,35.3,0.0,0.0,-0.2,1.6,0.7,,,,,12.0,12.0,12.0,12.0,12.0,12.0,12.0,13.0,,,13.0,254.5,,0.0,-10.0,4.998,,,0.663,0.792,0.0,11.5,,,,,,2026-02-21-N890GF-SN35347-17.4.0.23677-REAL_FLITE-USER_LOG_DATA.csv,,,,,,,57.2,51.8,,,,,53.6,53.6,53.6,53.6,53.6,53.6,53.6,55.4,,,52.7,0.0,53.6,0.9370629370629371,0.9055944055944055,0.0,0.0,420.8,True,2026-02-20 23:42:49 - Flight 6,
5.06,1.0,8.0,2026-02-20 23:42:49,37.08155,-121.59955,331.0,0.0,160.9,-12.6,,,,,0.0,11.0,-1.0,58.9,0.0,180.0,-0.1,-0.02,+1.0,,-115.0,14.0,0.0,30.11,91.0,,,326.0,,,,,0.0,0.0,,,,,,,,,,,,,,,,,,,0.0,11.0,0.0,0.0,30.1,0.0,,0.0,0.0,,,35.3,0.0,0.0,-0.2,1.6,0.7,,,,,12.0,12.0,12.0,12.0,12.0,12.0,12.0,13.0,,,13.0,254.5,,0.0,-10.0,4.998,,,0.663,0.792,0.0,11.4,,,,,,2026-02-21-N890GF-SN35347-17.4.0.23677-REAL_FLITE-USER_LOG_DATA.csv,,,,,,,57.2,51.8,,,,,53.6,53.6,53.6,53.6,53.6,53.6,53.6,55.4,,,52.52,0.0,53.6,0.9370629370629371,0.9055944055944055,0.0,0.0,420.8,True,2026-02-20 23:42:49 - Flight 6,
6.06,1.0,8.0,2026-02-20 23:42:50,37.08155,-121.59955,333.0,0.0,160.9,-12.6,,,,,0.0,11.0,-1.0,58.9,0.0,178.0,-0.0,-0.02,+1.0,,-121.0,14.0,0.0,30.11,91.0,,,326.0,,,,,0.0,0.0,,,,,,,,,,,,,,,,,,,0.0,11.0,0.0,0.0,30.1,0.0,,0.0,0.0,,,35.3,0.0,0.0,-0.2,1.6,0.7,,,,,12.0,12.0,12.0,12.0,12.0,12.0,12.0,13.0,,,13.0,254.5,,0.0,-10.0,4.998,,,0.663,0.792,0.0,11.4,,,,,,2026-02-21-N890GF-SN35347-17.4.0.23677-REAL_FLITE-USER_LOG_DATA.csv,,,,,,,57.2,51.8,,,,,53.6,53.6,53.6,53.6,53.6,53.6,53.6,55.4,,,52.52,0.0,53.6,0.9370629370629371,0.9055944055944055,0.0,0.0,420.8,True,2026-02-20 23:42:49 - Flight 6,
7.06,1.0,8.0,2026-02-20 23:42:51,37.08155,-121.59955,333.0,0.0,160.9,-12.6,,,,,0.0,11.1,-0.9,59.0,0.0,176.0,0.0,-0.02,+1.0,,-122.0,14.0,0.0,30.11,89.0,,,326.0,,,,,0.0,0.0,,,,,,,,,,,,,,,,,,,0.0,11.0,0.0,0.0,30.1,0.0,,0.0,0.0,,,35.3,0.0,0.0,-0.2,1.6,0.7,,,,,12.0,12.0,12.0,12.0,12.0,12.0,12.0,13.0,,,13.0,254.5,,0.0,-10.0,4.998,,,0.663,0.792,0.0,11.4,,,,,,2026-02-21-N890GF-SN35347-17.4.0.23677-REAL_FLITE-USER_LOG_DATA.csv,,,,,,,57.2,51.8,,,,,53.6,53.6,53.6,53.6,53.6,53.6,53.6,55.4,,,52.52,0.0,53.6,0.9370629370629371,0.9055944055944055,0.0,0.0,420.8,True,2026-02-20 23:42:49 - Flight 6,
8.06,1.0,8.0,2026-02-20 23:42:52,37.08155,-121.59955,334.0,0.0,160.9,-12.6,,,,,0.0,11.1,-0.9,59.0,0.0,176.0,-0.0,-0.02,+1.0,,-87.0,14.0,0.0,30.11,89.0,,,326.0,,,,,0.0,0.0,,,,,,,,,,,,,,,,,,,0.0,11.0,0.0,0.0,30.1,0.0,,0.0,0.0,,,35.3,0.0,0.0,-0.2,1.6,0.7,,,,,12.0,12.0,12.0,12.0,12.0,12.0,12.0,13.0,,,13.0,254.5,,0.0,-10.0,4.998,,,0.663,0.792,0.0,11.4,,,,,,2026-02-21-N890GF-SN35347-17.4.0.23677-REAL_FLITE-USER_LOG_DATA.csv,,,,,,,57.2,51.8,,,,,53.6,53.6,53.6,53.6,53.6,53.6,53.6,55.4,,,52.52,0.0,53.6,0.9370629370629371,0.9055944055944055,0.0,0.0,420.8,True,2026-02-20 23:42:49 - Flight 6,
9.06,1.0,8.0,2026-02-20 23:42:53,37.08155,-121.59955,334.0,0.0,160.9,-12.6,,,,,0.0,11.1,-0.9,59.0,0.0,174.0,-0.0,-0.02,+1.0,,-82.0,14.0,0.0,30.11,87.0,,,326.0,,,,,0.0,0.0,,,,,,,,,,,,,,,,,,,0.0,11.0,0.0,0.0,30.1,0.0,,0.0,0.0,,,35.3,0.0,0.0,-0.2,1.6,0.7,,,,,12.0,12.0,12.0,12.0,12.0,12.0,12.0,13.0,,,13.0,254.5,,0.0,-10.0,4.998,,,0.663,0.792,0.0,11.4,,,,,,2026-02-21-N890GF-SN35347-17.4.0.23677-REAL_FLITE-USER_LOG_DATA.csv,,,,,,,57.2,51.8,,,,,53.6,53.6,53.6,53.6,53.6,53.6,53.6,55.4,,,52.52,0.0,53.6,0.9370629370629371,0.9055944055944055,0.0,0.0,420.8,True,2026-02-20 23:42:49 - Flight 6,
10.06,1.0,8.0,2026-02-20 23:42:54,37.08155,-121.59955,334.0,0.0,160.9,-12.6,,,,,0.0,11.0,-0.9,59.0,0.0,174.0,-0.0,-0.02,+1.0,,-45.0,14.0,0.0,30.11,87.0,,,326.0,,,,,0.0,0.0,,,,,,,,,,,,,,,,,,,0.0,11.0,0.0,0.0,30.1,0.0,,0.0,0.0,,,35.3,0.0,0.0,-0.2,1.6,0.7,,,,,12.0,12.0,12.0,12.0,12.0,12.0,12.0,13.0,,,13.0,254.5,,0.0,-10.0,4.998,,,0.663,0.792,0.0,11.4,,,,,,2026-02-21-N890GF-SN35347-17.4.0.23677-REAL_FLITE-USER_LOG_DATA.csv,,,,,,,57.2,51.8,,,,,53.6,53.6,53.6,53.6,53.6,53.6,53.6,55.4,,,52.52,0.0,53.6,0.9370629370629371,0.9055944055944055,0.0,0.0,420.8,True,2026-02-20 23:42:49 - Flight 6,
11.06,1.0,8.0,2026-02-20 23:42:55,37.08155,-121.59955,334.0,0.0,160.9,-12.6,,,,,0.0,11.0,-0.9,58.9,0.0,174.0,-0.0,-0.02,+1.0,,-21.0,14.0,0.0,30.11,87.0,,,326.0,,,,,0.0,0.0,,,,,,,,,,,,,,,,,,,0.0,11.0,0.0,0.0,30.1,0.0,,0.0,0.0,,,35.3,0.0,0.0,-0.2,1.6,0.7,,,,,12.0,12.0,12.0,12.0,12.0,12.0,12.0,13.0,,,13.0,254.5,,0.0,-10.0,4.998,,,0.663,0.792,0.0,11.4,,,,,,2026-02-21-N890GF-SN35347-17.4.0.23677-REAL_FLITE-USER_LOG_DATA.csv,,,,,,,57.2,51.8,,,,,53.6,53.6,53.6,53.6,53.6,53.6,53.6,55.4,,,52.52,0.0,53.6,0.9370629370629371,0.9055944055944055,0.0,0.0,420.8,True,2026-02-20 23:42:49 - Flight 6,
12.06,1.0,8.0,2026-02-20 23:42:56,37.08155,-121.59956,334.0,0.0,160.9,-12.6,,,,,0.0,11.1,-0.9,58.9,0.0,172.0,-0.0,-0.02,+1.0,,-42.0,14.0,0.0,30.11,86.0,,,326.0,,,,,0.0,0.0,,,,,,,,,,,,,,,,,,,0.0,11.0,0.0,0.0,30.1,0.0,,0.0,0.0,,,35.3,0.0,0.0,-0.2,1.6,0.7,,,,,12.0,12.0,12.0,12.0,12.0,12.0,12.0,13.0,,,13.0,254.5,,0.0,-10.0,4.998,,,0.663,0.792,0.0,11.4,,,,,,2026-02-21-N890GF-SN35347-17.4.0.23677-REAL_FLITE-USER_LOG_DATA.csv,,,,,,,57.2,51.8,,,,,53.6,53.6,53.6,53.6,53.6,53.6,53.6,55.4,,,52.52,0.0,53.6,0.9370629370629371,0.9055944055944055,0.0,0.0,420.8,True,2026-02-20 23:42:49 - Flight 6,
13.06,1.0,8.0,2026-02-20 23:42:57,37.08155,-121.59956,334.0,0.0,160.9,-12.6,,,,,0.0,11.1,-0.9,58.9,0.0,170.0,-0.0,-0.02,+1.0,,-65.0,14.0,0.0,30.11,86.0,,,326.0,,,,,0.0,0.0,,,,,,,,,,,,,,,,,,,0.0,11.0,0.0,0.0,30.1,0.0,,0.0,0.0,,,35.3,0.0,0.0,-0.2,1.6,0.7,,,,,12.0,12.0,12.0,12.0,12.0,12.0,12.0,13.0,,,13.0,254.5,,0.0,-10.0,4.998,,,0.663,0.792,0.0,11.4,,,,,,2026-02-21-N890GF-SN35347-17.4.0.23677-REAL_FLITE-USER_LOG_DATA.csv,,,,,,,57.2,51.8,,,,,53.6,53.6,53.6,53.6,53.6,53.6,53.6,55.4,,,52.52,0.0,53.6,0.9370629370629371,0.9055944055944055,0.0,0.0,420.8,True,2026-02-20 23:42:49 - Flight 6,
14.06,1.0,8.0,2026-02-20 23:42:58,37.08155,-121.59956,334.0,0.0,160.9,-12.6,,,,,0.0,11.1,-0.9,58.9,0.0,169.0,-0.0,-0.02,+1.0,,-78.0,14.0,0.0,30.11,86.0,,,326.0,,,,,0.0,0.0,,,,,,,,,,,,,,,,,,,0.0,11.0,0.0,0.0,30.1,0.0,,0.0,0.0,,,35.3,0.0,0.0,-0.2,1.6,0.7,,,,,12.0,12.0,12.0,12.0,12.0,12.0,12.0,12.0,,,13.0,254.5,,0.0,-10.0,4.998,,,0.663,0.792,0.0,11.4,,,,,,2026-02-21-N890GF-SN35347-17.4.0.23677-REAL_FLITE-USER_LOG_DATA.csv,,,,,,,57.2,51.8,,,,,53.6,53.6,53.6,53.6,53.6,53.6,53.6,53.6,,,52.52,0.0,53.6,0.9370629370629371,0.9055944055944055,0.0,0.0,420.8,True,2026-02-20 23:42:49 - Flight 6,
15.06,1.0,8.0,2026-02-20 23:42:59,37.08155,-121.59956,333.0,0.0,160.9,-12.6,,,,,0.0,11.1,-0.9,58.9,0.0,168.0,-0.0,-0.02,+1.0,,-72.0,14.0,0.0,30.11,80.0,,,326.0,,,,,0.0,0.0,,,,,,,,,,,,,,,,,,,0.0,11.0,0.0,0.0,30.1,0.0,,0.0,0.0,,,35.3,0.0,0.0,-0.2,1.6,0.7,,,,,12.0,12.0,12.0,12.0,12.0,12.0,12.0,13.0,,,13.0,254.5,,0.0,-10.0,4.998,,,0.663,0.792,0.0,11.4,,,,,,2026-02-21-N890GF-SN35347-17.4.0.23677-REAL_FLITE-USER_LOG_DATA.csv,,,,,,,57.2,51.8,,,,,53.6,53.6,53.6,53.6,53.6,53.6,53.6,55.4,,,52.52,0.0,53.6,0.9370629370629371,0.9055944055944055,0.0,0.0,420.8,True,2026-02-20 23:42:49 - Flight 6,
16.06,1.0,8.0,2026-02-20 23:43:00,37.08155,-121.59956,333.0,0.0,160.9,-12.6,,,,,0.0,11.1,-0.9,58.8,0.0,167.0,-0.0,-0.02,+1.0,,-75.0,14.0,0.0,30.11,80.0,,,326.0,,,,,0.0,0.0,,,,,,,,,,,,,,,,,,,0.0,11.0,0.0,0.0,30.1,0.0,,0.0,0.0,,,35.3,0.0,0.0,-0.2,1.6,0.7,,,,,12.0,12.0,12.0,12.0,12.0,12.0,12.0,13.0,,,13.0,254.5,,0.0,-10.0,4.998,,,0.663,0.792,0.0,11.4,,,,,,2026-02-21-N890GF-SN35347-17.4.0.23677-REAL_FLITE-USER_LOG_DATA.csv,,,,,,,57.2,51.8,,,,,53.6,53.6,53.6,53.6,53.6,53.6,53.6,55.4,,,52.52,0.0,53.6,0.9370629370629371,0.9055944055944055,0.0,0.0,420.8,True,2026-02-20 23:42:49 - Flight 6,
17.06,1.0,8.0,2026-02-20 23:43:01,37.08155,-121.59956,333.0,0.0,160.9,-12.6,,,,,0.0,11.1,-1.0,58.8,0.0,166.0,-0.0,-0.02,+1.0,,-59.0,14.0,0.0,30.11,80.0,,,326.0,,,,,0.0,0.0,,,,,,,,,,,,,,,,,,,0.0,11.0,0.0,0.0,30.1,0.0,,0.0,0.0,,,35.3,0.0,0.0,-0.2,1.6,0.7,,,,,12.0,12.0,12.0,12.0,12.0,12.0,12.0,13.0,,,13.0,254.5,,0.0,-10.0,4.998,,,0.663,0.792,0.0,11.4,,,,,,2026-02-21-N890GF-SN35347-17.4.0.23677-REAL_FLITE-USER_LOG_DATA.csv,,,,,,,57.2,51.8,,,,,53.6,53.6,53.6,53.6,53.6,53.6,53.6,55.4,,,52.52,0.0,53.6,0.9370629370629371,0.9055944055944055,0.0,0.0,420.8,True,2026-02-20 23:42:49 - Flight 6,
18.06,1.0,8.0,2026-02-20 23:43:02,37.08156,-121.59956,332.0,0.0,160.9,-12.6,,,,,0.0,11.1,-1.0,58.8,0.0,166.0,-0.0,-0.02,+1.0,,-32.0,14.0,0.0,30.11,77.0,,,326.0,,,,,0.0,0.0,,,,,,,,,,,,,,,,,,,0.0,11.0,0.0,0.0,30.1,0.0,,0.0,0.0,,,35.3,0.0,0.0,-0.2,1.6,0.7,,,,,12.0,12.0,12.0,12.0,12.0,12.0,12.0,13.0,,,13.0,254.5,,0.0,-10.0,4.998,,,0.663,0.792,0.0,11.4,,,,,,2026-02-21-N890GF-SN35347-17.4.0.23677-REAL_FLITE-USER_LOG_DATA.csv,,,,,,,57.2,51.8,,,,,53.6,53.6,53.6,53.6,53.6,53.6,53.6,55.4,,,52.52,0.0,53.6,0.9370629370629371,0.9055944055944055,0.0,0.0,420.8,True,2026-02-20 23:42:49 - Flight 6,
19.06,1.0,8.0,2026-02-20 23:43:03,37.08156,-121.59956,332.0,0.0,160.9,-12.6,,,,,0.0,11.1,-1.0,58.8,0.0,166.0,-0.0,-0.02,+1.0,,-12.0,14.0,0.0,30.11,77.0,,,326.0,,,,,0.0,0.0,,,,,,,,,,,,,,,,,,,0.0,11.0,0.0,0.0,30.1,0.0,,0.0,0.0,,,35.3,0.0,0.0,-0.2,1.6,0.7,,,,,12.0,12.0,12.0,12.0,12.0,12.0,12.0,13.0,,,13.0,254.5,,0.0,-10.0,4.998,,,0.663,0.792,0.0,11.4,,,,,,2026-02-21-N890GF-SN35347-17.4.0.23677-REAL_FLITE-USER_LOG_DATA.csv,,,,,,,57.2,51.8,,,,,53.6,53.6,53.6,53.6,53.6,53.6,53.6,55.4,,,52.52,0.0,53.6,0.9370629370629371,0.9055944055944055,0.0,0.0,420.8,True,2026-02-20 23:42:49 - Flight 6,
20.06,1.0,8.0,2026-02-20 23:43:04,37.08156,-121.59956,331.0,0.0,160.9,-12.6,,,,,0.0,11.1,-0.9,58.8,0.0,166.0,-0.1,-0.02,+1.0,,10.0,14.0,0.0,30.11,77.0,,,326.0,,,,,0.0,0.0,,,,,,,,,,,,,,,,,,,0.0,11.0,0.0,0.0,30.1,0.0,,0.0,0.0,,,35.3,0.0,0.0,-0.3,1.6,0.7,,,,,12.0,12.0,12.0,12.0,12.0,12.0,12.0,13.0,,,13.0,254.5,,0.0,-10.0,4.998,,,0.663,0.792,0.0,11.4,,,,,,2026-02-21-N890GF-SN35347-17.4.0.23677-REAL_FLITE-USER_LOG_DATA.csv,,,,,,,57.2,51.8,,,,,53.6,53.6,53.6,53.6,53.6,53.6,53.6,55.4,,,52.52,0.0,53.6,0.9370629370629371,0.9055944055944055,0.0,0.0,420.8,True,2026-02-20 23:42:49 - Flight 6,
21.06,1.0,8.0,2026-02-20 23:43:05,37.08156,-121.59956,331.0,0.0,160.9,-12.6,,,,,0.0,11.1,-1.0,58.8,0.0,166.0,-0.0,-0.02,+1.0,,15.0,14.0,0.0,30.11,79.0,,,326.0,,,,,0.0,0.0,,,,,,,,,,,,,,,,,,,0.0,11.0,0.0,0.0,30.1,0.0,,0.0,0.0,,,35.3,0.0,0.0,-0.3,1.6,0.7,,,,,12.0,12.0,12.0,12.0,12.0,12.0,12.0,12.0,,,13.0,254.5,,0.0,-10.0,4.998,,,0.663,0.792,0.0,11.4,,,,,,2026-02-21-N890GF-SN35347-17.4.0.23677-REAL_FLITE-USER_LOG_DATA.csv,,,,,,,57.2,51.8,,,,,53.6,53.6,53.6,53.6,53.6,53.6,53.6,53.6,,,52.52,0.0,53.6,0.9370629370629371,0.9055944055944055,0.0,0.0,420.8,True,2026-02-20 23:42:49 - Flight 6,
22.06,1.0,8.0,2026-02-20 23:43:06,37.08156,-121.59956,330.0,0.0,160.9,-12.6,,,,,0.0,11.1,-1.0,58.8,0.0,166.0,-0.0,-0.02,+1.0,,15.0,14.0,0.0,30.11,79.0,,,326.0,,,,,0.0,0.0,,,,,,,,,,,,,,,,,,,0.0,11.0,0.0,0.0,30.1,0.0,,0.0,0.0,,,35.3,0.0,0.0,-0.3,1.6,0.7,,,,,12.0,12.0,12.0,12.0,12.0,12.0,12.0,13.0,,,13.0,254.5,,0.0,-10.0,4.998,,,0.663,0.792,0.0,11.4,,,,,,2026-02-21-N890GF-SN35347-17.4.0.23677-REAL_FLITE-USER_LOG_DATA.csv,,,,,,,57.2,51.8,,,,,53.6,53.6,53.6,53.6,53.6,53.6,53.6,55.4,,,52.52,0.0,53.6,0.9370629370629371,0.9055944055944055,0.0,0.0,420.8,True,2026-02-20 23:42:49 - Flight 6,
23.06,1.0,8.0,2026-02-20 23:43:07,37.08156,-121.59957,329.0,0.0,160.9,-12.6,,,,,0.0,11.1,-1.0,58.8,0.0,166.0,-0.0,-0.02,+1.0,,30.0,14.0,0.0,30.11,79.0,,,326.0,,,,,0.0,0.0,,,,,,,,,,,,,,,,,,,0.0,11.0,0.0,0.0,30.1,0.0,,0.0,0.0,,,35.3,0.0,0.0,-0.3,1.6,0.7,,,,,12.0,13.0,12.0,13.0,12.0,13.0,12.0,13.0,,,13.0,254.5,,0.0,-10.0,4.998,,,0.663,0.792,0.0,11.4,,,,,,2026-02-21-N890GF-SN35347-17.4.0.23677-REAL_FLITE-USER_LOG_DATA.csv,,,,,,,57.2,51.8,,,,,53.6,55.4,53.6,55.4,53.6,55.4,53.6,55.4,,,52.52,0.0,53.6,0.9370629370629371,0.9055944055944055,0.0,0.0,420.8,True,2026-02-20 23:42:49 - Flight 6,
24.06,1.0,8.0,2026-02-20 23:43:08,37.08156,-121.59957,328.0,0.0,160.9,-12.6,,,,,0.0,11.1,-1.0,58.8,0.0,166.0,-0.0,-0.02,+1.0,,17.0,14.0,0.0,30.11,87.0,,,326.0,,,,,0.0,0.0,,,,,,,,,,,,,,,,,,,0.0,11.0,0.0,0.0,30.1,0.0,,0.0,0.0,,,35.3,0.0,0.0,-0.3,1.6,0.7,,,,,12.0,13.0,12.0,13.0,12.0,13.0,12.0,13.0,,,13.0,254.5,,0.0,-10.0,4.998,,,0.663,0.792,0.0,11.4,,,,,,2026-02-21-N890GF-SN35347-17.4.0.23677-REAL_FLITE-USER_LOG_DATA.csv,,,,,,,57.2,51.8,,,,,53.6,55.4,53.6,55.4,53.6,55.4,53.6,55.4,,,52.52,0.0,53.6,0.9370629370629371,0.9055944055944055,0.0,0.0,420.8,True,2026-02-20 23:42:49 - Flight 6,
25.06,1.0,8.0,2026-02-20 23:43:09,37.08156,-121.59957,327.0,0.0,160.9,-12.6,,,,,0.0,11.1,-1.0,58.8,0.0,166.0,-0.0,-0.02,+1.0,,7.0,14.0,0.0,30.11,87.0,,,326.0,,,,,0.0,0.0,,,,,,,,,,,,,,,,,,,0.0,11.0,0.0,0.0,30.1,0.0,,0.0,0.0,,,35.3,0.0,0.0,-0.3,1.6,0.7,,,,,12.0,13.0,12.0,13.0,12.0,13.0,12.0,13.0,,,13.0,254.5,,0.0,-10.0,4.998,,,0.663,0.792,0.0,11.4,,,,,,2026-02-21-N890GF-SN35347-17.4.0.23677-REAL_FLITE-USER_LOG_DATA.csv,,,,,,,57.2,51.8,,,,,53.6,55.4,53.6,55.4,53.6,55.4,53.6,55.4,,,52.52,0.0,53.6,0.9370629370629371,0.9055944055944055,0.0,0.0,420.8,True,2026-02-20 23:42:49 - Flight 6,
26.06,1.0,8.0,2026-02-20 23:43:10,37.08156,-121.59957,327.0,0.0,160.9,-12.6,,,,,0.0,11.0,-1.0,58.8,0.0,166.0,0.0,-0.02,+1.0,,5.0,14.0,0.0,30.11,87.0,,,326.0,,,,,0.0,0.0,,,,,,,,,,,,,,,,,,,0.0,11.0,0.0,0.0,30.1,0.0,,0.0,0.0,,,35.3,0.0,0.0,-0.3,1.6,0.7,,,,,12.0,13.0,12.0,13.0,12.0,13.0,12.0,13.0,,,13.0,254.5,,0.0,-10.0,4.998,,,0.663,0.792,0.0,11.4,,,,,,2026-02-21-N890GF-SN35347-17.4.0.23677-REAL_FLITE-USER_LOG_DATA.csv,,,,,,,57.2,51.8,,,,,53.6,55.4,53.6,55.4,53.6,55.4,53.6,55.4,,,52.52,0.0,53.6,0.9370629370629371,0.9055944055944055,0.0,0.0,420.8,True,2026-02-20 23:42:49 - Flight 6,
27.06,1.0,8.0,2026-02-20 23:43:11,37.08156,-121.59957,326.0,0.0,160.9,-12.6,,,,,0.0,11.0,-1.0,58.8,0.0,166.0,-0.0,-0.02,+1.0,,-22.0,14.0,0.0,30.11,79.0,,,326.0,,,,,0.0,0.0,,,,,,,,,,,,,,,,,,,0.0,11.0,0.0,0.0,30.1,0.0,,0.0,0.0,,,35.3,0.0,0.0,-0.3,1.6,0.7,,,,,12.0,13.0,12.0,13.0,12.0,13.0,12.0,13.0,,,13.0,254.5,,0.0,-10.0,4.998,,,0.663,0.792,0.0,11.4,,,,,,2026-02-21-N890GF-SN35347-17.4.0.23677-REAL_FLITE-USER_LOG_DATA.csv,,,,,,,57.2,51.8,,,,,53.6,55.4,53.6,55.4,53.6,55.4,53.6,55.4,,,52.52,0.0,53.6,0.9370629370629371,0.9055944055944055,0.0,0.0,420.8,True,2026-02-20 23:42:49 - Flight 6,
28.06,1.0,8.0,2026-02-20 23:43:12,37.08157,-121.59957,325.0,0.0,160.9,-12.6,,,,,0.0,11.1,-1.0,58.8,0.0,166.0,0.0,-0.02,+1.0,,-8.0,14.0,0.0,30.11,79.0,,,326.0,,,,,0.0,0.0,,,,,,,,,,,,,,,,,,,0.0,11.0,0.0,0.0,30.1,0.0,,0.0,0.0,,,35.3,0.0,0.0,-0.3,1.6,0.7,,,,,12.0,13.0,12.0,13.0,12.0,13.0,12.0,13.0,,,13.0,254.5,,0.0,-10.0,4.998,,,0.663,0.792,0.0,11.4,,,,,,2026-02-21-N890GF-SN35347-17.4.0.23677-REAL_FLITE-USER_LOG_DATA.csv,,,,,,,57.2,51.8,,,,,53.6,55.4,53.6,55.4,53.6,55.4,53.6,55.4,,,52.52,0.0,53.6,0.9370629370629371,0.9055944055944055,0.0,0.0,420.8,True,2026-02-20 23:42:49 - Flight 6,
29.06,1.0,8.0,2026-02-20 23:43:13,37.08157,-121.59957,324.0,0.0,160.9,-12.6,,,,,0.0,11.1,-1.0,58.8,0.0,165.0,-0.0,-0.02,+1.0,,-22.0,14.0,0.0,30.11,79.0,,,326.0,,,,,0.0,0.0,,,,,,,,,,,,,,,,,,,0.0,11.0,0.0,0.0,30.1,0.0,,0.0,0.0,,,35.3,0.0,0.0,-0.3,1.6,0.7,,,,,12.0,13.0,12.0,13.0,12.0,13.0,12.0,13.0,,,13.0,254.5,,0.0,-10.0,4.998,,,0.663,0.792,0.0,11.4,,,,,,2026-02-21-N890GF-SN35347-17.4.0.23677-REAL_FLITE-USER_LOG_DATA.csv,,,,,,,57.2,51.8,,,,,53.6,55.4,53.6,55.4,53.6,55.4,53.6,55.4,,,52.52,0.0,53.6,0.9370629370629371,0.9055944055944055,0.0,0.0,420.8,True,2026-02-20 23:42:49 - Flight 6,
30.06,1.0,8.0,2026-02-20 23:43:14,37.08157,-121.59957,323.0,0.0,160.9,-12.6,,,,,0.0,11.1,-1.0,58.8,0.0,164.0,-0.0,-0.02,+1.0,,-53.0,14.0,0.0,30.11,86.0,,,326.0,,,,,0.0,0.0,,,,,,,,,,,,,,,,,,,0.0,11.0,0.0,0.0,30.1,0.0,,0.0,0.0,,,35.3,0.0,0.0,-0.3,1.6,0.7,,,,,12.0,13.0,12.0,13.0,12.0,13.0,12.0,13.0,,,13.0,254.5,,0.0,-10.0,4.998,,,0.663,0.792,0.0,11.4,,,,,,2026-02-21-N890GF-SN35347-17.4.0.23677-REAL_FLITE-USER_LOG_DATA.csv,,,,,,,57.2,51.8,,,,,53.6,55.4,53.6,55.4,53.6,55.4,53.6,55.4,,,52.52,0.0,53.6,0.9370629370629371,0.9055944055944055,0.0,0.0,420.8,True,2026-02-20 23:42:49 - Flight 6,
31.06,1.0,8.0,2026-02-20 23:43:15,37.08157,-121.59957,323.0,0.0,160.9,-12.6,,,,,0.0,11.1,-1.0,58.8,0.0,162.0,-0.0,-0.02,+1.0,,-80.0,14.0,0.0,30.11,86.0,,,326.0,,,,,0.0,0.0,,,,,,,,,,,,,,,,,,,0.0,11.0,0.0,0.0,30.1,0.0,,0.0,0.0,,,35.3,0.0,0.0,-0.3,1.6,0.7,,,,,12.0,13.0,12.0,13.0,12.0,13.0,12.0,13.0,,,13.0,254.5,,0.0,-10.0,4.998,,,0.663,0.792,0.0,11.4,,,,,,2026-02-21-N890GF-SN35347-17.4.0.23677-REAL_FLITE-USER_LOG_DATA.csv,,,,,,,57.2,51.8,,,,,53.6,55.4,53.6,55.4,53.6,55.4,53.6,55.4,,,52.52,0.0,53.6,0.9370629370629371,0.9055944055944055,0.0,0.0,420.8,True,2026-02-20 23:42:49 - Flight 6,
32.06,1.0,8.0,2026-02-20 23:43:16,37.08157,-121.59957,322.0,0.0,160.9,-12.6,,,,,0.0,11.1,-1.0,58.8,0.0,162.0,-0.0,-0.02,+1.0,,-32.0,14.0,0.0,30.11,86.0,,,326.0,,,,,0.0,0.0,,,,,,,,,,,,,,,,,,,0.0,11.0,0.0,0.0,30.1,0.0,,0.0,0.0,,,35.3,0.0,0.0,-0.3,1.6,0.7,,,,,12.0,13.0,12.0,13.0,12.0,13.0,12.0,13.0,,,12.0,254.5,,0.0,-10.0,4.998,,,0.663,0.792,0.0,11.4,,,,,,2026-02-21-N890GF-SN35347-17.4.0.23677-REAL_FLITE-USER_LOG_DATA.csv,,,,,,,57.2,51.8,,,,,53.6,55.4,53.6,55.4,53.6,55.4,53.6,55.4,,,52.52,0.0,53.6,0.9370629370629371,0.9055944055944055,0.0,0.0,420.8,True,2026-02-20 23:42:49 - Flight 6,
33.06,1.0,8.0,2026-02-20 23:43:17,37.08157,-121.59957,321.0,0.0,160.9,-12.6,,,,,0.0,11.1,-1.0,58.8,0.0,161.0,-0.0,-0.02,+1.0,,-37.0,14.0,0.0,30.11,83.0,,,326.0,,,,,0.0,0.0,,,,,,,,,,,,,,,,,,,0.0,11.0,0.0,0.0,30.1,0.0,,0.0,0.0,,,35.3,0.0,0.0,-0.3,1.6,0.7,,,,,12.0,13.0,12.0,13.0,12.0,13.0,12.0,13.0,,,12.0,254.5,,0.0,-10.0,4.998,,,0.663,0.792,0.0,11.4,,,,,,2026-02-21-N890GF-SN35347-17.4.0.23677-REAL_FLITE-USER_LOG_DATA.csv,,,,,,,57.2,51.8,,,,,53.6,55.4,53.6,55.4,53.6,55.4,53.6,55.4,,,52.52,0.0,53.6,0.9370629370629371,0.9055944055944055,0.0,0.0,420.8,True,2026-02-20 23:42:49 - Flight 6,
34.06,1.0,8.0,2026-02-20 23:43:18,37.08157,-121.59957,320.0,0.0,160.9,-12.6,,,,,0.0,11.1,-0.9,58.8,0.0,158.0,-0.0,-0.02,+1.0,,-81.0,14.0,0.0,30.11,83.0,,,326.0,,,,,0.0,0.0,,,,,,,,,,,,,,,,,,,0.0,11.0,0.0,0.0,30.1,0.0,,0.0,0.0,,,35.3,0.0,0.0,-0.3,1.6,0.7,,,,,12.0,13.0,12.0,13.0,12.0,13.0,12.0,13.0,,,12.0,254.5,,0.0,-10.0,4.998,,,0.663,0.792,0.0,11.4,,,,,,2026-02-21-N890GF-SN35347-17.4.0.23677-REAL_FLITE-USER_LOG_DATA.csv,,,,,,,57.2,51.8,,,,,53.6,55.4,53.6,55.4,53.6,55.4,53.6,55.4,,,52.52,0.0,53.6,0.9370629370629371,0.9055944055944055,0.0,0.0,420.8,True,2026-02-20 23:42:49 - Flight 6,
35.06,1.0,8.0,2026-02-20 23:43:19,37.08157,-121.59957,320.0,0.0,160.9,-12.6,,,,,0.0,11.1,-1.0,58.8,0.0,156.0,-0.0,-0.02,+1.0,,-104.0,14.0,0.0,30.11,83.0,,,326.0,,,,,0.0,0.0,,,,,,,,,,,,,,,,,,,0.0,11.0,0.0,0.0,30.1,0.0,,0.0,0.0,,,35.3,0.0,0.0,-0.3,1.6,0.7,,,,,12.0,13.0,12.0,13.0,12.0,13.0,12.0,13.0,,,12.0,254.5,,0.0,-10.0,4.998,,,0.663,0.792,0.0,11.4,,,,,,2026-02-21-N890GF-SN35347-17.4.0.23677-REAL_FLITE-USER_LOG_DATA.csv,,,,,,,57.2,51.8,,,,,53.6,55.4,53.6,55.4,53.6,55.4,53.6,55.4,,,52.52,0.0,53.6,0.9370629370629371,0.9055944055944055,0.0,0.0,420.8,True,2026-02-20 23:42:49 - Flight 6,
36.06,1.0,8.0,2026-02-20 23:43:20,37.08157,-121.59957,320.0,0.0,160.9,-12.6,,,,,0.0,11.1,-1.1,58.8,0.0,154.0,-0.0,-0.02,+1.0,,-128.0,14.0,0.0,30.11,75.0,,,326.0,,,,,0.0,0.0,,,,,,,,,,,,,,,,,,,0.0,11.0,0.0,0.0,30.1,0.0,,0.0,0.0,,,35.3,0.0,0.0,-0.3,1.6,0.7,,,,,12.0,13.0,12.0,13.0,12.0,13.0,12.0,13.0,,,12.0,254.5,,0.0,-10.0,4.998,,,0.663,0.792,0.0,11.4,,,,,,2026-02-21-N890GF-SN35347-17.4.0.23677-REAL_FLITE-USER_LOG_DATA.csv,,,,,,,57.2,51.8,,,,,53.6,55.4,53.6,55.4,53.6,55.4,53.6,55.4,,,52.52,0.0,53.6,0.9370629370629371,0.9055944055944055,0.0,0.0,420.8,True,2026-02-20 23:42:49 - Flight 6,
37.06,1.0,8.0,2026-02-20 23:43:21,37.08157,-121.59957,320.0,0.1,160.9,-12.6,,,,,0.0,11.1,-1.0,58.8,0.0,153.0,-0.0,-0.02,+1.0,,-97.0,14.0,0.0,30.11,75.0,,,326.0,,,,,0.0,0.0,,,,,,,,,,,,,,,,,,,0.0,11.0,0.0,0.0,30.1,0.0,,0.0,0.0,,,35.3,0.0,0.0,-0.3,1.6,0.7,,,,,12.0,13.0,12.0,13.0,12.0,13.0,12.0,13.0,,,12.0,254.5,,0.0,-10.0,4.998,,,0.663,0.792,0.0,11.4,,,,,,2026-02-21-N890GF-SN35347-17.4.0.23677-REAL_FLITE-USER_LOG_DATA.csv,,,,,,,57.2,51.8,,,,,53.6,55.4,53.6,55.4,53.6,55.4,53.6,55.4,,,52.52,0.0,53.6,0.9370629370629371,0.9055944055944055,0.0,0.08433333333333333,420.8,True,2026-02-20 23:42:49 - Flight 6,
38.06,1.0,8.0,2026-02-20 23:43:22,37.08156,-121.59957,320.0,0.0,160.9,-12.6,,,,,0.0,11.1,-1.0,58.8,0.0,152.0,-0.0,-0.02,+1.0,,-51.0,14.0,0.0,30.11,75.0,,,326.0,,,,,0.0,0.0,,,,,,,,,,,,,,,,,,,0.0,11.0,0.0,0.0,30.1,0.0,,0.0,0.0,,,35.3,0.0,0.0,-0.3,1.6,0.7,,,,,12.0,13.0,12.0,13.0,12.0,13.0,12.0,13.0,,,12.0,254.5,,0.0,-10.0,4.998,,,0.663,0.792,0.0,11.4,,,,,,2026-02-21-N890GF-SN35347-17.4.0.23677-REAL_FLITE-USER_LOG_DATA.csv,,,,,,,57.2,51.8,,,,,53.6,55.4,53.6,55.4,53.6,55.4,53.6,55.4,,,52.52,0.0,53.6,0.9370629370629371,0.9055944055944055,0.0,0.16866666666666666,420.8,True,2026-02-20 23:42:49 - Flight 6,
39.06,1.0,8.0,2026-02-20 23:43:23,37.08156,-121.59957,319.0,0.0,160.9,-12.6,,,,,0.0,11.1,-1.0,58.8,0.0,151.0,-0.0,-0.02,+1.0,,-79.0,14.0,0.0,30.11,71.0,,,326.0,,,,,0.0,0.0,,,,,,,,,,,,,,,,,,,0.0,11.0,0.0,0.0,30.1,0.0,,0.0,0.0,,,35.3,0.0,0.0,-0.3,1.6,0.7,,,,,12.0,13.0,12.0,13.0,12.0,13.0,12.0,13.0,,,12.0,254.5,,0.0,-10.0,4.998,,,0.663,0.792,0.0,11.4,,,,,,2026-02-21-N890GF-SN35347-17.4.0.23677-REAL_FLITE-USER_LOG_DATA.csv,,,,,,,57.2,51.8,,,,,53.6,55.4,53.6,55.4,53.6,55.4,53.6,55.4,,,52.52,0.0,53.6,0.9370629370629371,0.9055944055944055,0.0,0.16866666666666666,420.8,True,2026-02-20 23:42:49 - Flight 6,
40.06,1.0,8.0,2026-02-20 23:43:24,37.08156,-121.59957,319.0,0.0,160.9,-12.6,,,,,0.0,11.1,-1.0,58.8,0.0,148.0,-0.0,-0.02,+1.0,,-73.0,14.0,0.0,30.11,71.0,,,326.0,,,,,0.0,0.0,,,,,,,,,,,,,,,,,,,0.0,11.0,0.0,0.0,30.1,0.0,,0.0,0.0,,,35.3,0.0,0.0,-0.3,1.6,0.7,,,,,12.0,13.0,12.0,13.0,12.0,13.0,12.0,13.0,,,12.0,254.5,,0.0,-10.0,4.998,,,0.663,0.792,0.0,11.4,,,,,,2026-02-21-N890GF-SN35347-17.4.0.23677-REAL_FLITE-USER_LOG_DATA.csv,,,,,,,57.2,51.8,,,,,53.6,55.4,53.6,55.4,53.6,55.4,53.6,55.4,,,52.52,0.0,53.6,0.9370629370629371,0.9055944055944055,0.0,0.16866666666666666,420.8,True,2026-02-20 23:42:49 - Flight 6,
41.06,1.0,8.0,2026-02-20 23:43:25,37.08156,-121.59957,319.0,0.0,160.9,-12.6,,,,,0.0,11.1,-1.0,58.8,0.0,148.0,-0.0,-0.02,+1.0,,-62.0,14.0,0.0,30.11,71.0,,,326.0,,,,,0.0,0.0,,,,,,,,,,,,,,,,,,,0.0,11.0,0.0,0.0,30.1,0.0,,0.0,0.0,,,35.3,0.0,0.0,-0.3,1.6,0.7,,,,,12.0,13.0,12.0,13.0,12.0,13.0,12.0,13.0,,,12.0,254.4,,0.0,-10.0,4.998,,,0.663,0.792,0.0,11.4,,,,,,2026-02-21-N890GF-SN35347-17.4.0.23677-REAL_FLITE-USER_LOG_DATA.csv,,,,,,,57.2,51.8,,,,,53.6,55.4,53.6,55.4,53.6,55.4,53.6,55.4,,,52.52,0.0,53.6,0.9370629370629371,0.9055944055944055,0.0,0.16866666666666666,420.8,True,2026-02-20 23:42:49 - Flight 6,
42.06,1.0,8.0,2026-02-20 23:43:26,37.08156,-121.59957,319.0,0.0,160.9,-12.6,,,,,0.0,11.1,-1.0,58.8,0.0,148.0,-0.0,-0.02,+1.0,,-63.0,14.0,0.0,30.11,66.0,,,326.0,,,,,0.0,0.0,,,,,,,,,,,,,,,,,,,0.0,11.0,0.0,0.0,30.1,0.0,,0.0,0.0,,,35.3,0.0,0.0,-0.3,1.6,0.7,,,,,12.0,13.0,12.0,13.0,12.0,13.0,12.0,13.0,,,12.0,249.7,,0.0,-10.0,4.998,,,0.663,0.792,0.0,11.4,,,,,,2026-02-21-N890GF-SN35347-17.4.0.23677-REAL_FLITE-USER_LOG_DATA.csv,,,,,,,57.2,51.8,,,,,53.6,55.4,53.6,55.4,53.6,55.4,53.6,55.4,,,52.52,0.0,53.6,0.9370629370629371,0.9055944055944055,0.0,0.16866666666666666,420.8,True,2026-02-20 23:42:49 - Flight 6,
43.06,1.0,8.0,2026-02-20 23:43:27,37.08156,-121.59957,318.0,0.0,160.9,-12.6,,,,,0.0,11.1,-1.0,58.8,0.0,147.0,-0.0,-0.02,+1.0,,-38.0,14.0,0.0,30.11,66.0,,,326.0,,,,,0.0,0.0,,,,,,,,,,,,,,,,,,,0.0,11.0,0.0,0.0,30.1,0.0,,0.0,0.0,,,35.3,0.0,0.0,-0.3,1.6,0.7,,,,,12.0,13.0,12.0,13.0,12.0,13.0,12.0,13.0,,,12.0,194.7,,0.0,-10.0,4.998,,,0.663,0.792,0.0,11.4,,,,,,2026-02-21-N890GF-SN35347-17.4.0.23677-REAL_FLITE-USER_LOG_DATA.csv,,,,,,,57.2,51.8,,,,,53.6,55.4,53.6,55.4,53.6,55.4,53.6,55.4,,,52.52,0.0,53.6,0.9370629370629371,0.9055944055944055,0.0,0.16866666666666666,420.8,True,2026-02-20 23:42:49 - Flight 6,
44.06,1.0,8.0,2026-02-20 23:43:28,37.08156,-121.59958,318.0,0.0,160.9,-12.6,,,,,0.0,11.1,-1.0,58.8,0.0,147.0,-0.0,-0.02,+1.0,,-14.0,14.0,0.0,30.11,66.0,,,326.0,,,,,0.0,0.0,,,,,,,,,,,,,,,,,,,0.0,11.0,0.0,0.0,30.1,0.0,,0.0,0.0,,,35.3,0.0,0.0,-0.3,1.6,0.7,,,,,12.0,13.0,12.0,13.0,12.0,13.0,12.0,13.0,,,12.0,151.5,,0.0,-10.0,4.998,,,0.663,0.792,0.0,11.4,,,,,,2026-02-21-N890GF-SN35347-17.4.0.23677-REAL_FLITE-USER_LOG_DATA.csv,,,,,,,57.2,51.8,,,,,53.6,55.4,53.6,55.4,53.6,55.4,53.6,55.4,,,52.52,0.0,53.6,0.9370629370629371,0.9055944055944055,0.0,0.16866666666666666,420.8,True,2026-02-20 23:42:49 - Flight 6,
45.06,1.0,8.0,2026-02-20 23:43:29,37.08156,-121.59958,318.0,0.0,160.9,-12.6,,,,,0.0,11.1,-1.0,58.8,0.0,147.0,0.0,-0.02,+1.0,,12.0,14.0,0.0,30.11,66.0,,,326.0,,,,,0.0,0.0,,,,,,,,,,,,,,,,,,,0.0,11.0,0.0,0.0,30.1,0.0,,0.0,0.0,,,35.3,0.0,0.0,-0.3,1.6,0.7,,,,,12.0,13.0,12.0,13.0,12.0,13.0,12.0,13.0,,,12.0,118.0,,0.0,-10.0,4.998,,,0.663,0.792,0.0,11.4,,,,,,2026-02-21-N890GF-SN35347-17.4.0.23677-REAL_FLITE-USER_LOG_DATA.csv,,,,,,,57.2,51.8,,,,,53.6,55.4,53.6,55.4,53.6,55.4,53.6,55.4,,,52.52,0.0,53.6,0.9370629370629371,0.9055944055944055,0.0,0.16866666666666666,420.8,True,2026-02-20 23:42:49 - Flight 6,
46.06,1.0,8.0,2026-02-20 23:43:30,37.08156,-121.59958,318.0,0.0,160.9,-12.6,,,,,0.0,11.1,-1.0,58.8,0.0,147.0,0.0,-0.02,+1.0,,26.0,14.0,0.0,30.11,66.0,,,326.0,,,,,0.0,0.0,,,,,,,,,,,,,,,,,,,0.0,11.0,0.0,0.0,30.1,0.0,,0.0,0.0,,,35.3,0.0,0.0,-0.3,1.6,0.7,,,,,12.0,13.0,12.0,13.0,12.0,13.0,12.0,13.0,,,12.0,91.9,,0.0,-10.0,4.998,,,0.663,0.792,0.0,11.4,,,,,,2026-02-21-N890GF-SN35347-17.4.0.23677-REAL_FLITE-USER_LOG_DATA.csv,,,,,,,57.2,51.8,,,,,53.6,55.4,53.6,55.4,53.6,55.4,53.6,55.4,,,52.52,0.0,53.6,0.9370629370629371,0.9055944055944055,0.0,0.16866666666666666,420.8,True,2026-02-20 23:42:49 - Flight 6,
47.06,1.0,8.0,2026-02-20 23:43:31,37.08157,-121.59958,317.0,0.0,160.9,-12.6,,,,,0.0,11.1,-1.0,58.8,0.0,147.0,-0.0,-0.02,+1.0,,5.0,14.0,0.0,30.11,66.0,,,326.0,,,,,0.0,0.0,,,,,,,,,,,,,,,,,,,0.0,11.0,0.0,0.0,30.1,0.0,,0.0,0.0,,,35.3,0.0,0.0,-0.3,1.6,0.7,,,,,12.0,13.0,12.0,13.0,12.0,13.0,12.0,13.0,,,12.0,71.7,,0.0,-10.0,4.998,,,0.663,0.792,0.0,11.4,,,,,,2026-02-21-N890GF-SN35347-17.4.0.23677-REAL_FLITE-USER_LOG_DATA.csv,,,,,,,57.2,51.8,,,,,53.6,55.4,53.6,55.4,53.6,55.4,53.6,55.4,,,52.52,0.0,53.6,0.9370629370629371,0.9055944055944055,0.0,0.16866666666666666,420.8,True,2026-02-20 23:42:49 - Flight 6,
48.06,1.0,8.0,2026-02-20 23:43:32,37.08157,-121.59958,317.0,0.0,160.9,-12.6,,,,,0.0,11.1,-1.1,58.7,0.0,147.0,-0.0,-0.02,+1.0,,-15.0,14.0,0.0,30.11,66.0,,,326.0,,,,,0.0,0.0,,,,,,,,,,,,,,,,,,,0.0,11.0,0.0,0.0,30.1,0.0,,0.0,0.0,,,35.3,0.0,0.0,-0.3,1.6,0.7,,,,,12.0,13.0,12.0,13.0,12.0,13.0,12.0,13.0,,,12.0,55.9,,0.0,-10.0,4.998,,,0.663,0.792,0.0,11.4,,,,,,2026-02-21-N890GF-SN35347-17.4.0.23677-REAL_FLITE-USER_LOG_DATA.csv,,,,,,,57.2,51.8,,,,,53.6,55.4,53.6,55.4,53.6,55.4,53.6,55.4,,,52.52,0.0,53.6,0.9370629370629371,0.9055944055944055,0.0,0.16866666666666666,420.8,True,2026-02-20 23:42:49 - Flight 6,
49.06,1.0,8.0,2026-02-20 23:43:33,37.08157,-121.59958,317.0,0.0,160.9,-12.6,,,,,0.0,11.2,-1.1,58.7,0.0,146.0,0.0,-0.02,+1.0,,-46.0,14.0,0.0,30.11,66.0,,,326.0,,,,,0.0,0.0,,,,,,,,,,,,,,,,,,,0.0,11.0,0.0,0.0,30.1,0.0,,0.0,0.0,,,35.3,0.0,0.0,-0.3,1.6,0.7,,,,,12.0,13.0,12.0,13.0,12.0,13.0,12.0,13.0,,,12.0,43.7,,0.0,-10.0,4.998,,,0.663,0.792,0.0,11.4,,,,,,2026-02-21-N890GF-SN35347-17.4.0.23677-REAL_FLITE-USER_LOG_DATA.csv,,,,,,,57.2,51.8,,,,,53.6,55.4,53.6,55.4,53.6,55.4,53.6,55.4,,,52.52,0.0,53.6,0.9370629370629371,0.9055944055944055,0.0,0.16866666666666666,420.8,True,2026-02-20 23:42:49 - Flight 6,
50.06,1.0,8.0,2026-02-20 23:43:34,37.08157,-121.59958,317.0,0.1,160.9,-12.6,,,,,0.0,11.1,-1.0,58.7,0.0,145.0,-0.0,-0.02,+1.0,,-54.0,14.0,0.0,30.11,66.0,,,326.0,,,,,0.0,0.0,,,,,,,,,,,,,,,,,,,0.0,11.0,0.0,0.0,30.1,0.0,,0.0,0.0,,,35.3,0.0,0.0,-0.3,1.6,0.7,,,,,12.0,13.0,12.0,13.0,12.0,13.0,12.0,13.0,,,12.0,34.2,,0.0,-10.0,4.998,,,0.663,0.792,0.0,11.4,,,,,,2026-02-21-N890GF-SN35347-17.4.0.23677-REAL_FLITE-USER_LOG_DATA.csv,,,,,,,57.2,51.8,,,,,53.6,55.4,53.6,55.4,53.6,55.4,53.6,55.4,,,52.52,0.0,53.6,0.9370629370629371,0.9055944055944055,0.0,0.253,420.8,True,2026-02-20 23:42:49 - Flight 6,
51.06,1.0,8.0,2026-02-20 23:43:35,37.08157,-121.59958,317.0,0.0,160.9,-12.6,,,,,0.0,11.1,-1.0,58.7,0.0,145.0,-0.0,-0.02,+1.0,,-29.0,14.0,0.0,30.11,74.0,,,326.0,,,,,0.0,0.0,,,,,,,,,,,,,,,,,,,0.0,11.0,0.0,0.0,30.1,0.0,,0.0,0.0,,,35.3,0.0,0.0,-0.3,1.6,0.7,,,,,12.0,13.0,12.0,13.0,12.0,13.0,12.0,13.0,,,12.0,26.8,,0.0,-10.0,4.998,,,0.663,0.792,0.0,11.4,,,,,,2026-02-21-N890GF-SN35347-17.4.0.23677-REAL_FLITE-USER_LOG_DATA.csv,,,,,,,57.2,51.8,,,,,53.6,55.4,53.6,55.4,53.6,55.4,53.6,55.4,,,52.52,0.0,53.6,0.9370629370629371,0.9055944055944055,0.0,0.3373333333333333,420.8,True,2026-02-20 23:42:49 - Flight 6,
52.06,1.0,8.0,2026-02-20 23:43:36,37.08157,-121.59958,318.0,0.0,160.9,-12.6,,,,,0.0,11.1,-1.0,58.7,0.0,145.0,-0.0,-0.02,+1.0,,0.0,14.0,0.0,30.11,74.0,,,326.0,,,,,0.0,0.0,,,,,,,,,,,,,,,,,,,0.0,11.0,0.0,0.0,30.1,0.0,,0.0,0.0,,,35.3,0.0,0.0,-0.3,1.6,0.7,,,,,12.0,13.0,12.0,13.0,12.0,13.0,12.0,13.0,,,12.0,21.0,,0.0,-10.0,4.998,,,0.663,0.792,0.0,11.4,,,,,,2026-02-21-N890GF-SN35347-17.4.0.23677-REAL_FLITE-USER_LOG_DATA.csv,,,,,,,57.2,51.8,,,,,53.6,55.4,53.6,55.4,53.6,55.4,53.6,55.4,,,52.52,0.0,53.6,0.9370629370629371,0.9055944055944055,0.0,0.3373333333333333,420.8,True,2026-02-20 23:42:49 - Flight 6,
53.06,1.0,8.0,2026-02-20 23:43:37,37.08157,-121.59958,318.0,0.0,160.9,-12.6,,,,,0.0,11.1,-1.0,58.8,0.0,145.0,-0.0,-0.02,+1.0,,18.0,14.0,0.0,30.11,74.0,,,326.0,,,,,0.0,0.0,,,,,,,,,,,,,,,,,,,0.0,11.0,0.0,0.0,30.1,0.0,,0.0,0.0,,,35.3,0.0,0.0,-0.3,1.6,0.7,,,,,12.0,13.0,12.0,13.0,12.0,13.0,12.0,13.0,,,12.0,16.6,,0.0,-10.0,4.998,,,0.663,0.792,0.0,11.4,,,,,,2026-02-21-N890GF-SN35347-17.4.0.23677-REAL_FLITE-USER_LOG_DATA.csv,,,,,,,57.2,51.8,,,,,53.6,55.4,53.6,55.4,53.6,55.4,53.6,55.4,,,52.52,0.0,53.6,0.9370629370629371,0.9055944055944055,0.0,0.3373333333333333,420.8,True,2026-02-20 23:42:49 - Flight 6,
54.06,1.0,8.0,2026-02-20 23:43:38,37.08157,-121.59958,318.0,0.0,160.9,-12.6,,,,,0.0,11.1,-1.0,58.8,0.0,145.0,-0.0,-0.02,+1.0,,38.0,14.0,0.0,30.11,74.0,,,326.0,,,,,0.0,0.0,,,,,,,,,,,,,,,,,,,0.0,11.0,0.0,0.0,30.1,0.0,,0.0,0.0,,,35.3,0.0,0.0,-0.3,1.6,0.7,,,,,12.0,13.0,12.0,13.0,12.0,13.0,12.0,13.0,,,12.0,13.1,,0.0,-10.0,4.998,,,0.663,0.792,0.0,11.4,,,,,,2026-02-21-N890GF-SN35347-17.4.0.23677-REAL_FLITE-USER_LOG_DATA.csv,,,,,,,57.2,51.8,,,,,53.6,55.4,53.6,55.4,53.6,55.4,53.6,55.4,,,52.52,0.0,53.6,0.9370629370629371,0.9055944055944055,0.0,0.3373333333333333,420.8,True,2026-02-20 23:42:49 - Flight 6,
55.06,1.0,8.0,2026-02-20 23:43:39,37.08157,-121.59958,318.0,0.0,160.9,-12.6,,,,,0.0,11.1,-1.0,58.8,0.0,145.0,-0.0,-0.02,+1.0,,41.0,14.0,0.0,30.11,74.0,,,326.0,,,,,0.0,0.0,,,,,,,,,,,,,,,,,,,0.0,11.0,0.0,0.0,30.1,0.0,,0.0,0.0,,,35.3,0.0,0.0,-0.3,1.6,0.7,,,,,12.0,13.0,12.0,13.0,12.0,13.0,12.0,13.0,,,12.0,10.4,,0.0,-10.0,4.998,,,0.663,0.792,0.0,11.4,,,,,,2026-02-21-N890GF-SN35347-17.4.0.23677-REAL_FLITE-USER_LOG_DATA.csv,,,,,,,57.2,51.8,,,,,53.6,55.4,53.6,55.4,53.6,55.4,53.6,55.4,,,52.52,0.0,53.6,0.9370629370629371,0.9055944055944055,0.0,0.3373333333333333,420.8,True,2026-02-20 23:42:49 - Flight 6,
56.06,1.0,8.0,2026-02-20 23:43:40,37.08157,-121.59958,318.0,0.0,160.9,-12.6,,,,,0.0,11.1,-1.0,58.9,0.0,145.0,-0.0,-0.02,+1.0,,55.0,14.0,0.0,30.11,74.0,,,326.0,,,,,0.0,0.0,,,,,,,,,,,,,,,,,,,0.0,11.0,0.0,0.0,30.1,0.0,,0.0,0.0,,,35.3,0.0,0.0,-0.3,1.6,0.7,,,,,12.0,13.0,12.0,13.0,12.0,12.0,12.0,13.0,,,12.0,8.3,,0.0,-10.0,4.998,,,0.663,0.792,0.0,11.4,,,,,,2026-02-21-N890GF-SN35347-17.4.0.23677-REAL_FLITE-USER_LOG_DATA.csv,,,,,,,57.2,51.8,,,,,53.6,55.4,53.6,55.4,53.6,53.6,53.6,55.4,,,52.52,0.0,53.6,0.9370629370629371,0.9055944055944055,0.0,0.3373333333333333,420.8,True,2026-02-20 23:42:49 - Flight 6,
57.06,1.0,8.0,2026-02-20 23:43:41,37.08157,-121.59958,319.0,0.0,160.9,-12.6,,,,,0.0,11.1,-1.1,58.9,0.0,145.0,0.0,-0.02,+1.0,,50.0,14.0,0.0,30.11,74.0,,,326.0,,,,,0.0,0.0,,,,,,,,,,,,,,,,,,,0.0,11.0,0.0,0.0,30.1,0.0,,0.0,0.0,,,35.3,0.0,0.0,-0.3,1.6,0.7,,,,,12.0,13.0,12.0,13.0,12.0,13.0,12.0,13.0,,,11.0,6.7,,0.0,-10.0,4.998,,,0.663,0.792,0.0,11.4,,,,,,2026-02-21-N890GF-SN35347-17.4.0.23677-REAL_FLITE-USER_LOG_DATA.csv,,,,,,,57.2,51.8,,,,,53.6,55.4,53.6,55.4,53.6,55.4,53.6,55.4,,,52.52,0.0,53.6,0.9370629370629371,0.9055944055944055,0.0,0.3373333333333333,420.8,True,2026-02-20 23:42:49 - Flight 6,
58.06,1.0,8.0,2026-02-20 23:43:42,37.08157,-121.59958,319.0,0.0,160.9,-12.6,,,,,0.0,11.1,-1.0,58.9,0.0,145.0,0.0,-0.02,+1.0,,41.0,14.0,0.0,30.11,74.0,,,326.0,,,,,0.0,0.0,,,,,,,,,,,,,,,,,,,0.0,11.0,0.0,0.0,30.1,0.0,,0.0,0.0,,,35.3,0.0,0.0,-0.3,1.6,0.7,,,,,12.0,13.0,12.0,13.0,12.0,12.0,12.0,13.0,,,12.0,5.4,,0.0,-9.0,4.998,,,0.663,0.792,0.0,11.4,,,,,,2026-02-21-N890GF-SN35347-17.4.0.23677-REAL_FLITE-USER_LOG_DATA.csv,,,,,,,57.2,51.8,,,,,53.6,55.4,53.6,55.4,53.6,53.6,53.6,55.4,,,52.52,0.0,53.6,0.9370629370629371,0.9055944055944055,0.0,0.3373333333333333,420.8,True,2026-02-20 23:42:49 - Flight 6,
59.06,1.0,8.0,2026-02-20 23:43:43,37.08157,-121.59958,319.0,0.0,160.9,-12.6,,,,,0.0,11.1,-1.1,58.9,0.0,145.0,-0.0,-0.02,+1.0,,43.0,14.0,0.0,30.11,74.0,,,326.0,,,,,0.0,0.0,,,,,,,,,,,,,,,,,,,0.0,11.0,0.0,0.0,30.1,0.0,,0.0,0.0,,,35.3,0.0,0.0,-0.3,1.6,0.7,,,,,12.0,13.0,12.0,13.0,12.0,13.0,12.0,13.0,,,11.0,4.4,,0.0,-9.0,4.998,,,0.663,0.792,0.0,11.4,,,,,,2026-02-21-N890GF-SN35347-17.4.0.23677-REAL_FLITE-USER_LOG_DATA.csv,,,,,,,57.2,51.8,,,,,53.6,55.4,53.6,55.4,53.6,55.4,53.6,55.4,,,52.52,0.0,53.6,0.9370629370629371,0.9055944055944055,0.0,0.3373333333333333,420.8,True,2026-02-20 23:42:49 - Flight 6,
60.06,1.0,8.0,2026-02-20 23:43:44,37.08157,-121.59958,319.0,0.0,160.9,-12.6,,,,,0.0,11.1,-1.0,58.9,0.0,145.0,0.0,-0.02,+1.0,,33.0,14.0,0.0,30.11,74.0,,,326.0,,,,,0.0,0.0,,,,,,,,,,,,,,,,,,,0.0,11.0,0.0,0.0,30.1,0.0,,0.0,0.0,,,35.3,0.0,0.0,-0.3,1.6,0.7,,,,,12.0,13.0,12.0,13.0,12.0,13.0,12.0,13.0,,,11.0,3.6,,0.0,-9.0,4.998,,,0.663,0.792,0.0,11.4,,,,,,2026-02-21-N890GF-SN35347-17.4.0.23677-REAL_FLITE-USER_LOG_DATA.csv,,,,,,,57.2,51.8,,,,,53.6,55.4,53.6,55.4,53.6,55.4,53.6,55.4,,,52.52,0.0,53.6,0.9370629370629371,0.9055944055944055,0.0,0.3373333333333333,420.8,True,2026-02-20 23:42:49 - Flight 6,
61.06,1.0,8.0,2026-02-20 23:43:45,37.08157,-121.59958,320.0,0.0,160.9,-12.6,,,,,0.0,11.1,-1.1,58.9,0.0,145.0,-0.0,-0.02,+1.0,,52.0,14.0,0.0,30.11,74.0,,,326.0,,,,,0.0,0.0,,,,,,,,,,,,,,,,,,,0.0,11.0,0.0,0.0,30.1,0.0,,0.0,0.0,,,35.3,0.0,0.0,-0.3,1.6,0.7,,,,,12.0,13.0,12.0,13.0,12.0,13.0,12.0,13.0,,,11.0,3.1,,0.0,-10.0,4.998,,,0.663,0.792,0.0,11.4,,,,,,2026-02-21-N890GF-SN35347-17.4.0.23677-REAL_FLITE-USER_LOG_DATA.csv,,,,,,,57.2,51.8,,,,,53.6,55.4,53.6,55.4,53.6,55.4,53.6,55.4,,,52.52,0.0,53.6,0.9370629370629371,0.9055944055944055,0.0,0.3373333333333333,420.8,True,2026-02-20 23:42:49 - Flight 6,
62.06,1.0,8.0,2026-02-20 23:43:46,37.08157,-121.59958,320.0,0.0,160.9,-12.6,,,,,0.0,11.1,-1.1,58.8,0.0,145.0,-0.0,-0.02,+1.0,,24.0,14.0,0.0,30.11,74.0,,,326.0,,,,,0.0,0.0,,,,,,,,,,,,,,,,,,,0.0,11.0,0.0,0.0,30.1,0.0,,0.0,0.0,,,35.3,0.0,0.0,-0.3,1.6,0.7,,,,,12.0,13.0,12.0,13.0,12.0,13.0,12.0,13.0,,,11.0,2.6,,0.0,-10.0,4.998,,,0.663,0.792,0.0,11.4,,,,,,2026-02-21-N890GF-SN35347-17.4.0.23677-REAL_FLITE-USER_LOG_DATA.csv,,,,,,,57.2,51.8,,,,,53.6,55.4,53.6,55.4,53.6,55.4,53.6,55.4,,,52.52,0.0,53.6,0.9370629370629371,0.9055944055944055,0.0,0.3373333333333333,420.8,True,2026-02-20 23:42:49 - Flight 6,
63.06,1.0,8.0,2026-02-20 23:43:47,37.08157,-121.59958,320.0,0.0,160.9,-12.6,,,,,0.0,11.1,-1.1,58.8,0.0,145.0,-0.0,-0.02,+1.0,,6.0,14.0,0.0,30.11,74.0,,,326.0,,,,,0.0,0.0,,,,,,,,,,,,,,,,,,,0.0,11.0,0.0,0.0,30.1,0.0,,0.0,0.0,,,35.3,0.0,0.0,-0.3,1.6,0.7,,,,,12.0,13.0,12.0,13.0,12.0,13.0,12.0,13.0,,,11.0,2.2,,0.0,-10.0,4.998,,,0.663,0.792,0.0,11.4,,,,,,2026-02-21-N890GF-SN35347-17.4.0.23677-REAL_FLITE-USER_LOG_DATA.csv,,,,,,,57.2,51.8,,,,,53.6,55.4,53.6,55.4,53.6,55.4,53.6,55.4,,,52.52,0.0,53.6,0.9370629370629371,0.9055944055944055,0.0,0.3373333333333333,420.8,True,2026-02-20 23:42:49 - Flight 6,
64.06,1.0,8.0,2026-02-20 23:43:48,37.08157,-121.59959,320.0,0.0,160.9,-12.6,,,,,0.0,11.1,-1.1,58.8,0.0,145.0,-0.0,-0.02,+1.0,,41.0,14.0,0.0,30.11,74.0,,,326.0,,,,,0.0,0.0,,,,,,,,,,,,,,,,,,,0.0,11.0,0.0,0.0,30.1,0.0,,0.0,0.0,,,35.3,0.0,0.0,-0.3,1.6,0.7,,,,,12.0,13.0,12.0,13.0,12.0,13.0,12.0,13.0,,,11.0,2.0,,0.0,-9.0,4.998,,,0.663,0.792,0.0,11.4,,,,,,2026-02-21-N890GF-SN35347-17.4.0.23677-REAL_FLITE-USER_LOG_DATA.csv,,,,,,,57.2,51.8,,,,,53.6,55.4,53.6,55.4,53.6,55.4,53.6,55.4,,,52.52,0.0,53.6,0.9370629370629371,0.9055944055944055,0.0,0.3373333333333333,420.8,True,2026-02-20 23:42:49 - Flight 6,
65.06,1.0,8.0,2026-02-20 23:43:49,37.08157,-121.59959,321.0,0.0,160.9,-12.6,,,,,0.0,11.1,-1.1,58.7,0.0,145.0,-0.0,-0.02,+1.0,,25.0,14.0,0.0,30.11,74.0,,,326.0,,,,,0.0,0.0,,,,,,,,,,,,,,,,,,,0.0,11.0,0.0,0.0,30.1,0.0,,0.0,0.0,,,35.3,0.0,0.0,-0.3,1.6,0.7,,,,,12.0,13.0,12.0,13.0,12.0,13.0,12.0,13.0,,,11.0,1.7,,0.0,-9.0,4.998,,,0.663,0.792,0.0,11.4,,,,,,2026-02-21-N890GF-SN35347-17.4.0.23677-REAL_FLITE-USER_LOG_DATA.csv,,,,,,,57.2,51.8,,,,,53.6,55.4,53.6,55.4,53.6,55.4,53.6,55.4,,,52.52,0.0,53.6,0.9370629370629371,0.9055944055944055,0.0,0.3373333333333333,420.8,True,2026-02-20 23:42:49 - Flight 6,
66.06,1.0,8.0,2026-02-20 23:43:50,37.08157,-121.59959,322.0,0.0,160.9,-12.6,,,,,0.0,11.1,-1.1,58.7,0.0,145.0,-0.0,-0.02,+1.0,,-7.0,14.0,0.0,30.11,75.0,,,326.0,,,,,0.0,0.0,,,,,,,,,,,,,,,,,,,0.0,11.0,0.0,0.0,30.1,0.0,,0.0,0.0,,,35.3,0.0,0.0,-0.3,1.6,0.7,,,,,12.0,13.0,12.0,13.0,12.0,13.0,12.0,13.0,,,11.0,1.6,,0.0,-10.0,4.998,,,0.663,0.792,0.0,11.4,,,,,,2026-02-21-N890GF-SN35347-17.4.0.23677-REAL_FLITE-USER_LOG_DATA.csv,,,,,,,57.2,51.8,,,,,53.6,55.4,53.6,55.4,53.6,55.4,53.6,55.4,,,52.52,0.0,53.6,0.9370629370629371,0.9055944055944055,0.0,0.3373333333333333,420.8,True,2026-02-20 23:42:49 - Flight 6,
67.06,1.0,8.0,2026-02-20 23:43:51,37.08157,-121.59959,322.0,0.0,160.9,-12.6,,,,,0.0,11.1,-1.1,58.7,0.0,145.0,-0.0,-0.02,+1.0,,-36.0,14.0,0.0,30.11,75.0,,,326.0,,,,,0.0,0.0,,,,,,,,,,,,,,,,,,,0.0,11.0,0.0,0.0,30.1,0.0,,0.0,0.0,,,35.3,0.0,0.0,-0.3,1.6,0.7,,,,,12.0,13.0,12.0,13.0,12.0,13.0,13.0,13.0,,,10.0,1.4,,0.0,-9.0,4.998,,,0.663,0.792,0.0,11.4,,,,,,2026-02-21-N890GF-SN35347-17.4.0.23677-REAL_FLITE-USER_LOG_DATA.csv,,,,,,,57.2,51.8,,,,,53.6,55.4,53.6,55.4,53.6,55.4,55.4,55.4,,,52.52,0.0,54.05,0.9449300699300698,0.9055944055944055,0.0,0.3373333333333333,420.8,True,2026-02-20 23:42:49 - Flight 6,
68.06,1.0,8.0,2026-02-20 23:43:52,37.08157,-121.59959,323.0,0.0,160.9,-12.6,,,,,0.0,11.1,-1.1,58.7,0.0,145.0,-0.0,-0.02,+1.0,,-8.0,14.0,0.0,30.11,75.0,,,326.0,,,,,0.0,0.0,,,,,,,,,,,,,,,,,,,0.0,11.0,0.0,0.0,30.1,0.0,,0.0,0.0,,,35.3,0.0,0.0,-0.3,1.6,0.7,,,,,12.0,13.0,12.0,13.0,12.0,13.0,12.0,13.0,,,10.0,1.3,,0.0,-9.0,4.998,,,0.663,0.792,0.0,11.4,,,,,,2026-02-21-N890GF-SN35347-17.4.0.23677-REAL_FLITE-USER_LOG_DATA.csv,,,,,,,57.2,51.8,,,,,53.6,55.4,53.6,55.4,53.6,55.4,53.6,55.4,,,52.52,0.0,53.6,0.9370629370629371,0.9055944055944055,0.0,0.3373333333333333,420.8,True,2026-02-20 23:42:49 - Flight 6,
69.06,1.0,8.0,2026-02-20 23:43:53,37.08157,-121.59959,323.0,0.0,160.9,-12.6,,,,,0.0,11.1,-1.1,58.7,0.0,145.0,-0.0,-0.02,+1.0,,-28.0,14.0,0.0,30.11,75.0,,,326.0,,,,,0.0,0.0,,,,,,,,,,,,,,,,,,,0.0,11.0,0.0,0.0,30.1,0.0,,0.0,0.0,,,35.3,0.0,0.0,-0.3,1.6,0.7,,,,,12.0,13.0,12.0,13.0,12.0,13.0,12.0,13.0,,,10.0,1.3,,0.0,-9.0,4.998,,,0.663,0.792,0.0,11.4,,,,,,2026-02-21-N890GF-SN35347-17.4.0.23677-REAL_FLITE-USER_LOG_DATA.csv,,,,,,,57.2,51.8,,,,,53.6,55.4,53.6,55.4,53.6,55.4,53.6,55.4,,,52.52,0.0,53.6,0.9370629370629371,0.9055944055944055,0.0,0.3373333333333333,420.8,True,2026-02-20 23:42:49 - Flight 6,
70.06,1.0,8.0,2026-02-20 23:43:54,37.08157,-121.59959,324.0,0.0,160.9,-12.6,,,,,0.0,11.1,-1.1,58.7,0.0,145.0,-0.0,-0.02,+1.0,,-18.0,14.0,0.0,30.11,75.0,,,326.0,,,,,0.0,0.0,,,,,,,,,,,,,,,,,,,0.0,11.0,0.0,0.0,30.1,0.0,,0.0,0.0,,,35.3,0.0,0.0,-0.3,1.6,0.7,,,,,12.0,13.0,12.0,13.0,12.0,13.0,12.0,13.0,,,10.0,1.2,,0.0,-9.0,4.998,,,0.663,0.792,0.0,11.4,,,,,,2026-02-21-N890GF-SN35347-17.4.0.23677-REAL_FLITE-USER_LOG_DATA.csv,,,,,,,57.2,51.8,,,,,53.6,55.4,53.6,55.4,53.6,55.4,53.6,55.4,,,52.52,0.0,53.6,0.9370629370629371,0.9055944055944055,0.0,0.3373333333333333,420.8,True,2026-02-20 23:42:49 - Flight 6,
71.06,1.0,8.0,2026-02-20 23:43:55,37.08157,-121.59959,324.0,0.0,160.9,-12.6,,,,,0.0,11.1,-1.0,58.7,0.0,145.0,-0.0,-0.02,+1.0,,-10.0,14.0,0.0,30.11,75.0,,,326.0,,,,,0.0,0.0,,,,,,,,,,,,,,,,,,,0.0,11.0,0.0,0.0,30.1,0.0,,0.0,0.0,,,35.3,0.0,0.0,-0.3,1.6,0.7,,,,,12.0,13.0,12.0,13.0,12.0,13.0,12.0,13.0,,,10.0,1.2,,0.0,-9.0,4.998,,,0.663,0.792,0.0,11.4,,,,,,2026-02-21-N890GF-SN35347-17.4.0.23677-REAL_FLITE-USER_LOG_DATA.csv,,,,,,,57.2,51.8,,,,,53.6,55.4,53.6,55.4,53.6,55.4,53.6,55.4,,,52.52,0.0,53.6,0.9370629370629371,0.9055944055944055,0.0,0.3373333333333333,420.8,True,2026-02-20 23:42:49 - Flight 6,
72.06,1.0,8.0,2026-02-20 23:43:56,37.08157,-121.59959,324.0,0.0,160.9,-12.6,,,,,0.0,11.1,-1.0,58.7,0.0,145.0,-0.0,-0.02,+1.0,,-35.0,14.0,0.0,30.11,84.0,,,326.0,,,,,0.0,0.0,,,,,,,,,,,,,,,,,,,0.0,11.0,0.0,0.0,30.1,0.0,,0.0,0.0,,,35.3,0.0,0.0,-0.3,1.6,0.7,,,,,12.0,13.0,12.0,13.0,12.0,13.0,13.0,13.0,,,10.0,1.1,,0.0,-9.0,4.998,,,0.663,0.792,0.0,11.4,,,,,,2026-02-21-N890GF-SN35347-17.4.0.23677-REAL_FLITE-USER_LOG_DATA.csv,,,,,,,57.2,51.8,,,,,53.6,55.4,53.6,55.4,53.6,55.4,55.4,55.4,,,52.52,0.0,54.05,0.9449300699300698,0.9055944055944055,0.0,0.3373333333333333,420.8,True,2026-02-20 23:42:49 - Flight 6,
73.06,1.0,8.0,2026-02-20 23:43:57,37.08157,-121.59959,324.0,0.0,160.9,-12.6,,,,,0.0,11.1,-1.0,58.6,0.0,145.0,-0.0,-0.02,+1.0,,-44.0,14.0,0.0,30.11,84.0,,,326.0,,,,,0.0,0.0,,,,,,,,,,,,,,,,,,,0.0,11.0,0.0,0.0,30.1,0.0,,0.0,0.0,,,35.3,0.0,0.0,-0.3,1.6,0.7,,,,,12.0,13.0,12.0,13.0,12.0,13.0,13.0,13.0,,,10.0,1.1,,0.0,-9.0,4.998,,,0.663,0.792,0.0,11.4,,,,,,2026-02-21-N890GF-SN35347-17.4.0.23677-REAL_FLITE-USER_LOG_DATA.csv,,,,,,,57.2,51.8,,,,,53.6,55.4,53.6,55.4,53.6,55.4,55.4,55.4,,,52.52,0.0,54.05,0.9449300699300698,0.9055944055944055,0.0,0.3373333333333333,420.8,True,2026-02-20 23:42:49 - Flight 6,
74.06,1.0,8.0,2026-02-20 23:43:58,37.08157,-121.59959,324.0,0.0,160.9,-12.6,,,,,0.0,11.1,-1.0,58.7,0.0,145.0,-0.0,-0.02,+1.0,,-23.0,14.0,0.0,30.11,84.0,,,326.0,,,,,0.0,0.0,,,,,,,,,,,,,,,,,,,0.0,11.0,0.0,0.0,30.1,0.0,,0.0,0.0,,,35.3,0.0,0.0,-0.3,1.6,0.7,,,,,12.0,13.0,12.0,13.0,12.0,13.0,13.0,13.0,,,10.0,1.0,,0.0,-9.0,4.998,,,0.663,0.792,0.0,11.4,,,,,,2026-02-21-N890GF-SN35347-17.4.0.23677-REAL_FLITE-USER_LOG_DATA.csv,,,,,,,57.2,51.8,,,,,53.6,55.4,53.6,55.4,53.6,55.4,55.4,55.4,,,52.52,0.0,54.05,0.9449300699300698,0.9055944055944055,0.0,0.3373333333333333,420.8,True,2026-02-20 23:42:49 - Flight 6,
75.06,1.0,8.0,2026-02-20 23:43:59,37.08157,-121.59959,324.0,0.0,160.9,-12.6,,,,,0.0,11.1,-1.1,58.7,0.0,144.0,-0.0,-0.02,+1.0,,-61.0,14.0,0.0,30.11,85.0,,,326.0,,,,,0.0,0.0,,,,,,,,,,,,,,,,,,,0.0,11.0,0.0,0.0,30.1,0.0,,0.0,0.0,,,35.3,0.0,0.0,-0.3,1.6,0.7,,,,,12.0,13.0,12.0,13.0,12.0,13.0,13.0,13.0,,,9.0,1.0,,0.0,-9.0,4.998,,,0.663,0.792,0.0,11.4,,,,,,2026-02-21-N890GF-SN35347-17.4.0.23677-REAL_FLITE-USER_LOG_DATA.csv,,,,,,,57.2,51.8,,,,,53.6,55.4,53.6,55.4,53.6,55.4,55.4,55.4,,,52.52,0.0,54.05,0.9449300699300698,0.9055944055944055,0.0,0.3373333333333333,420.8,True,2026-02-20 23:42:49 - Flight 6,
76.06,1.0,8.0,2026-02-20 23:44:00,37.08157,-121.59959,324.0,0.0,160.9,-12.6,,,,,0.0,11.1,-1.1,58.7,0.0,143.0,0.0,-0.02,+1.0,,-53.0,14.0,0.0,30.11,85.0,,,326.0,,,,,0.0,0.0,,,,,,,,,,,,,,,,,,,0.0,11.0,0.0,0.0,30.1,0.0,,0.0,0.0,,,35.3,0.0,0.0,-0.3,1.6,0.7,,,,,12.0,13.0,12.0,13.0,12.0,13.0,13.0,13.0,,,9.0,1.0,,0.0,-9.0,4.998,,,0.663,0.792,0.0,11.4,,,,,,2026-02-21-N890GF-SN35347-17.4.0.23677-REAL_FLITE-USER_LOG_DATA.csv,,,,,,,57.2,51.8,,,,,53.6,55.4,53.6,55.4,53.6,55.4,55.4,55.4,,,52.52,0.0,54.05,0.9449300699300698,0.9055944055944055,0.0,0.3373333333333333,420.8,True,2026-02-20 23:42:49 - Flight 6,
77.06,1.0,9.0,2026-02-20 23:44:01,37.08151,-121.59958,383.0,0.0,160.9,-12.6,,,,,0.0,11.1,-1.1,58.8,0.0,142.0,0.0,-0.02,+1.0,,-48.0,14.0,0.0,30.11,85.0,,,326.0,,,,,0.0,0.0,,,,,,,,,,,,,,,,,,,0.0,11.0,0.0,0.0,30.1,0.0,,0.0,0.0,,,35.3,0.0,0.0,-0.3,1.6,0.7,,,,,12.0,13.0,12.0,13.0,12.0,13.0,13.0,13.0,,,9.0,1.0,,0.0,-9.0,4.998,,,0.663,0.792,0.0,11.4,,,,,,2026-02-21-N890GF-SN35347-17.4.0.23677-REAL_FLITE-USER_LOG_DATA.csv,,,,,,,57.2,51.8,,,,,53.6,55.4,53.6,55.4,53.6,55.4,55.4,55.4,,,52.52,0.0,54.05,0.9449300699300698,0.9055944055944055,0.0,0.3373333333333333,420.8,True,2026-02-20 23:42:49 - Flight 6,
78.06,1.0,9.0,2026-02-20 23:44:02,37.08154,-121.59959,353.0,0.0,160.9,-12.6,,,,,0.0,11.1,-1.1,58.7,0.0,140.0,-0.0,-0.02,+1.0,,-63.0,14.0,0.0,30.11,80.0,,,326.0,,,,,0.0,0.0,,,,,,,,,,,,,,,,,,,0.0,11.0,0.0,0.0,30.1,0.0,,0.0,0.0,,,35.3,0.0,0.0,-0.3,1.6,0.7,,,,,12.0,13.0,12.0,13.0,12.0,13.0,13.0,13.0,,,9.0,1.0,,0.0,-9.0,4.998,,,0.663,0.792,0.0,11.4,,,,,,2026-02-21-N890GF-SN35347-17.4.0.23677-REAL_FLITE-USER_LOG_DATA.csv,,,,,,,57.2,51.8,,,,,53.6,55.4,53.6,55.4,53.6,55.4,55.4,55.4,,,52.52,0.0,54.05,0.9449300699300698,0.9055944055944055,0.0,0.3373333333333333,420.8,True,2026-02-20 23:42:49 - Flight 6,
79.06,1.0,9.0,2026-02-20 23:44:03,37.08154,-121.59959,353.0,0.0,160.9,-12.6,,,,,0.0,11.1,-1.0,58.7,0.0,140.0,0.0,-0.02,+1.0,,-48.0,14.0,0.0,30.11,80.0,,,326.0,,,,,0.0,0.0,,,,,,,,,,,,,,,,,,,0.0,11.0,0.0,0.0,30.1,0.0,,0.0,0.0,,,35.3,0.0,0.0,-0.3,1.6,0.7,,,,,12.0,13.0,12.0,13.0,12.0,13.0,13.0,13.0,,,9.0,1.0,,0.0,-9.0,4.998,,,0.663,0.792,0.0,11.4,,,,,,2026-02-21-N890GF-SN35347-17.4.0.23677-REAL_FLITE-USER_LOG_DATA.csv,,,,,,,57.2,51.8,,,,,53.6,55.4,53.6,55.4,53.6,55.4,55.4,55.4,,,52.52,0.0,54.05,0.9449300699300698,0.9055944055944055,0.0,0.3373333333333333,420.8,True,2026-02-20 23:42:49 - Flight 6,
80.06,1.0,9.0,2026-02-20 23:44:04,37.08154,-121.59959,353.0,0.0,160.9,-12.6,,,,,0.0,11.1,-1.0,58.7,0.0,140.0,0.0,-0.02,+1.0,,-19.0,14.0,0.0,30.11,80.0,,,326.0,,,,,0.0,0.0,,,,,,,,,,,,,,,,,,,0.0,11.0,0.0,0.0,30.1,0.0,,0.0,0.0,,,35.3,0.0,0.0,-0.3,1.6,0.7,,,,,12.0,13.0,12.0,13.0,12.0,13.0,13.0,13.0,,,9.0,1.0,,0.0,-9.0,4.998,,,0.663,0.792,0.0,11.4,,,,,,2026-02-21-N890GF-SN35347-17.4.0.23677-REAL_FLITE-USER_LOG_DATA.csv,,,,,,,57.2,51.8,,,,,53.6,55.4,53.6,55.4,53.6,55.4,55.4,55.4,,,52.52,0.0,54.05,0.9449300699300698,0.9055944055944055,0.0,0.3373333333333333,420.8,True,2026-02-20 23:42:49 - Flight 6,
81.06,1.0,9.0,2026-02-20 23:44:05,37.08154,-121.59959,353.0,0.0,160.9,-12.6,,,,,0.0,11.1,-1.0,58.7,0.0,140.0,-0.0,-0.02,+1.0,,5.0,14.0,0.0,30.11,79.0,,,326.0,,,,,0.0,0.0,,,,,,,,,,,,,,,,,,,0.0,11.0,0.0,0.0,30.1,0.0,,0.0,0.0,,,35.3,0.0,0.0,-0.3,1.6,0.7,,,,,12.0,13.0,12.0,13.0,12.0,13.0,13.0,13.0,,,9.0,1.0,,0.0,-9.0,4.998,,,0.663,0.792,0.0,11.4,,,,,,2026-02-21-N890GF-SN35347-17.4.0.23677-REAL_FLITE-USER_LOG_DATA.csv,,,,,,,57.2,51.8,,,,,53.6,55.4,53.6,55.4,53.6,55.4,55.4,55.4,,,52.52,0.0,54.05,0.9449300699300698,0.9055944055944055,0.0,0.3373333333333333,420.8,True,2026-02-20 23:42:49 - Flight 6,
82.06,1.0,9.0,2026-02-20 23:44:06,37.08154,-121.59959,354.0,0.0,160.9,-12.6,,,,,0.0,11.1,-1.0,58.7,0.0,140.0,-0.0,-0.02,+1.0,,18.0,14.0,0.0,30.11,79.0,,,326.0,,,,,0.0,0.0,,,,,,,,,,,,,,,,,,,0.0,11.0,0.0,0.0,30.1,0.0,,0.0,0.0,,,35.3,0.0,0.0,-0.3,1.6,0.7,,,,,12.0,13.0,12.0,13.0,12.0,13.0,13.0,13.0,,,9.0,1.0,,0.0,-9.0,4.998,,,0.663,0.792,0.0,11.4,,,,,,2026-02-21-N890GF-SN35347-17.4.0.23677-REAL_FLITE-USER_LOG_DATA.csv,,,,,,,57.2,51.8,,,,,53.6,55.4,53.6,55.4,53.6,55.4,55.4,55.4,,,52.52,0.0,54.05,0.9449300699300698,0.9055944055944055,0.0,0.3373333333333333,420.8,True,2026-02-20 23:42:49 - Flight 6,
83.06,1.0,9.0,2026-02-20 23:44:07,37.08154,-121.59959,354.0,0.0,160.9,-12.6,,,,,0.0,11.1,-1.1,58.7,0.0,140.0,-0.0,-0.02,+1.0,,37.0,14.0,0.0,30.11,79.0,,,326.0,,,,,0.0,0.0,,,,,,,,,,,,,,,,,,,0.0,11.0,0.0,0.0,30.1,0.0,,0.0,0.0,,,35.3,0.0,0.0,-0.3,1.6,0.7,,,,,12.0,13.0,12.0,13.0,12.0,13.0,13.0,13.0,,,9.0,1.0,,0.0,-9.0,4.998,,,0.663,0.792,0.0,11.4,,,,,,2026-02-21-N890GF-SN35347-17.4.0.23677-REAL_FLITE-USER_LOG_DATA.csv,,,,,,,57.2,51.8,,,,,53.6,55.4,53.6,55.4,53.6,55.4,55.4,55.4,,,52.52,0.0,54.05,0.9449300699300698,0.9055944055944055,0.0,0.3373333333333333,420.8,True,2026-02-20 23:42:49 - Flight 6,
84.06,1.0,9.0,2026-02-20 23:44:08,37.08154,-121.59959,354.0,0.0,160.9,-12.6,,,,,0.0,11.1,-1.1,58.7,0.0,140.0,-0.0,-0.02,+1.0,,26.0,14.0,0.0,30.11,79.0,,,326.0,,,,,0.0,0.0,,,,,,,,,,,,,,,,,,,0.0,11.0,0.0,0.0,30.1,0.0,,0.0,0.0,,,35.3,0.0,0.0,-0.3,1.6,0.7,,,,,12.0,13.0,12.0,13.0,12.0,13.0,13.0,13.0,,,9.0,1.0,,0.0,-9.0,4.998,,,0.663,0.792,0.0,11.4,,,,,,2026-02-21-N890GF-SN35347-17.4.0.23677-REAL_FLITE-USER_LOG_DATA.csv,,,,,,,57.2,51.8,,,,,53.6,55.4,53.6,55.4,53.6,55.4,55.4,55.4,,,52.52,0.0,54.05,0.9449300699300698,0.9055944055944055,0.0,0.3373333333333333,420.8,True,2026-02-20 23:42:49 - Flight 6,
85.06,1.0,9.0,2026-02-20 23:44:09,37.08154,-121.59959,355.0,0.0,160.9,-12.6,,,,,0.0,11.1,-1.0,58.8,0.0,140.0,0.0,-0.02,+1.0,,33.0,14.0,0.0,30.11,79.0,,,326.0,,,,,0.0,0.0,,,,,,,,,,,,,,,,,,,0.0,11.0,0.0,0.0,30.1,0.0,,0.0,0.0,,,35.3,0.0,0.0,-0.4,1.6,0.7,,,,,12.0,13.0,12.0,13.0,12.0,13.0,13.0,13.0,,,9.0,1.0,,0.0,-9.0,4.998,,,0.663,0.792,0.0,11.4,,,,,,2026-02-21-N890GF-SN35347-17.4.0.23677-REAL_FLITE-USER_LOG_DATA.csv,,,,,,,57.2,51.8,,,,,53.6,55.4,53.6,55.4,53.6,55.4,55.4,55.4,,,52.52,0.0,54.05,0.9449300699300698,0.9055944055944055,0.0,0.3373333333333333,420.8,True,2026-02-20 23:42:49 - Flight 6,
86.06,1.0,9.0,2026-02-20 23:44:10,37.08154,-121.59959,355.0,0.0,160.9,-12.6,,,,,0.0,11.1,-1.1,58.8,0.0,140.0,-0.0,-0.02,+1.0,,56.0,14.0,0.0,30.11,80.0,,,326.0,,,,,0.0,0.0,,,,,,,,,,,,,,,,,,,0.0,11.0,0.0,0.0,30.1,0.0,,0.0,0.0,,,35.3,0.0,0.0,-0.4,1.6,0.7,,,,,12.0,13.0,12.0,13.0,12.0,13.0,13.0,13.0,,,9.0,1.0,,0.0,-9.0,4.998,,,0.663,0.792,0.0,11.4,,,,,,2026-02-21-N890GF-SN35347-17.4.0.23677-REAL_FLITE-USER_LOG_DATA.csv,,,,,,,57.2,51.8,,,,,53.6,55.4,53.6,55.4,53.6,55.4,55.4,55.4,,,52.52,0.0,54.05,0.9449300699300698,0.9055944055944055,0.0,0.3373333333333333,420.8,True,2026-02-20 23:42:49 - Flight 6,
87.06,2.0,9.0,2026-02-20 23:44:11,37.08152,-121.59959,346.0,0.0,160.9,-12.6,,,,,0.0,11.1,-1.1,58.8,0.0,140.0,-0.0,-0.02,+1.0,,28.0,14.0,0.0,30.11,80.0,,,326.0,,,,,0.0,0.0,,,,,,,,,,,,,,,,,,,0.0,11.0,0.0,0.0,30.1,0.0,,0.0,0.0,,,35.3,0.0,0.0,-0.4,1.6,0.7,,,,,12.0,13.0,12.0,13.0,12.0,13.0,13.0,13.0,,,9.0,0.0,,0.0,-9.0,4.998,,,0.663,0.792,0.0,11.4,,,,,,2026-02-21-N890GF-SN35347-17.4.0.23677-REAL_FLITE-USER_LOG_DATA.csv,,,,,,,57.2,51.8,,,,,53.6,55.4,53.6,55.4,53.6,55.4,55.4,55.4,,,52.52,0.0,54.05,0.9449300699300698,0.9055944055944055,0.0,0.3373333333333333,420.8,True,2026-02-20 23:42:49 - Flight 6,
88.06,2.0,9.0,2026-02-20 23:44:12,37.08152,-121.59959,346.0,0.0,160.9,-12.6,,,,,0.0,11.1,-1.1,58.8,0.0,140.0,-0.0,-0.02,+1.0,,8.0,14.0,0.0,30.11,80.0,,,326.0,,,,,0.0,0.0,,,,,,,,,,,,,,,,,,,0.0,11.0,0.0,0.0,30.1,0.0,,0.0,0.0,,,35.3,0.0,0.0,-0.4,1.6,0.7,,,,,12.0,13.0,12.0,13.0,12.0,13.0,13.0,13.0,,,9.0,0.0,,0.0,-9.0,4.998,,,0.663,0.792,0.0,11.4,,,,,,2026-02-21-N890GF-SN35347-17.4.0.23677-REAL_FLITE-USER_LOG_DATA.csv,,,,,,,57.2,51.8,,,,,53.6,55.4,53.6,55.4,53.6,55.4,55.4,55.4,,,52.52,0.0,54.05,0.9449300699300698,0.9055944055944055,0.0,0.3373333333333333,420.8,True,2026-02-20 23:42:49 - Flight 6,
89.06,2.0,9.0,2026-02-20 23:44:13,37.08152,-121.59959,346.0,0.0,160.9,-12.6,,,,,0.0,11.1,-1.1,58.8,0.0,140.0,-0.0,-0.02,+1.0,,-2.0,14.0,0.0,30.11,89.0,,,326.0,,,,,0.0,0.0,,,,,,,,,,,,,,,,,,,0.0,11.0,0.0,0.0,30.1,0.0,,0.0,0.0,,,35.3,0.0,0.0,-0.4,1.6,0.7,,,,,12.0,13.0,12.0,13.0,12.0,13.0,13.0,13.0,,,9.0,0.0,,0.0,-9.0,4.998,,,0.663,0.792,0.0,11.4,,,,,,2026-02-21-N890GF-SN35347-17.4.0.23677-REAL_FLITE-USER_LOG_DATA.csv,,,,,,,57.2,51.8,,,,,53.6,55.4,53.6,55.4,53.6,55.4,55.4,55.4,,,52.52,0.0,54.05,0.9449300699300698,0.9055944055944055,0.0,0.3373333333333333,420.8,True,2026-02-20 23:42:49 - Flight 6,
90.06,2.0,9.0,2026-02-20 23:44:14,37.08152,-121.59959,346.0,0.0,160.9,-12.6,,,,,0.0,11.1,-1.1,58.8,0.0,140.0,-0.0,-0.02,+1.0,,-2.0,14.0,0.0,30.11,89.0,,,326.0,,,,,0.0,0.0,,,,,,,,,,,,,,,,,,,0.0,11.0,0.0,0.0,30.1,0.0,,0.0,0.0,,,35.3,0.0,0.0,-0.4,1.6,0.7,,,,,12.0,13.0,12.0,13.0,12.0,13.0,13.0,13.0,,,9.0,0.0,,0.0,-9.0,4.998,,,0.663,0.792,0.0,11.4,,,,,,2026-02-21-N890GF-SN35347-17.4.0.23677-REAL_FLITE-USER_LOG_DATA.csv,,,,,,,57.2,51.8,,,,,53.6,55.4,53.6,55.4,53.6,55.4,55.4,55.4,,,52.52,0.0,54.05,0.9449300699300698,0.9055944055944055,0.0,0.3373333333333333,420.8,True,2026-02-20 23:42:49 - Flight 6,
91.06,2.0,9.0,2026-02-20 23:44:15,37.08152,-121.59959,346.0,0.0,160.9,-12.6,,,,,0.0,11.1,-1.1,58.8,0.0,140.0,-0.0,-0.02,+1.0,,21.0,14.0,0.0,30.11,89.0,,,326.0,,,,,0.0,0.0,,,,,,,,,,,,,,,,,,,0.0,11.0,0.0,0.0,30.1,0.0,,0.0,0.0,,,35.3,0.0,0.0,-0.4,1.6,0.7,,,,,12.0,13.0,12.0,13.0,12.0,13.0,13.0,13.0,,,9.0,0.0,,0.0,-9.0,4.998,,,0.663,0.792,0.0,11.4,,,,,,2026-02-21-N890GF-SN35347-17.4.0.23677-REAL_FLITE-USER_LOG_DATA.csv,,,,,,,57.2,51.8,,,,,53.6,55.4,53.6,55.4,53.6,55.4,55.4,55.4,,,52.52,0.0,54.05,0.9449300699300698,0.9055944055944055,0.0,0.3373333333333333,420.8,True,2026-02-20 23:42:49 - Flight 6,
92.06,2.0,9.0,2026-02-20 23:44:16,37.08152,-121.59959,346.0,0.1,160.9,-12.6,,,,,0.0,11.1,-1.1,58.7,0.0,140.0,0.0,-0.02,+1.0,,36.0,14.0,0.0,30.11,90.0,,,326.0,,,,,0.0,0.0,,,,,,,,,,,,,,,,,,,0.0,11.0,0.0,0.0,30.1,0.0,,0.0,0.0,,,35.3,0.0,0.0,-0.4,1.6,0.7,,,,,12.0,13.0,12.0,13.0,12.0,13.0,12.0,13.0,,,8.0,0.0,,0.0,-9.0,4.988,,,0.663,0.792,0.0,11.4,,,,,,2026-02-21-N890GF-SN35347-17.4.0.23677-REAL_FLITE-USER_LOG_DATA.csv,,,,,,,57.2,51.8,,,,,53.6,55.4,53.6,55.4,53.6,55.4,53.6,55.4,,,52.52,0.0,53.6,0.9370629370629371,0.9055944055944055,0.0,0.42166666666666663,420.8,True,2026-02-20 23:42:49 - Flight 6,
93.06,2.0,9.0,2026-02-20 23:44:17,37.08152,-121.59959,343.0,0.1,160.9,-12.6,,,,,0.0,11.2,-1.1,58.7,0.0,140.0,0.0,-0.02,+1.0,,52.0,14.0,0.0,30.11,90.0,,,326.0,,,,,0.0,0.0,,,,,,,,,,,,,,,,,,,0.0,11.0,0.0,0.0,30.1,0.0,,0.0,0.0,,,35.3,0.0,0.0,-0.4,1.6,0.7,,,,,12.0,13.0,12.0,13.0,12.0,13.0,12.0,13.0,,,8.0,0.0,,0.0,-9.0,0.011,,,0.663,0.792,0.0,11.4,,,,,,2026-02-21-N890GF-SN35347-17.4.0.23677-REAL_FLITE-USER_LOG_DATA.csv,,,,,,,57.2,51.8,,,,,53.6,55.4,53.6,55.4,53.6,55.4,53.6,55.4,,,52.52,0.0,53.6,0.9370629370629371,0.9055944055944055,0.0,0.5903333333333334,420.8,True,2026-02-20 23:42:49 - Flight 6,
94.06,2.0,9.0,2026-02-20 23:44:18,37.08152,-121.59959,343.0,0.1,160.9,-12.6,,,,,0.0,11.2,-1.1,58.7,0.0,140.0,0.0,-0.02,+1.0,,64.0,14.0,0.0,30.11,90.0,,,326.0,,,,,0.0,0.0,,,,,,,,,,,,,,,,,,,0.0,11.0,0.0,0.0,30.1,0.0,,0.0,0.0,,,35.3,0.0,0.0,-0.4,1.6,0.7,,,,,12.0,13.0,12.0,13.0,12.0,13.0,12.0,13.0,,,8.0,0.0,,0.0,-9.0,0.004,,,0.663,0.792,0.0,11.4,,,,,,2026-02-21-N890GF-SN35347-17.4.0.23677-REAL_FLITE-USER_LOG_DATA.csv,,,,,,,57.2,51.8,,,,,53.6,55.4,53.6,55.4,53.6,55.4,53.6,55.4,,,52.52,0.0,53.6,0.9370629370629371,0.9055944055944055,0.0,0.759,420.8,True,2026-02-20 23:42:49 - Flight 6,
95.06,2.0,9.0,2026-02-20 23:44:19,37.08152,-121.59959,343.0,0.1,160.9,-12.6,,,,,0.0,11.1,-1.1,58.7,0.0,140.0,-0.0,-0.02,+1.0,,68.0,14.0,0.0,30.11,90.0,,,326.0,,,,,0.0,0.0,,,,,,,,,,,,,,,,,,,0.0,11.0,0.0,0.0,30.1,0.0,,0.0,0.0,,,35.3,0.0,0.0,-0.4,1.6,0.7,,,,,12.0,13.0,12.0,13.0,12.0,13.0,12.0,13.0,,,8.0,0.0,,0.0,-9.0,0.002,,,0.663,0.792,0.0,11.4,,,,,,2026-02-21-N890GF-SN35347-17.4.0.23677-REAL_FLITE-USER_LOG_DATA.csv,,,,,,,57.2,51.8,,,,,53.6,55.4,53.6,55.4,53.6,55.4,53.6,55.4,,,52.52,0.0,53.6,0.9370629370629371,0.9055944055944055,0.0,0.9276666666666666,420.8,True,2026-02-20 23:42:49 - Flight 6,
96.06,2.0,9.0,2026-02-20 23:44:20,37.08152,-121.59959,342.0,0.0,160.9,-12.6,,,,,0.0,11.2,-1.1,58.7,0.0,140.0,-0.0,-0.02,+1.0,,55.0,14.0,0.0,30.11,90.0,,,326.0,,,,,0.0,0.0,,,,,,,,,,,,,,,,,,,0.0,11.0,0.0,0.0,30.1,0.0,,0.0,0.0,,,35.3,0.0,0.0,-0.4,1.6,0.7,,,,,12.0,13.0,12.0,13.0,12.0,13.0,12.0,13.0,,,8.0,0.0,,0.0,-9.0,0.001,,,0.663,0.792,0.0,11.4,,,,,,2026-02-21-N890GF-SN35347-17.4.0.23677-REAL_FLITE-USER_LOG_DATA.csv,,,,,,,57.2,51.8,,,,,53.6,55.4,53.6,55.4,53.6,55.4,53.6,55.4,,,52.52,0.0,53.6,0.9370629370629371,0.9055944055944055,0.0,1.012,420.8,True,2026-02-20 23:42:49 - Flight 6,
97.06,2.0,9.0,2026-02-20 23:44:21,37.08152,-121.59959,340.0,0.0,160.9,-12.6,,,,,0.0,11.2,-1.1,58.7,0.0,142.0,-0.0,-0.02,+1.0,,72.0,14.0,0.0,30.11,90.0,,,326.0,,,,,0.0,0.0,,,,,,,,,,,,,,,,,,,0.0,11.0,0.0,0.0,30.1,0.0,,0.0,0.0,,,35.3,0.0,0.0,-0.4,1.6,0.7,,,,,12.0,13.0,13.0,13.0,12.0,13.0,13.0,13.0,,,8.0,0.0,,0.0,-9.0,0.001,,,0.663,0.792,0.0,11.4,,,,,,2026-02-21-N890GF-SN35347-17.4.0.23677-REAL_FLITE-USER_LOG_DATA.csv,,,,,,,57.2,51.8,,,,,53.6,55.4,55.4,55.4,53.6,55.4,55.4,55.4,,,52.52,0.0,54.5,0.9527972027972027,0.9055944055944055,0.0,1.012,420.8,True,2026-02-20 23:42:49 - Flight 6,
98.06,2.0,9.0,2026-02-20 23:44:22,37.08152,-121.59958,339.0,0.1,160.9,-12.6,,,,,0.0,11.2,-1.1,58.8,0.0,143.0,0.0,-0.02,+1.0,,65.0,14.0,0.0,30.11,92.0,,,326.0,,,,,0.0,0.0,,,,,,,,,,,,,,,,,,,0.0,11.0,0.0,0.0,30.1,0.0,,0.0,0.0,,,35.3,0.0,0.0,-0.4,1.6,0.7,,,,,13.0,13.0,13.0,13.0,12.0,13.0,13.0,13.0,,,8.0,0.0,,0.0,-9.0,0.001,,,0.663,0.792,0.0,11.4,,,,,,2026-02-21-N890GF-SN35347-17.4.0.23677-REAL_FLITE-USER_LOG_DATA.csv,,,,,,,57.2,51.8,,,,,55.4,55.4,55.4,55.4,53.6,55.4,55.4,55.4,,,52.52,0.0,54.95,0.9606643356643356,0.9055944055944055,0.0,1.0963333333333334,420.8,True,2026-02-20 23:42:49 - Flight 6,
99.06,2.0,9.0,2026-02-20 23:44:23,37.08152,-121.59958,343.0,0.1,160.9,-12.6,,,,,0.0,11.2,-1.1,58.8,0.0,144.0,-0.0,-0.02,+1.0,,51.0,14.0,0.0,30.11,92.0,,,326.0,,,,,0.0,0.0,,,,,,,,,,,,,,,,,,,0.0,11.0,0.0,0.0,30.1,0.0,,0.0,0.0,,,35.3,0.0,0.0,-0.4,1.6,0.7,,,,,13.0,13.0,13.0,13.0,12.0,13.0,13.0,13.0,,,8.0,0.0,,0.0,-9.0,0.001,,,0.663,0.792,0.0,11.4,,,,,,2026-02-21-N890GF-SN35347-17.4.0.23677-REAL_FLITE-USER_LOG_DATA.csv,,,,,,,57.2,51.8,,,,,55.4,55.4,55.4,55.4,53.6,55.4,55.4,55.4,,,52.52,0.0,54.95,0.9606643356643356,0.9055944055944055,0.0,1.265,420.8,True,2026-02-20 23:42:49 - Flight 6,
