Session Time,GPS Fix Quality,Number of Satellites,GPS Date & Time,Latitude (deg),Longitude (deg),GPS Altitude (feet),Ground Speed (knots),Ground Track (deg),Mag Var (deg),Cross Track Error (NM),Destination Waypoint ID,Range to Destination (NM),Bearing to Destination (deg),System Time,Pitch (deg),Roll (deg),Magnetic Heading (deg),Indicated Airspeed (knots),Pressure Altitude (ft),Turn Rate (deg/s),Lateral Accel (g),Vertical Accel(g),Angle of Attack (%),Vertical Speed (ft/min),OAT (deg F),True Airspeed (knots),Barometer Setting (inHg),Density Altitude (ft),Wind Direction (deg),Wind Speed (knots),Heading Bug (deg),Altitude Bug (ft),Airspeed Bug (knots),Vertical Speed Bug (ft/min),Course (deg),CDI Source Type,CDI Source Port,CDI Scale (NM),CDI Deflection (%),Glideslope (%),AP Engaged,AP Roll Mode,AP Roll Force,AP Roll Position (steps),AP Roll Slip (bool),AP Pitch Force,AP Pitch Position (steps),AP Pitch Slip (bool),AP Yaw Force,AP Yaw Position,AP Yaw Slip (bool),Transponder Status,Transponder Reply (bool),Transponder Identing (bool),Transponder Code (octal),Oil Pressure (PSI),Oil Temp (deg F),RPM L,RPM R,Manifold Pressure (inHg),Fuel Flow 1 (gal/hr),Fuel Flow 2 (gal/hr),Total Fuel Flow (gal/hr),Fuel Pressure (PSI),Fuel Level L (gal),Fuel Level R (gal),Fuel Remaining (gal),Volts 1,Volts 2,Amps,Hobbs Time,Tach Time,Thermocouple 1 (deg F),Thermocouple 2 (deg F),Thermocouple 3 (deg F),Thermocouple 4 (deg F),CHT 4 (deg F),EGT 4 (deg F),CHT 3 (deg F),EGT 3 (deg F),CHT 2 (deg F),EGT 2 (deg F),CHT 1 (deg F),EGT 1 (deg F),Thermocouple 13 (deg F),Thermocouple 14 (deg F),ELEV POSITION (%),CO PPM PRESSURE (PSI),GP Input 3,FUEL PRESSURE (PSI),AILERN POSITION (%),CANOPY CONTACT (V),GP Input 7,GP Input 8,LEFT LEVEL (Sensor V),RIGHT LEVEL (Sensor V),OIL PRESSURE (PSI),OIL TEMPERATURE (deg F),GP Input 13,Contacts,Percent Power,EGT Leaning State,Unnamed: 103,RPM,AVG_CHT,CHT_OAT_Ratio,Fuel Flow Integral,Distance Traveled,Max CHT,Engine Run,Flight ID,Fuel Flow,MPG
0.06,1,7,2026-03-18 22:55:22,37.08163,-121.59962,385.0,0.0,344.7,-12.7,,,,,0.0,,,,,,,,,,,91.4,,,,,,42.0,,125.0,800.0,,0.0,0.0,,,,,,,,,,,,,,,,,,,,,0.0,0.0,,0.0,,,,,,18.4,,,,6.8,5.3,,,,,,,,,,,,,,,,,,,,,,,,,,,,,,,,0.0,,,0.0,0.0,413.6,True,2026-03-18 22:55:22 - Flight 1,0.0,0.0
1.06,1,7,2026-03-18 22:55:23,37.08163,-121.59962,383.0,0.0,344.7,-12.6,,,,,0.0,10.7,-0.5,4.0,0.0,224.0,-0.0,-0.01,1.0,,-38.0,91.4,0.0,30.06,2399.0,,,42.0,,125.0,800.0,,0.0,0.0,,,,,,,,,,,,,,,,,,,,,0.0,0.0,,0.0,,0.0,,,,18.4,0.0,0.0,-0.1,6.8,5.3,,,,,84.2,86.0,84.2,86.0,84.2,86.0,84.2,86.0,,,12.0,254.1,,1.0,1.0,4.998,,,1.525,1.387,0.0,238.45999999999998,,,,,,0.0,84.2,0.9212253829321663,0.0,0.0,413.6,True,2026-03-18 22:55:22 - Flight 1,0.0,0.0
2.06,1,7,2026-03-18 22:55:24,37.08163,-121.59962,381.0,0.0,344.7,-12.6,,,,,0.0,10.7,-0.5,4.1,0.0,224.0,0.0,-0.01,1.0,,5.0,91.4,0.0,30.06,2399.0,,,42.0,,125.0,800.0,,0.0,0.0,,,,,,,,,,,,,,,,,,,,,0.0,0.0,,0.0,,0.0,,,,18.4,0.0,0.0,-0.1,6.8,5.3,,,,,84.2,86.0,84.2,86.0,84.2,86.0,84.2,86.0,,,12.0,254.1,,1.0,1.0,4.998,,,1.525,1.387,0.0,82.4,,,,,,0.0,84.2,0.9212253829321663,0.0,0.0,413.6,True,2026-03-18 22:55:22 - Flight 1,0.0,0.0
3.06,1,7,2026-03-18 22:55:25,37.08163,-121.59962,379.0,0.0,344.7,-12.6,,,,,0.0,10.7,-0.4,4.2,0.0,224.0,0.0,-0.01,1.0,,-15.0,91.4,0.0,30.06,2399.0,,,42.0,,125.0,800.0,,0.0,0.0,,,,,,,,,,,,,,,,,,,,,0.0,0.0,,0.0,,0.0,,,,18.4,0.0,0.0,-0.1,6.8,5.3,,,,,82.4,86.0,82.4,86.0,82.4,86.0,84.2,86.0,,,12.0,254.1,,1.0,1.0,4.998,,,1.525,1.388,0.0,82.22,,,,,,0.0,82.85000000000001,0.9064551422319476,0.0,0.0,413.6,True,2026-03-18 22:55:22 - Flight 1,0.0,0.0
4.06,1,7,2026-03-18 22:55:26,37.08162,-121.59962,377.0,0.0,344.7,-12.6,,,,,0.0,10.7,-0.4,4.2,0.0,224.0,0.0,-0.01,1.0,,-5.0,91.4,0.0,30.06,2399.0,,,42.0,,125.0,800.0,,0.0,0.0,,,,,,,,,,,,,,,,,,,,,0.0,0.0,,0.0,,0.0,,,,18.4,0.0,0.0,-0.1,6.8,5.3,,,,,82.4,86.0,82.4,86.0,82.4,86.0,84.2,86.0,,,12.0,254.1,,1.0,1.0,4.998,,,1.525,1.388,0.0,82.04,,,,,,0.0,82.85000000000001,0.9064551422319476,0.0,0.0,413.6,True,2026-03-18 22:55:22 - Flight 1,0.0,0.0
5.06,1,7,2026-03-18 22:55:27,37.08162,-121.59961,376.0,0.4,344.7,-12.6,,,,,0.0,10.7,-0.5,4.1,0.0,224.0,-0.0,-0.01,1.0,99.0,-7.0,91.4,0.0,30.06,2410.0,,,42.0,,,,,0.0,0.0,,,,,,,,,,,,,,,,,,,0.0,82.4,0.0,0.0,30.1,0.0,,0.0,1.0,,,18.4,0.0,0.0,-0.1,6.8,5.3,,,,,84.2,86.0,84.2,86.0,84.2,86.0,84.2,86.0,,,12.0,254.1,,1.0,1.0,4.998,,,1.525,1.388,0.0,82.04,,,,,,0.0,84.2,0.9212253829321663,0.0,0.3373333333333333,413.6,True,2026-03-18 22:55:22 - Flight 1,0.0,0.0
6.06,1,6,2026-03-18 22:55:28,37.08158,-121.59959,348.0,0.1,344.7,-12.6,,,,,0.0,10.7,-0.4,4.1,0.0,224.0,-0.0,-0.01,1.0,99.0,18.0,91.4,0.0,30.06,2410.0,,,42.0,,,,,0.0,0.0,,,,,,,,,,,,,,,,,,,0.0,82.4,0.0,0.0,30.1,0.0,,0.0,1.0,,,18.4,0.0,0.0,-0.1,6.8,5.3,,,,,84.2,86.0,84.2,86.0,84.2,86.0,84.2,86.0,,,12.0,254.1,,1.0,1.0,4.998,,,1.525,1.387,0.0,81.86,,,,,,0.0,84.2,0.9212253829321663,0.0,0.7589999999999999,413.6,True,2026-03-18 22:55:22 - Flight 1,0.0,0.0
7.06,1,6,2026-03-18 22:55:29,37.08158,-121.59959,348.0,0.0,344.7,-12.6,,,,,0.0,10.7,-0.5,4.2,0.0,224.0,-0.0,-0.01,1.0,99.0,-20.0,91.4,0.0,30.06,2410.0,,,42.0,,,,,0.0,0.0,,,,,,,,,,,,,,,,,,,0.0,82.4,0.0,0.0,30.1,0.0,,0.0,1.0,,,18.4,0.0,0.0,-0.1,6.8,5.3,,,,,84.2,86.0,84.2,86.0,84.2,86.0,84.2,86.0,,,12.0,254.1,,1.0,1.0,4.998,,,1.525,1.388,0.0,81.86,,,,,,0.0,84.2,0.9212253829321663,0.0,0.8433333333333333,413.6,True,2026-03-18 22:55:22 - Flight 1,0.0,0.0
8.06,1,6,2026-03-18 22:55:30,37.08158,-121.59958,348.0,0.0,344.7,-12.6,,,,,0.0,10.8,-0.5,4.2,0.0,223.0,0.0,-0.01,1.0,99.0,-12.0,91.4,0.0,30.06,2419.0,,,42.0,,,,,0.0,0.0,,,,,,,,,,,,,,,,,,,0.0,82.4,0.0,0.0,30.1,0.0,,0.0,1.0,,,18.4,0.0,0.0,-0.1,6.8,5.3,,,,,82.4,86.0,82.4,86.0,82.4,86.0,84.2,86.0,,,12.0,254.1,,1.0,1.0,4.998,,,1.525,1.388,0.0,81.86,,,,,,0.0,82.85000000000001,0.9064551422319476,0.0,0.8433333333333333,413.6,True,2026-03-18 22:55:22 - Flight 1,0.0,0.0
9.06,1,6,2026-03-18 22:55:31,37.08158,-121.59958,347.0,0.1,344.7,-12.6,,,,,0.0,10.8,-0.5,4.2,0.0,223.0,0.0,-0.01,1.0,99.0,-19.0,91.4,0.0,30.06,2419.0,,,42.0,,,,,0.0,0.0,,,,,,,,,,,,,,,,,,,0.0,82.4,0.0,0.0,30.1,0.0,,0.0,1.0,,,18.4,0.0,0.0,-0.1,6.8,5.3,,,,,82.4,86.0,82.4,86.0,82.4,86.0,84.2,86.0,,,12.0,254.1,,1.0,1.0,4.998,,,1.525,1.388,0.0,81.86,,,,,,0.0,82.85000000000001,0.9064551422319476,0.0,0.9276666666666666,413.6,True,2026-03-18 22:55:22 - Flight 1,0.0,0.0
10.06,1,6,2026-03-18 22:55:32,37.08158,-121.59958,346.0,0.0,344.7,-12.6,,,,,0.0,10.8,-0.5,4.1,0.0,222.0,0.0,-0.01,1.0,99.0,-40.0,91.4,0.0,30.06,2419.0,,,42.0,,,,,0.0,0.0,,,,,,,,,,,,,,,,,,,0.0,82.4,0.0,0.0,30.1,0.0,,0.0,1.0,,,18.4,0.0,0.0,-0.1,6.8,5.3,,,,,84.2,86.0,84.2,86.0,84.2,86.0,84.2,86.0,,,12.0,254.1,,1.0,1.0,4.998,,,1.525,1.387,0.0,81.68,,,,,,0.0,84.2,0.9212253829321663,0.0,1.012,413.6,True,2026-03-18 22:55:22 - Flight 1,0.0,0.0
11.06,1,6,2026-03-18 22:55:33,37.08158,-121.59958,346.0,0.0,344.7,-12.6,,,,,0.0,10.8,-0.5,4.0,0.0,221.0,0.0,-0.01,1.0,99.0,-43.0,91.4,0.0,30.06,2426.0,,,42.0,,,,,0.0,0.0,,,,,,,,,,,,,,,,,,,0.0,82.4,0.0,0.0,30.1,0.0,,0.0,1.0,,,18.4,0.0,0.0,-0.1,6.8,5.3,,,,,84.2,86.0,84.2,86.0,84.2,86.0,84.2,86.0,,,12.0,254.0,,1.0,1.0,4.998,,,1.525,1.387,0.0,81.68,,,,,,0.0,84.2,0.9212253829321663,0.0,1.012,413.6,True,2026-03-18 22:55:22 - Flight 1,0.0,0.0
12.06,1,6,2026-03-18 22:55:34,37.08158,-121.59958,345.0,0.0,344.7,-12.6,,,,,0.0,10.8,-0.5,4.0,0.0,221.0,0.0,-0.01,1.0,99.0,-49.0,91.4,0.0,30.06,2426.0,,,42.0,,,,,0.0,0.0,,,,,,,,,,,,,,,,,,,0.0,82.4,0.0,0.0,30.1,0.0,,0.0,1.0,,,18.4,0.0,0.0,-0.1,6.8,5.3,,,,,84.2,86.0,84.2,86.0,84.2,86.0,84.2,86.0,,,12.0,254.0,,1.0,1.0,4.998,,,1.525,1.387,0.0,81.68,,,,,,0.0,84.2,0.9212253829321663,0.0,1.012,413.6,True,2026-03-18 22:55:22 - Flight 1,0.0,0.0
13.06,1,6,2026-03-18 22:55:35,37.08158,-121.59958,343.0,0.1,344.7,-12.6,,,,,0.0,10.8,-0.5,4.0,0.0,220.0,0.0,-0.01,1.0,99.0,-43.0,91.4,0.0,30.06,2426.0,,,42.0,,,,,0.0,0.0,,,,,,,,,,,,,,,,,,,0.0,82.4,0.0,0.0,30.1,0.0,,0.0,1.0,,,18.4,0.0,0.0,-0.1,6.8,5.3,,,,,84.2,86.0,84.2,86.0,84.2,86.0,84.2,86.0,,,12.0,254.0,,1.0,1.0,4.998,,,1.525,1.388,0.0,81.68,,,,,,0.0,84.2,0.9212253829321663,0.0,1.0963333333333334,413.6,True,2026-03-18 22:55:22 - Flight 1,0.0,0.0
14.06,1,6,2026-03-18 22:55:36,37.08158,-121.59957,342.0,0.0,344.7,-12.6,,,,,0.0,10.8,-0.5,3.9,0.0,217.0,-0.0,-0.01,1.0,99.0,-112.0,91.4,0.0,30.06,2422.0,,,42.0,,,,,0.0,0.0,,,,,,,,,,,,,,,,,,,0.0,82.4,0.0,0.0,30.1,0.0,,0.0,1.0,,,18.4,0.0,0.0,-0.1,6.8,5.3,,,,,84.2,86.0,84.2,86.0,84.2,86.0,84.2,86.0,,,12.0,254.0,,1.0,1.0,4.998,,,1.525,1.387,0.0,81.68,,,,,,0.0,84.2,0.9212253829321663,0.0,1.1806666666666665,413.6,True,2026-03-18 22:55:22 - Flight 1,0.0,0.0
15.06,1,6,2026-03-18 22:55:37,37.08158,-121.59957,341.0,0.0,344.7,-12.6,,,,,0.0,10.8,-0.6,3.9,0.0,214.0,-0.0,-0.01,1.0,99.0,-116.0,91.4,0.0,30.06,2422.0,,,42.0,,,,,0.0,0.0,,,,,,,,,,,,,,,,,,,0.0,82.4,0.0,0.0,30.1,0.0,,0.0,1.0,,,18.4,0.0,0.0,-0.1,6.8,5.3,,,,,84.2,86.0,84.2,86.0,84.2,86.0,84.2,86.0,,,12.0,254.0,,1.0,1.0,4.998,,,1.525,1.388,0.0,81.68,,,,,,0.0,84.2,0.9212253829321663,0.0,1.1806666666666665,413.6,True,2026-03-18 22:55:22 - Flight 1,0.0,0.0
16.06,1,6,2026-03-18 22:55:38,37.08158,-121.59957,340.0,0.0,344.7,-12.6,,,,,0.0,10.8,-0.6,3.8,0.0,213.0,-0.0,-0.01,1.0,99.0,-67.0,91.4,0.0,30.06,2422.0,,,42.0,,,,,0.0,0.0,,,,,,,,,,,,,,,,,,,0.0,82.4,0.0,0.0,30.1,0.0,,0.0,1.0,,,18.4,0.0,0.0,-0.1,6.8,5.3,,,,,84.2,86.0,84.2,86.0,84.2,86.0,84.2,86.0,,,12.0,254.0,,1.0,1.0,4.998,,,1.525,1.388,0.0,81.68,,,,,,0.0,84.2,0.9212253829321663,0.0,1.1806666666666665,413.6,True,2026-03-18 22:55:22 - Flight 1,0.0,0.0
17.06,1,6,2026-03-18 22:55:39,37.08157,-121.59957,339.0,0.0,344.7,-12.6,,,,,0.0,10.8,-0.6,3.8,0.0,212.0,-0.0,-0.01,1.0,99.0,-99.0,91.4,0.0,30.06,2427.0,,,42.0,,,,,0.0,0.0,,,,,,,,,,,,,,,,,,,0.0,82.4,0.0,0.0,30.1,0.0,,0.0,0.4,,,18.4,0.0,0.0,-0.1,6.8,5.3,,,,,84.2,86.0,84.2,86.0,84.2,86.0,84.2,87.8,,,12.0,254.0,,0.4,1.0,4.998,,,1.525,1.388,0.0,81.68,,,,,,0.0,84.2,0.9212253829321663,0.0,1.1806666666666665,413.6,True,2026-03-18 22:55:22 - Flight 1,0.0,0.0
18.06,1,6,2026-03-18 22:55:40,37.08157,-121.59957,339.0,0.0,344.7,-12.6,,,,,0.0,10.8,-0.6,3.8,0.0,210.0,-0.0,-0.01,1.0,99.0,-105.0,91.4,0.0,30.06,2427.0,,,42.0,,,,,0.0,0.0,,,,,,,,,,,,,,,,,,,0.0,82.4,0.0,0.0,30.1,0.0,,0.0,0.0,,,18.4,0.0,0.0,-0.1,6.8,5.3,,,,,84.2,86.0,84.2,86.0,84.2,86.0,84.2,86.0,,,12.0,254.0,,0.0,1.0,4.998,,,1.525,1.388,0.0,81.68,,,,,,0.0,84.2,0.9212253829321663,0.0,1.1806666666666665,413.6,True,2026-03-18 22:55:22 - Flight 1,0.0,0.0
19.06,1,6,2026-03-18 22:55:41,37.08157,-121.59957,338.0,0.0,344.7,-12.6,,,,,0.0,10.7,-0.6,3.8,0.0,208.0,-0.0,-0.01,1.0,99.0,-88.0,91.4,0.0,30.06,2427.0,,,42.0,,,,,0.0,0.0,,,,,,,,,,,,,,,,,,,0.0,82.4,0.0,0.0,30.1,0.0,,0.0,0.0,,,18.4,0.0,0.0,-0.1,6.8,5.3,,,,,84.2,86.0,84.2,86.0,84.2,86.0,84.2,87.8,,,12.0,254.0,,0.0,2.0,4.998,,,1.525,1.388,0.0,81.68,,,,,,0.0,84.2,0.9212253829321663,0.0,1.1806666666666665,413.6,True,2026-03-18 22:55:22 - Flight 1,0.0,0.0
20.06,1,6,2026-03-18 22:55:42,37.08157,-121.59957,337.0,0.0,344.7,-12.6,,,,,0.0,10.8,-0.6,3.8,0.0,207.0,-0.0,-0.01,1.0,99.0,-78.0,91.4,0.0,30.06,2432.0,,,42.0,,,,,0.0,0.0,,,,,,,,,,,,,,,,,,,0.0,82.4,0.0,0.0,30.1,0.0,,0.0,0.0,,,18.4,0.0,0.0,-0.1,6.8,5.3,,,,,84.2,86.0,84.2,86.0,84.2,86.0,84.2,87.8,,,12.0,254.0,,0.0,2.0,4.998,,,1.525,1.387,0.0,81.68,,,,,,0.0,84.2,0.9212253829321663,0.0,1.1806666666666665,413.6,True,2026-03-18 22:55:22 - Flight 1,0.0,0.0
21.06,1,6,2026-03-18 22:55:43,37.08157,-121.59957,336.0,0.0,344.7,-12.6,,,,,0.0,10.8,-0.6,3.9,0.0,206.0,0.0,-0.01,1.0,99.0,-92.0,91.4,0.0,30.06,2430.0,,,42.0,,,,,0.0,0.0,,,,,,,,,,,,,,,,,,,0.0,82.4,0.0,0.0,30.1,0.1,,0.1,12.6,,,18.4,0.0,0.0,-0.1,6.8,5.3,,,,,84.2,86.0,84.2,86.0,84.2,86.0,84.2,86.0,,,12.0,254.0,,12.6,2.0,4.998,,,1.525,1.388,0.0,81.68,,,,,,0.0,84.2,0.9212253829321663,1.388888888888889e-05,1.1806666666666665,413.6,True,2026-03-18 22:55:22 - Flight 1,0.1,0.0
22.06,1,6,2026-03-18 22:55:44,37.08157,-121.59956,336.0,0.0,344.7,-12.6,,,,,0.0,10.8,-0.7,3.8,0.0,204.0,0.0,-0.01,1.0,99.0,-85.0,91.4,0.0,30.06,2430.0,,,42.0,,,,,0.0,0.0,,,,,,,,,,,,,,,,,,,0.0,82.4,0.0,0.0,30.1,0.5,,0.5,30.1,,,18.4,0.0,0.0,-0.1,6.8,5.3,,,,,84.2,86.0,84.2,86.0,84.2,86.0,84.2,87.8,,,12.0,254.0,,30.1,2.0,4.998,,,1.525,1.387,0.0,81.68,,,,,,0.0,84.2,0.9212253829321663,9.722222222222222e-05,1.1806666666666665,413.6,True,2026-03-18 22:55:22 - Flight 1,0.5,0.0
23.06,1,6,2026-03-18 22:55:45,37.08157,-121.59956,335.0,0.0,344.7,-12.6,,,,,0.0,10.8,-0.6,3.8,0.0,203.0,0.0,-0.01,1.0,99.0,-65.0,91.4,0.0,30.06,2430.0,,,42.0,,,,,0.0,0.0,,,,,,,,,,,,,,,,,,,0.0,82.4,0.0,0.0,30.1,1.2,,1.2,31.3,,,18.4,0.0,0.0,-0.1,6.8,5.3,,,,,84.2,86.0,84.2,86.0,84.2,86.0,84.2,87.8,,,12.0,254.0,,31.3,2.0,4.998,,,1.525,1.388,0.0,81.68,,,,,,0.0,84.2,0.9212253829321663,0.0003333333333333333,1.1806666666666665,413.6,True,2026-03-18 22:55:22 - Flight 1,1.2,0.0
24.06,1,6,2026-03-18 22:55:46,37.08157,-121.59956,334.0,0.0,344.7,-12.6,,,,,0.0,10.7,-0.7,3.8,0.0,203.0,-0.0,-0.01,1.0,99.0,-45.0,91.4,0.0,30.06,2428.0,,,42.0,,,,,0.0,0.0,,,,,,,,,,,,,,,,,,,0.0,82.4,0.0,0.0,30.1,1.7,,1.7,31.1,,,18.4,0.0,0.0,-0.1,6.8,5.3,,,,,84.2,86.0,84.2,86.0,84.2,86.0,84.2,86.0,,,12.0,254.0,,31.1,2.0,4.998,,,1.525,1.388,0.0,81.68,,,,,,0.0,84.2,0.9212253829321663,0.000736111111111111,1.1806666666666665,413.6,True,2026-03-18 22:55:22 - Flight 1,1.7,0.0
25.06,1,7,2026-03-18 22:55:47,37.08157,-121.59958,385.0,0.0,344.7,-12.6,,,,,0.0,10.8,-0.6,3.8,0.0,202.0,0.0,-0.01,1.0,99.0,-52.0,91.4,0.0,30.06,2428.0,,,42.0,,,,,0.0,0.0,,,,,,,,,,,,,,,,,,,0.0,82.4,0.0,0.0,30.1,2.1,,2.1,31.1,,,18.4,0.0,0.0,-0.1,6.8,5.3,,,,,84.2,86.0,84.2,86.0,84.2,86.0,84.2,87.8,,,12.0,254.0,,31.1,2.0,4.998,,,1.525,1.388,0.0,81.68,,,,,,0.0,84.2,0.9212253829321663,0.0012638888888888888,1.1806666666666665,413.6,True,2026-03-18 22:55:22 - Flight 1,2.1,0.0
26.06,1,7,2026-03-18 22:55:48,37.08157,-121.59958,343.0,0.0,344.7,-12.6,,,,,0.0,10.8,-0.6,3.9,0.0,202.0,0.0,-0.01,1.0,99.0,-19.0,91.4,0.0,30.06,2428.0,,,42.0,,,,,0.0,0.0,,,,,,,,,,,,,,,,,,,0.0,82.4,0.0,0.0,30.1,2.4,,2.4,32.3,,,18.4,0.0,0.0,-0.1,6.8,5.3,,,,,84.2,86.0,84.2,86.0,84.2,86.0,84.2,87.8,,,12.0,254.0,,32.3,2.0,4.998,,,1.525,1.388,0.0,81.68,,,,,,0.0,84.2,0.9212253829321663,0.0018888888888888887,1.1806666666666665,413.6,True,2026-03-18 22:55:22 - Flight 1,2.4,0.0
27.06,1,7,2026-03-18 22:55:49,37.08157,-121.59958,344.0,0.0,344.7,-12.6,,,,,0.0,10.8,-0.6,3.9,0.0,201.0,0.0,-0.01,1.0,99.0,-53.0,91.4,0.0,30.06,2437.0,,,42.0,,,,,0.0,0.0,,,,,,,,,,,,,,,,,,,0.0,82.4,0.0,0.0,30.1,2.2,,2.2,31.0,,,18.4,0.0,0.0,-0.1,6.8,5.3,,,,,84.2,86.0,84.2,86.0,84.2,86.0,84.2,87.8,,,12.0,254.0,,31.0,2.0,4.998,,,1.525,1.388,0.0,81.68,,,,,,0.0,84.2,0.9212253829321663,0.0025277777777777777,1.1806666666666665,413.6,True,2026-03-18 22:55:22 - Flight 1,2.2,0.0
28.06,1,7,2026-03-18 22:55:50,37.08156,-121.59958,343.0,0.1,344.7,-12.6,,,,,0.0,10.8,-0.6,3.9,0.0,201.0,-0.0,-0.01,1.0,99.0,-12.0,91.4,0.0,30.06,2437.0,,,42.0,,,,,0.0,0.0,,,,,,,,,,,,,,,,,,,0.0,82.4,0.0,0.0,30.1,2.2,,2.2,30.8,,,18.4,0.0,0.0,-0.1,6.8,5.3,,,,,84.2,86.0,84.2,86.0,84.2,86.0,84.2,87.8,,,12.0,254.0,,30.8,2.0,4.998,,,1.525,1.387,0.0,81.68,,,,,,0.0,84.2,0.9212253829321663,0.003138888888888889,1.265,413.6,True,2026-03-18 22:55:22 - Flight 1,2.2,0.045454545454545456
29.06,1,7,2026-03-18 22:55:51,37.08156,-121.59958,343.0,0.1,344.7,-12.6,,,,,0.0,10.9,-0.6,3.8,0.0,201.0,0.0,-0.01,1.0,99.0,11.0,93.2,0.0,30.06,2437.0,,,42.0,,,,,0.0,0.0,,,,,,,,,,,,,,,,,,,0.0,82.4,0.0,0.0,30.1,0.0,,0.0,30.5,,,18.4,0.0,0.0,-0.1,6.8,5.3,,,,,84.2,86.0,84.2,86.0,84.2,86.0,84.2,87.8,,,12.0,254.0,,30.5,2.0,4.998,,,1.525,1.388,0.0,81.68,,,,,,0.0,84.2,0.9034334763948498,0.0034444444444444444,1.4336666666666666,413.6,True,2026-03-18 22:55:22 - Flight 1,0.0,0.0
30.06,1,7,2026-03-18 22:55:52,37.08156,-121.59958,343.0,0.0,344.7,-12.6,,,,,0.0,10.8,-0.6,3.9,0.0,200.0,0.0,-0.01,1.0,99.0,-55.0,93.2,0.0,30.06,2437.0,,,42.0,,,,,0.0,0.0,,,,,,,,,,,,,,,,,,,0.0,82.4,0.0,0.0,30.1,0.0,,0.0,30.3,,,18.4,0.0,0.0,-0.1,6.8,5.3,,,,,84.2,86.0,84.2,86.0,84.2,86.0,84.2,87.8,,,12.0,254.0,,30.3,2.0,4.998,,,1.525,1.387,0.0,81.5,,,,,,0.0,84.2,0.9034334763948498,0.0034444444444444444,1.518,413.6,True,2026-03-18 22:55:22 - Flight 1,0.0,0.0
31.06,1,7,2026-03-18 22:55:53,37.08156,-121.59958,342.0,0.0,344.7,-12.6,,,,,0.0,10.8,-0.6,3.9,0.0,200.0,-0.0,-0.01,1.0,99.0,-40.0,93.2,0.0,30.06,2437.0,,,42.0,,,,,0.0,0.0,,,,,,,,,,,,,,,,,,,0.0,82.4,0.0,0.0,30.1,0.0,,0.0,30.1,,,18.4,0.0,0.0,-0.1,6.8,5.3,,,,,84.2,86.0,84.2,86.0,84.2,86.0,84.2,86.0,,,12.0,253.9,,30.1,2.0,4.998,,,1.525,1.388,0.0,81.68,,,,,,0.0,84.2,0.9034334763948498,0.0034444444444444444,1.518,413.6,True,2026-03-18 22:55:22 - Flight 1,0.0,0.0
32.06,1,7,2026-03-18 22:55:54,37.08156,-121.59957,341.0,0.0,344.7,-12.6,,,,,0.0,10.8,-0.6,3.8,0.0,199.0,-0.0,-0.01,1.0,99.0,-57.0,93.2,0.0,30.06,2445.0,,,42.0,,,,,0.0,0.0,,,,,,,,,,,,,,,,,,,0.0,82.4,0.0,0.0,30.1,0.0,,0.0,30.0,,,18.4,0.0,0.0,-0.1,6.8,5.3,,,,,84.2,86.0,84.2,86.0,84.2,86.0,84.2,87.8,,,12.0,253.9,,30.0,2.0,4.998,,,1.525,1.388,0.0,81.68,,,,,,0.0,84.2,0.9034334763948498,0.0034444444444444444,1.518,413.6,True,2026-03-18 22:55:22 - Flight 1,0.0,0.0
33.06,1,7,2026-03-18 22:55:55,37.08155,-121.59957,341.0,0.1,344.7,-12.6,,,,,0.0,10.8,-0.6,3.8,0.0,198.0,-0.0,-0.01,1.0,99.0,-29.0,93.2,0.0,30.06,2446.0,,,42.0,,,,,0.0,0.0,,,,,,,,,,,,,,,,,,,0.0,82.4,0.0,0.0,30.1,0.0,,0.0,29.8,,,18.4,0.0,0.0,-0.1,6.8,5.3,,,,,84.2,86.0,84.2,86.0,84.2,86.0,84.2,86.0,,,12.0,253.9,,29.8,2.0,4.998,,,1.525,1.387,0.0,81.5,,,,,,0.0,84.2,0.9034334763948498,0.0034444444444444444,1.6023333333333332,413.6,True,2026-03-18 22:55:22 - Flight 1,0.0,0.0
34.06,1,7,2026-03-18 22:55:56,37.08155,-121.59957,340.0,0.0,344.7,-12.6,,,,,0.0,10.8,-0.5,3.9,0.0,198.0,-0.0,-0.01,1.0,99.0,2.0,93.2,0.0,30.06,2446.0,,,42.0,,,,,0.0,0.0,,,,,,,,,,,,,,,,,,,0.0,82.4,0.0,0.0,30.1,0.0,,0.0,29.7,,,18.4,0.0,0.0,-0.1,6.8,5.3,,,,,84.2,86.0,84.2,86.0,84.2,86.0,84.2,86.0,,,12.0,253.9,,29.7,2.0,4.998,,,1.525,1.387,0.0,81.68,,,,,,0.0,84.2,0.9034334763948498,0.0034444444444444444,1.6866666666666665,413.6,True,2026-03-18 22:55:22 - Flight 1,0.0,0.0
35.06,1,7,2026-03-18 22:55:57,37.08155,-121.59957,339.0,0.0,344.7,-12.6,,,,,0.0,10.8,-0.6,3.9,0.0,198.0,-0.0,-0.01,1.0,99.0,3.0,93.2,0.0,30.06,2446.0,,,42.0,,,,,0.0,0.0,,,,,,,,,,,,,,,,,,,0.0,82.4,0.0,0.0,30.1,0.0,,0.0,29.6,,,18.4,0.0,0.0,-0.1,6.8,5.3,,,,,84.2,86.0,84.2,86.0,84.2,86.0,84.2,87.8,,,12.0,253.9,,29.6,2.0,4.998,,,1.525,1.387,0.0,81.68,,,,,,0.0,84.2,0.9034334763948498,0.0034444444444444444,1.6866666666666665,413.6,True,2026-03-18 22:55:22 - Flight 1,0.0,0.0
36.06,1,7,2026-03-18 22:55:58,37.08155,-121.59957,338.0,0.0,344.7,-12.6,,,,,0.0,10.8,-0.5,3.9,0.0,198.0,0.0,-0.01,1.0,99.0,-8.0,93.2,0.0,30.06,2455.0,,,42.0,,,,,0.0,0.0,,,,,,,,,,,,,,,,,,,0.0,82.4,0.0,0.0,30.1,0.0,,0.0,29.4,,,18.4,0.0,0.0,-0.1,6.8,5.3,,,,,84.2,86.0,84.2,86.0,84.2,86.0,84.2,86.0,,,12.0,253.9,,29.4,2.0,4.998,,,1.525,1.388,0.0,81.5,,,,,,0.0,84.2,0.9034334763948498,0.0034444444444444444,1.6866666666666665,413.6,True,2026-03-18 22:55:22 - Flight 1,0.0,0.0
37.06,1,7,2026-03-18 22:55:59,37.08155,-121.59957,337.0,0.0,344.7,-12.6,,,,,0.0,10.9,-0.6,3.9,0.0,198.0,-0.0,-0.01,1.0,99.0,-15.0,93.2,0.0,30.06,2457.0,,,42.0,,,,,0.0,0.0,,,,,,,,,,,,,,,,,,,0.0,82.4,0.0,0.0,30.1,0.0,,0.0,29.3,,,18.4,0.0,0.0,-0.1,6.8,5.3,,,,,84.2,86.0,84.2,86.0,84.2,86.0,84.2,86.0,,,12.0,253.9,,29.3,2.0,4.998,,,1.525,1.388,0.0,81.68,,,,,,0.0,84.2,0.9034334763948498,0.0034444444444444444,1.6866666666666665,413.6,True,2026-03-18 22:55:22 - Flight 1,0.0,0.0
38.06,1,7,2026-03-18 22:56:00,37.08155,-121.59957,337.0,0.0,344.7,-12.6,,,,,0.0,10.9,-0.6,3.9,0.0,198.0,-0.0,-0.01,1.0,99.0,-37.0,93.2,0.0,30.06,2457.0,,,42.0,,,,,0.0,0.0,,,,,,,,,,,,,,,,,,,0.0,82.4,0.0,0.0,30.1,0.0,,0.0,29.2,,,18.4,0.0,0.0,-0.1,6.8,5.3,,,,,84.2,86.0,84.2,86.0,84.2,86.0,84.2,86.0,,,12.0,253.9,,29.2,2.0,4.998,,,1.525,1.388,0.0,81.68,,,,,,0.0,84.2,0.9034334763948498,0.0034444444444444444,1.6866666666666665,413.6,True,2026-03-18 22:55:22 - Flight 1,0.0,0.0
39.06,1,7,2026-03-18 22:56:01,37.08154,-121.59957,336.0,0.0,344.7,-12.6,,,,,0.0,10.9,-0.6,3.9,0.0,198.0,-0.0,-0.01,1.0,99.0,-22.0,93.2,0.0,30.06,2457.0,,,42.0,,,,,0.0,0.0,,,,,,,,,,,,,,,,,,,0.0,82.4,0.0,0.0,30.1,0.0,,0.0,29.1,,,18.4,0.0,0.0,-0.1,6.8,5.3,,,,,84.2,86.0,84.2,86.0,84.2,86.0,84.2,86.0,,,12.0,253.9,,29.1,2.0,4.998,,,1.525,1.388,0.0,81.5,,,,,,0.0,84.2,0.9034334763948498,0.0034444444444444444,1.6866666666666665,413.6,True,2026-03-18 22:55:22 - Flight 1,0.0,0.0
40.06,1,7,2026-03-18 22:56:02,37.08154,-121.59957,336.0,0.0,344.7,-12.6,,,,,0.0,10.8,-0.6,3.9,0.0,196.0,0.0,-0.01,1.0,99.0,-45.0,93.2,0.0,30.06,2463.0,,,42.0,,,,,0.0,0.0,,,,,,,,,,,,,,,,,,,0.0,82.4,0.0,0.0,30.1,0.0,,0.0,28.9,,,18.4,0.0,0.0,-0.1,6.8,5.3,,,,,84.2,86.0,84.2,86.0,84.2,86.0,84.2,86.0,,,12.0,253.9,,28.9,2.0,4.998,,,1.525,1.388,0.0,81.5,,,,,,0.0,84.2,0.9034334763948498,0.0034444444444444444,1.6866666666666665,413.6,True,2026-03-18 22:55:22 - Flight 1,0.0,0.0
41.06,1,7,2026-03-18 22:56:03,37.08154,-121.59957,336.0,0.1,344.7,-12.6,,,,,0.0,10.9,-0.6,3.9,0.0,196.0,0.0,-0.01,1.0,99.0,-1.0,93.2,0.0,30.06,2465.0,,,42.0,,,,,0.0,0.0,,,,,,,,,,,,,,,,,,,0.0,82.4,0.0,0.0,30.1,0.0,,0.0,28.8,,,18.4,0.0,0.0,-0.1,6.8,5.3,,,,,84.2,86.0,84.2,86.0,84.2,86.0,86.0,87.8,,,12.0,253.9,,28.8,2.0,4.998,,,1.525,1.388,0.0,81.5,,,,,,0.0,84.64999999999999,0.9082618025751071,0.0034444444444444444,1.771,413.6,True,2026-03-18 22:55:22 - Flight 1,0.0,0.0
42.06,1,7,2026-03-18 22:56:04,37.08154,-121.59957,335.0,0.0,344.7,-12.6,,,,,0.0,10.9,-0.5,3.9,0.0,196.0,0.0,-0.01,1.0,99.0,8.0,93.2,0.0,30.06,2465.0,,,42.0,,,,,0.0,0.0,,,,,,,,,,,,,,,,,,,0.0,82.4,0.0,0.0,30.1,0.0,,0.0,28.7,,,18.4,0.0,0.0,-0.1,6.8,5.3,,,,,84.2,86.0,84.2,86.0,84.2,86.0,86.0,87.8,,,12.0,229.7,,28.7,2.0,4.998,,,1.525,1.388,0.0,81.68,,,,,,0.0,84.64999999999999,0.9082618025751071,0.0034444444444444444,1.8553333333333333,413.6,True,2026-03-18 22:55:22 - Flight 1,0.0,0.0
43.06,1,7,2026-03-18 22:56:05,37.08154,-121.59957,335.0,0.0,344.7,-12.6,,,,,0.0,10.9,-0.6,3.9,0.0,196.0,0.0,-0.01,1.0,99.0,40.0,93.2,0.0,30.06,2465.0,,,42.0,,,,,0.0,0.0,,,,,,,,,,,,,,,,,,,0.0,82.4,0.0,0.0,30.1,0.0,,0.0,28.6,,,18.4,0.0,0.0,-0.1,6.8,5.3,,,,,84.2,86.0,84.2,86.0,84.2,86.0,86.0,87.8,,,12.0,178.8,,28.6,2.0,4.998,,,1.525,1.388,0.0,81.68,,,,,,0.0,84.64999999999999,0.9082618025751071,0.0034444444444444444,1.8553333333333333,413.6,True,2026-03-18 22:55:22 - Flight 1,0.0,0.0
44.06,1,7,2026-03-18 22:56:06,37.08154,-121.59957,334.0,0.0,344.7,-12.6,,,,,0.0,10.9,-0.6,3.9,0.0,196.0,-0.0,-0.01,1.0,99.0,-12.0,93.2,0.0,30.06,2474.0,,,42.0,,,,,0.0,0.0,,,,,,,,,,,,,,,,,,,0.0,82.4,0.0,0.0,30.1,0.0,,0.0,28.5,,,18.4,0.0,0.0,-0.1,6.8,5.3,,,,,84.2,86.0,84.2,86.0,84.2,86.0,86.0,87.8,,,12.0,139.2,,28.5,2.0,4.998,,,1.525,1.388,0.0,81.5,,,,,,0.0,84.64999999999999,0.9082618025751071,0.0034444444444444444,1.8553333333333333,413.6,True,2026-03-18 22:55:22 - Flight 1,0.0,0.0
45.06,1,7,2026-03-18 22:56:07,37.08154,-121.59957,334.0,0.0,344.7,-12.6,,,,,0.0,10.9,-0.6,3.9,0.0,196.0,-0.0,-0.01,1.0,99.0,-35.0,93.2,0.0,30.06,2474.0,,,42.0,,,,,0.0,0.0,,,,,,,,,,,,,,,,,,,0.0,82.4,0.0,0.0,30.1,0.0,,0.0,28.4,,,18.4,0.0,0.0,-0.2,6.8,5.3,,,,,84.2,86.0,84.2,86.0,84.2,86.0,86.0,87.8,,,12.0,108.4,,28.4,2.0,4.998,,,1.525,1.388,0.0,81.68,,,,,,0.0,84.64999999999999,0.9082618025751071,0.0034444444444444444,1.8553333333333333,413.6,True,2026-03-18 22:55:22 - Flight 1,0.0,0.0
46.06,1,7,2026-03-18 22:56:08,37.08153,-121.59957,334.0,0.1,344.7,-12.6,,,,,0.0,10.9,-0.7,3.9,0.0,196.0,-0.0,-0.01,1.0,99.0,-22.0,93.2,0.0,30.06,2476.0,,,42.0,,,,,0.0,0.0,,,,,,,,,,,,,,,,,,,0.0,82.4,0.0,0.0,30.1,0.0,,0.0,28.3,,,18.4,0.0,0.0,-0.2,6.8,5.3,,,,,84.2,86.0,84.2,86.0,84.2,86.0,86.0,87.8,,,12.0,84.5,,28.3,2.0,4.998,,,1.525,1.388,0.0,81.68,,,,,,0.0,84.64999999999999,0.9082618025751071,0.0034444444444444444,1.9396666666666667,413.6,True,2026-03-18 22:55:22 - Flight 1,0.0,0.0
47.06,1,7,2026-03-18 22:56:09,37.08153,-121.59957,333.0,0.1,344.7,-12.6,,,,,0.0,10.9,-0.6,3.8,0.0,194.0,-0.0,-0.01,1.0,99.0,-72.0,93.2,0.0,30.06,2476.0,,,42.0,,,,,0.0,0.0,,,,,,,,,,,,,,,,,,,0.0,82.4,0.0,0.0,30.1,0.0,,0.0,28.1,,,18.4,0.0,0.0,-0.2,6.8,5.3,,,,,84.2,86.0,84.2,86.0,84.2,86.0,86.0,87.8,,,12.0,65.9,,28.1,2.0,4.998,,,1.525,1.388,0.0,81.68,,,,,,0.0,84.64999999999999,0.9082618025751071,0.0034444444444444444,2.1083333333333334,413.6,True,2026-03-18 22:55:22 - Flight 1,0.0,0.0
48.06,1,7,2026-03-18 22:56:10,37.08153,-121.59957,333.0,0.0,344.7,-12.6,,,,,0.0,10.9,-0.6,3.8,0.0,194.0,0.0,-0.01,1.0,99.0,-62.0,93.2,0.0,30.06,2476.0,,,42.0,,,,,0.0,0.0,,,,,,,,,,,,,,,,,,,0.0,82.4,0.0,0.0,30.1,0.0,,0.0,28.1,,,18.4,0.0,0.0,-0.2,6.8,5.3,,,,,84.2,86.0,84.2,86.0,84.2,86.0,86.0,87.8,,,12.0,51.4,,28.1,2.0,4.998,,,1.525,1.388,0.0,81.68,,,,,,0.0,84.64999999999999,0.9082618025751071,0.0034444444444444444,2.1926666666666668,413.6,True,2026-03-18 22:55:22 - Flight 1,0.0,0.0
49.06,1,7,2026-03-18 22:56:11,37.08153,-121.59957,333.0,0.0,344.7,-12.6,,,,,0.0,10.9,-0.7,3.8,0.0,193.0,-0.0,-0.01,1.0,99.0,-56.0,93.2,0.0,30.06,2482.0,,,42.0,,,,,0.0,0.0,,,,,,,,,,,,,,,,,,,0.0,82.4,0.0,0.0,30.1,0.0,,0.0,27.9,,,18.4,0.0,0.0,-0.2,6.8,5.3,,,,,84.2,86.0,84.2,86.0,84.2,86.0,86.0,87.8,,,12.0,40.2,,27.9,2.0,4.998,,,1.525,1.388,0.0,81.5,,,,,,0.0,84.64999999999999,0.9082618025751071,0.0034444444444444444,2.1926666666666668,413.6,True,2026-03-18 22:55:22 - Flight 1,0.0,0.0
50.06,1,7,2026-03-18 22:56:12,37.08153,-121.59956,332.0,0.0,344.7,-12.6,,,,,0.0,10.9,-0.7,3.8,0.0,193.0,-0.0,-0.01,1.0,99.0,-55.0,93.2,0.0,30.06,2483.0,,,42.0,,,,,0.0,0.0,,,,,,,,,,,,,,,,,,,0.0,82.4,0.0,0.0,30.1,0.0,,0.0,27.9,,,18.4,0.0,0.0,-0.2,6.8,5.3,,,,,84.2,86.0,84.2,86.0,84.2,86.0,86.0,87.8,,,12.0,31.4,,27.9,2.0,4.998,,,1.525,1.388,0.0,81.5,,,,,,0.0,84.64999999999999,0.9082618025751071,0.0034444444444444444,2.1926666666666668,413.6,True,2026-03-18 22:55:22 - Flight 1,0.0,0.0
51.06,1,7,2026-03-18 22:56:13,37.08153,-121.59956,332.0,0.0,344.7,-12.6,,,,,0.0,10.9,-0.7,3.8,0.0,191.0,0.0,-0.01,1.0,99.0,-72.0,93.2,0.0,30.06,2483.0,,,42.0,,,,,0.0,0.0,,,,,,,,,,,,,,,,,,,0.0,82.4,0.0,0.0,30.1,0.0,,0.0,27.7,,,18.4,0.0,0.0,-0.2,6.8,5.3,,,,,84.2,86.0,84.2,86.0,84.2,86.0,86.0,87.8,,,12.0,24.6,,27.7,1.0,4.998,,,1.525,1.388,0.0,81.5,,,,,,0.0,84.64999999999999,0.9082618025751071,0.0034444444444444444,2.1926666666666668,413.6,True,2026-03-18 22:55:22 - Flight 1,0.0,0.0
52.06,1,7,2026-03-18 22:56:14,37.08152,-121.59956,332.0,0.1,344.7,-12.6,,,,,0.0,10.9,-0.6,3.9,0.0,189.0,0.0,-0.01,1.0,99.0,-73.0,93.2,0.0,30.06,2483.0,,,42.0,,,,,0.0,0.0,,,,,,,,,,,,,,,,,,,0.0,82.4,0.0,0.0,30.1,0.0,,0.0,27.6,,,18.4,0.0,0.0,-0.2,6.8,5.3,,,,,84.2,86.0,84.2,86.0,84.2,86.0,86.0,87.8,,,12.0,19.4,,27.6,2.0,4.998,,,1.525,1.388,0.0,81.68,,,,,,0.0,84.64999999999999,0.9082618025751071,0.0034444444444444444,2.2769999999999997,413.6,True,2026-03-18 22:55:22 - Flight 1,0.0,0.0
53.06,1,7,2026-03-18 22:56:15,37.08152,-121.59956,332.0,0.0,344.7,-12.6,,,,,0.0,10.9,-0.5,3.9,0.0,189.0,0.0,-0.01,1.0,99.0,-63.0,93.2,0.0,30.06,2488.0,,,42.0,,,,,0.0,0.0,,,,,,,,,,,,,,,,,,,0.0,82.4,0.0,0.0,30.1,0.0,,0.0,27.5,,,18.4,0.0,0.0,-0.2,6.8,5.3,,,,,84.2,86.0,84.2,86.0,84.2,86.0,86.0,87.8,,,12.0,15.3,,27.5,2.0,4.998,,,1.525,1.388,0.0,81.68,,,,,,0.0,84.64999999999999,0.9082618025751071,0.0034444444444444444,2.361333333333333,413.6,True,2026-03-18 22:55:22 - Flight 1,0.0,0.0
54.06,1,7,2026-03-18 22:56:16,37.08152,-121.59956,332.0,0.0,344.7,-12.6,,,,,0.0,10.9,-0.5,3.9,0.0,188.0,-0.0,-0.01,1.0,99.0,-61.0,93.2,0.0,30.06,2488.0,,,42.0,,,,,0.0,0.0,,,,,,,,,,,,,,,,,,,0.0,82.4,0.0,0.0,30.1,0.0,,0.0,27.4,,,18.4,0.0,0.0,-0.2,6.8,5.3,,,,,84.2,86.0,84.2,86.0,84.2,86.0,86.0,87.8,,,12.0,12.1,,27.4,1.0,4.998,,,1.525,1.388,0.0,81.68,,,,,,0.0,84.64999999999999,0.9082618025751071,0.0034444444444444444,2.361333333333333,413.6,True,2026-03-18 22:55:22 - Flight 1,0.0,0.0
55.06,1,7,2026-03-18 22:56:17,37.08152,-121.59956,332.0,0.0,344.7,-12.6,,,,,0.0,10.9,-0.5,3.9,0.0,187.0,0.0,-0.01,1.0,99.0,-58.0,93.2,0.0,30.06,2489.0,,,42.0,,,,,0.0,0.0,,,,,,,,,,,,,,,,,,,0.0,82.4,0.0,0.0,30.1,0.0,,0.0,27.3,,,18.4,0.0,0.0,-0.2,6.8,5.3,,,,,84.2,86.0,84.2,86.0,84.2,86.0,86.0,87.8,,,12.0,9.6,,27.3,2.0,4.998,,,1.525,1.388,0.0,81.5,,,,,,0.0,84.64999999999999,0.9082618025751071,0.0034444444444444444,2.361333333333333,413.6,True,2026-03-18 22:55:22 - Flight 1,0.0,0.0
56.06,1,7,2026-03-18 22:56:18,37.08152,-121.59956,332.0,0.0,344.7,-12.6,,,,,0.0,10.9,-0.5,3.9,0.0,186.0,0.0,-0.01,1.0,99.0,-41.0,93.2,0.0,30.06,2489.0,,,42.0,,,,,0.0,0.0,,,,,,,,,,,,,,,,,,,0.0,82.4,0.0,0.0,30.1,0.0,,0.0,27.2,,,18.4,0.0,0.0,-0.2,6.8,5.3,,,,,84.2,86.0,84.2,86.0,84.2,86.0,84.2,87.8,,,12.0,7.7,,27.2,2.0,4.998,,,1.525,1.389,0.0,81.5,,,,,,0.0,84.2,0.9034334763948498,0.0034444444444444444,2.361333333333333,413.6,True,2026-03-18 22:55:22 - Flight 1,0.0,0.0
57.06,1,7,2026-03-18 22:56:19,37.08148,-121.59955,324.0,0.0,344.7,-12.6,,,,,0.0,10.9,-0.6,3.9,0.0,185.0,0.0,-0.01,1.0,99.0,-52.0,93.2,0.0,30.06,2489.0,,,42.0,,,,,0.0,0.0,,,,,,,,,,,,,,,,,,,0.0,82.4,0.0,0.0,30.1,0.0,,0.0,27.1,,,18.4,0.0,0.0,-0.2,6.8,5.3,,,,,84.2,86.0,84.2,86.0,84.2,86.0,86.0,87.8,,,12.0,6.2,,27.1,2.0,4.998,,,1.525,1.389,0.0,81.5,,,,,,0.0,84.64999999999999,0.9082618025751071,0.0034444444444444444,2.361333333333333,413.6,True,2026-03-18 22:55:22 - Flight 1,0.0,0.0
58.06,1,7,2026-03-18 22:56:20,37.08148,-121.59955,324.0,0.0,344.7,-12.6,,,,,0.0,10.9,-0.6,3.8,0.0,185.0,-0.0,-0.01,1.0,99.0,-50.0,93.2,0.0,30.06,2495.0,,,42.0,,,,,0.0,0.0,,,,,,,,,,,,,,,,,,,0.0,82.4,0.0,0.0,30.1,0.0,,0.0,27.1,,,18.4,0.0,0.0,-0.2,6.8,5.3,,,,,84.2,86.0,84.2,86.0,84.2,86.0,86.0,87.8,,,12.0,5.0,,27.1,2.0,4.998,,,1.525,1.389,0.0,81.5,,,,,,0.0,84.64999999999999,0.9082618025751071,0.0034444444444444444,2.361333333333333,413.6,True,2026-03-18 22:55:22 - Flight 1,0.0,0.0
59.06,1,7,2026-03-18 22:56:21,37.08148,-121.59955,324.0,0.0,344.7,-12.6,,,,,0.0,10.9,-0.7,3.9,0.0,185.0,0.0,-0.01,1.0,99.0,-49.0,93.2,0.0,30.06,2496.0,,,42.0,,,,,0.0,0.0,,,,,,,,,,,,,,,,,,,0.0,73.4,124.0,124.0,30.1,0.0,,0.0,27.1,,,18.4,0.0,0.0,-0.3,6.8,5.3,,,,,78.8,80.6,78.8,80.6,80.6,80.6,80.6,82.4,,,12.0,4.1,,27.1,1.0,4.998,,,1.523,1.388,0.0,73.22,,,,,,124.0,79.7,0.8551502145922747,0.0034444444444444444,2.361333333333333,413.6,True,2026-03-18 22:55:22 - Flight 1,0.0,0.0
60.06,1,7,2026-03-18 22:56:22,37.08148,-121.59955,325.0,0.1,344.7,-12.6,,,,,0.0,10.9,-0.7,3.9,0.0,184.0,0.0,-0.01,1.0,99.0,-30.0,93.2,0.0,30.06,2496.0,,,42.0,,,,,0.0,0.0,,,,,,,,,,,,,,,,,,,1.0,80.6,1117.0,1117.0,23.7,0.9,,0.9,23.6,,,18.4,0.0,0.0,-0.2,6.8,5.3,,,,,84.2,154.4,84.2,138.2,84.2,141.8,84.2,136.4,,,12.0,3.4,,23.6,-1.0,4.998,,,1.525,1.39,1.1,80.06,,,,,,1117.0,84.2,0.9034334763948498,0.0035694444444444445,2.4456666666666664,413.6,True,2026-03-18 22:55:22 - Flight 1,0.9,0.11111111111111112
61.06,1,8,2026-03-18 22:56:23,37.08164,-121.59961,390.0,0.1,344.7,-12.6,,,,,0.0,10.9,-0.6,3.8,0.0,184.0,-0.0,-0.01,0.9,99.0,50.0,93.2,0.0,30.06,2496.0,,,42.0,,,,,0.0,0.0,,,,,,,,,,,,,,,,,,,7.0,82.4,1198.0,1198.0,17.3,1.5,,1.5,24.2,,,18.4,0.0,0.0,-0.2,6.8,5.3,,,,,84.2,278.6,84.2,258.8,84.2,260.6,86.0,244.4,,,12.0,2.9,,24.2,-1.0,4.998,,,1.473,1.19,6.8,81.68,,,,,,1198.0,84.64999999999999,0.9082618025751071,0.003902777777777778,2.614333333333333,413.6,True,2026-03-18 22:55:22 - Flight 1,1.5,0.06666666666666667
62.06,1,8,2026-03-18 22:56:24,37.08164,-121.5996,390.0,0.1,344.7,-12.6,,,,,0.0,10.9,-0.6,3.8,0.0,184.0,-0.0,-0.01,1.0,99.0,28.0,93.2,0.0,30.06,2506.0,,,42.0,,,,,0.0,0.0,,,,,,,,,,,,,,,,,,,17.0,82.4,1011.0,1011.0,14.5,1.9,,1.9,24.6,,,18.4,0.0,0.0,-0.2,6.8,5.3,,,,,84.2,383.0,86.0,352.4,86.0,361.4,87.8,339.8,,,12.0,2.4,,24.6,5.0,4.998,,,1.519,1.425,16.6,81.68,,,,,,1011.0,86.0,0.9227467811158798,0.004375,2.783,413.6,True,2026-03-18 22:55:22 - Flight 1,1.9,0.052631578947368425
63.06,1,8,2026-03-18 22:56:25,37.08164,-121.5996,390.0,0.1,344.7,-12.6,,,,,0.0,10.9,-0.5,3.9,0.0,184.0,0.0,-0.01,1.0,99.0,-5.0,93.2,0.0,30.06,2506.0,,,42.0,,,,,0.0,0.0,,,,,,,,,,,,,,,,,,,30.0,82.4,1003.0,1003.0,15.4,2.0,,2.0,24.5,,,18.4,0.0,0.0,-0.2,6.8,5.3,,,,,86.0,446.0,86.0,410.0,86.0,366.8,87.8,402.8,,,12.0,2.1,,24.5,4.0,4.998,,,1.525,1.387,29.6,81.5,,,,,,1003.0,86.45,0.9275751072961373,0.004916666666666666,2.9516666666666667,413.6,True,2026-03-18 22:55:22 - Flight 1,2.0,0.05
64.06,1,8,2026-03-18 22:56:26,37.08164,-121.5996,390.0,0.1,344.7,-12.6,,,,,0.0,10.8,-0.5,3.9,0.0,184.0,0.0,-0.01,1.0,99.0,-4.0,93.2,0.0,30.06,2518.0,,,42.0,,,,,0.0,0.0,,,,,,,,,,,,,,,,,,,47.0,80.6,1001.0,1001.0,14.7,2.2,,2.2,24.7,,,18.4,0.0,0.0,-0.2,6.8,5.3,,,,,86.0,501.8,86.0,473.0,86.0,444.2,89.6,462.2,,,12.0,1.9,,24.7,-1.0,4.998,,,1.525,1.389,46.9,81.5,,,,,,1001.0,86.9,0.9324034334763949,0.0055000000000000005,3.120333333333333,413.6,True,2026-03-18 22:55:22 - Flight 1,2.2,0.045454545454545456
65.06,1,8,2026-03-18 22:56:27,37.08164,-121.5996,390.0,0.0,344.7,-12.6,,,,,0.0,10.8,-0.6,3.9,0.0,184.0,-0.0,-0.01,1.0,99.0,-17.0,93.2,0.0,30.06,2518.0,,,42.0,,,,,0.0,0.0,,,,,,,,,,,,,,,,,,,61.0,80.6,998.0,998.0,14.5,2.3,,2.3,24.8,,,18.4,0.0,0.0,-0.2,6.8,5.3,,,,,87.8,550.4,87.8,525.2,87.8,503.6,89.6,518.0,,,12.0,1.7,,24.8,0.0,4.998,,,1.525,1.392,61.1,81.5,,,,,,998.0,88.25,0.9468884120171673,0.006125,3.2046666666666663,413.6,True,2026-03-18 22:55:22 - Flight 1,2.3,0.0
66.06,1,8,2026-03-18 22:56:28,37.08164,-121.5996,390.0,0.0,344.7,-12.6,,,,,0.0,10.9,-0.6,3.9,0.0,184.0,-0.0,-0.01,0.9,99.0,-18.0,93.2,0.0,30.06,2529.0,,,42.0,,,,,0.0,0.0,,,,,,,,,,,,,,,,,,,67.0,80.6,970.0,970.0,14.5,2.3,,2.3,24.9,,,18.4,0.0,0.0,-0.2,6.8,5.3,,,,,87.8,595.4,87.8,575.6,87.8,550.4,89.6,566.6,,,12.0,1.5,,24.9,3.0,4.998,,,1.525,1.389,67.2,81.32,,,,,,970.0,88.25,0.9468884120171673,0.006763888888888889,3.2046666666666663,413.6,True,2026-03-18 22:55:22 - Flight 1,2.3,0.0
67.06,1,8,2026-03-18 22:56:29,37.08164,-121.5996,390.0,0.0,344.7,-12.6,,,,,0.0,10.9,-0.6,3.9,0.0,184.0,0.0,-0.01,1.0,99.0,-12.0,93.2,0.0,30.06,2529.0,,,42.0,,,,,0.0,0.0,,,,,,,,,,,,,,,,,,,69.0,84.2,952.0,952.0,14.6,2.3,,2.3,25.1,,,18.4,0.0,0.0,6.6,6.8,5.3,,,,,89.6,635.0,89.6,624.2,89.6,595.4,93.2,609.8,,,12.0,1.4,,25.1,-1.0,4.998,,,1.525,1.39,69.0,83.84,,,,,,952.0,90.5,0.971030042918455,0.007402777777777778,3.2046666666666663,413.6,True,2026-03-18 22:55:22 - Flight 1,2.3,0.0
68.06,1,8,2026-03-18 22:56:30,37.08164,-121.59959,390.0,0.0,344.7,-12.6,,,,,0.0,10.9,-0.6,3.9,0.0,184.0,-0.0,-0.01,1.0,99.0,-4.0,95.0,0.0,30.06,2540.0,,,42.0,,,,,0.0,0.0,,,,,,,,,,,,,,,,,,,68.0,84.2,910.0,910.0,15.2,2.4,,2.4,25.2,,,18.4,0.0,0.0,28.5,6.8,5.3,,,,,89.6,667.4,89.6,663.8,89.6,629.6,93.2,644.0,,,12.0,1.3,,25.2,3.0,4.998,,,1.525,1.392,68.2,83.84,,,,,,910.0,90.5,0.9526315789473684,0.008055555555555555,3.2046666666666663,413.6,True,2026-03-18 22:55:22 - Flight 1,2.4,0.0
69.06,1,8,2026-03-18 22:56:31,37.08164,-121.59959,390.0,0.0,344.7,-12.6,,,,,0.0,10.9,-0.7,3.9,0.0,184.0,0.0,-0.01,1.0,99.0,34.0,95.0,0.0,30.06,2540.0,,,42.0,,,,,0.0,0.0,,,,,,,,,,,,,,,,,,,68.0,84.2,905.0,905.0,15.6,2.4,,2.4,25.3,,,18.4,0.0,0.0,40.8,6.8,5.3,,,,,91.4,696.2,89.6,696.2,91.4,662.0,95.0,671.0,,,12.0,1.2,,25.3,-1.0,4.998,,,1.525,1.39,67.6,83.84,,,,,,905.0,91.85,0.9668421052631578,0.008722222222222221,3.2046666666666663,413.6,True,2026-03-18 22:55:22 - Flight 1,2.4,0.0
70.06,1,8,2026-03-18 22:56:32,37.08164,-121.59959,390.0,0.0,344.7,-12.6,,,,,0.0,10.9,-0.7,3.8,0.0,184.0,0.0,-0.01,1.0,99.0,35.0,95.0,0.0,30.06,2552.0,,,42.0,,,,,0.0,0.0,,,,,,,-8.0,,,53.0,,,,,,,,,67.0,84.2,886.0,886.0,16.1,2.4,,2.4,25.3,,,18.4,0.0,0.0,47.6,6.8,5.3,,,,,91.4,726.8,91.4,726.8,91.4,690.8,95.0,699.8,,,12.0,1.2,,25.3,0.0,4.998,,,1.525,1.39,66.9,83.66,,,,,,886.0,92.30000000000001,0.9715789473684212,0.00938888888888889,3.2046666666666663,413.6,True,2026-03-18 22:55:22 - Flight 1,2.4,0.0
71.06,1,8,2026-03-18 22:56:33,37.08164,-121.59959,390.0,0.0,344.7,-12.6,,,,,0.0,10.9,-0.6,3.8,0.0,184.0,-0.0,-0.01,1.0,99.0,63.0,95.0,0.0,30.06,2552.0,,,42.0,,,,,0.0,0.0,,,,,,,-4.0,,,27.0,,,,,,,,,67.0,84.2,887.0,887.0,16.3,2.4,,2.4,25.4,,,18.4,0.0,0.0,51.4,6.8,5.3,,,,,93.2,753.8,93.2,753.8,93.2,714.2,96.8,723.2,,,12.0,1.1,,25.4,-1.0,4.998,,,1.525,1.39,66.6,83.66,,,,,,887.0,94.1,0.9905263157894736,0.010055555555555555,3.2046666666666663,413.6,True,2026-03-18 22:55:22 - Flight 1,2.4,0.0
72.06,1,8,2026-03-18 22:56:34,37.08164,-121.59959,389.0,0.0,344.7,-12.6,,,,,0.0,10.9,-0.6,3.8,0.0,184.0,-0.0,-0.01,1.0,99.0,56.0,95.0,0.0,30.06,2563.0,,,42.0,,,,,0.0,0.0,,,,,,,-2.0,,,18.0,,,,,,,,,67.0,84.2,886.0,886.0,16.2,2.4,,2.4,25.5,,,18.4,0.0,0.0,54.0,6.8,5.3,,,,,93.2,777.2,93.2,777.2,93.2,737.6,96.8,748.4,,,12.0,1.1,,25.5,0.0,4.998,,,1.525,1.39,66.7,83.66,,,,,,886.0,94.1,0.9905263157894736,0.010722222222222222,3.2046666666666663,413.6,True,2026-03-18 22:55:22 - Flight 1,2.4,0.0
73.06,1,8,2026-03-18 22:56:35,37.08164,-121.59959,389.0,0.1,344.7,-12.6,,,,,0.0,10.8,-0.5,3.8,0.0,184.0,-0.0,-0.01,1.0,99.0,5.0,95.0,0.0,30.06,2563.0,,,42.0,,,,,0.0,0.0,,,,,,,0.0,,,13.0,,,,,3.0,0.0,0.0,1200.0,67.0,84.2,917.0,917.0,16.1,2.4,,2.4,25.6,,,18.4,0.0,0.0,55.6,6.8,5.3,,,,,95.0,798.8,95.0,797.0,95.0,757.4,96.8,770.0,,,12.0,1.1,,25.6,0.0,4.998,,,1.525,1.389,67.0,83.66,,,,,,917.0,95.45,1.0047368421052632,0.01138888888888889,3.2889999999999997,413.6,True,2026-03-18 22:55:22 - Flight 1,2.4,0.04166666666666667
74.06,1,8,2026-03-18 22:56:36,37.08164,-121.59959,389.0,0.0,344.7,-12.6,,,,,0.0,10.9,-0.6,3.8,0.0,184.0,-0.0,-0.01,1.0,99.0,35.0,95.0,0.0,30.06,2575.0,,,42.0,,,,,0.0,0.0,,,,,,,-9.0,,,0.0,,,,,1.0,0.0,0.0,1200.0,67.0,82.4,889.0,889.0,16.1,2.4,,2.4,25.6,,,18.4,0.0,0.0,54.2,6.8,5.3,,,,,95.0,816.8,95.0,818.6,95.0,775.4,98.6,788.0,,,12.0,1.0,,25.6,0.0,4.998,,,1.525,1.39,66.9,83.3,,,,,,889.0,95.9,1.0094736842105263,0.012055555555555555,3.373333333333333,413.6,True,2026-03-18 22:55:22 - Flight 1,2.4,0.0
75.06,1,8,2026-03-18 22:56:37,37.08164,-121.59959,391.0,0.0,344.7,-12.6,,,,,0.0,10.8,-0.5,3.9,0.0,184.0,0.0,-0.01,1.0,99.0,29.0,95.0,0.0,30.06,2575.0,,,42.0,,,,,0.0,0.0,,,,,,,-4.0,,,10.0,,,,,1.0,0.0,0.0,1200.0,67.0,82.4,936.0,936.0,15.9,2.4,,2.4,25.7,,,18.4,0.0,0.0,48.2,6.8,5.3,,,,,95.0,834.8,95.0,834.8,95.0,789.8,98.6,804.2,,,12.0,1.0,,25.7,0.0,4.998,,,1.525,1.39,67.4,82.94,,,,,,936.0,95.9,1.0094736842105263,0.012722222222222222,3.373333333333333,413.6,True,2026-03-18 22:55:22 - Flight 1,2.4,0.0
76.06,1,8,2026-03-18 22:56:38,37.08164,-121.59959,390.0,0.0,344.7,-12.6,,,,,0.0,10.8,-0.5,3.9,0.0,184.0,0.0,-0.01,1.0,99.0,-28.0,95.0,0.0,30.06,2586.0,,,42.0,,,,,0.0,0.0,,,,,,,-3.0,,,9.0,,,,,,,,,68.0,82.4,943.0,943.0,15.7,2.4,,2.4,25.7,,,18.4,0.0,0.0,41.6,6.8,5.3,,,,,95.0,851.0,95.0,851.0,95.0,804.2,100.4,820.4,,,12.0,1.0,,25.7,0.0,4.998,,,1.525,1.39,67.8,82.58,,,,,,943.0,96.35,1.0142105263157895,0.01338888888888889,3.373333333333333,413.6,True,2026-03-18 22:55:22 - Flight 1,2.4,0.0
77.06,1,8,2026-03-18 22:56:39,37.08164,-121.59959,390.0,0.1,344.7,-12.6,,,,,0.0,10.9,-0.6,3.9,0.0,184.0,-0.0,-0.01,1.0,99.0,-6.0,95.0,0.0,30.06,2586.0,,,42.0,,,,,0.0,0.0,,,,,,,-2.0,,,4.0,,,,,,,,,68.0,82.4,961.0,961.0,15.3,2.4,,2.4,25.8,,,18.4,0.0,0.0,35.4,6.8,5.3,,,,,96.8,865.4,96.8,869.0,96.8,816.8,100.4,834.8,,,12.0,1.0,,25.8,0.0,4.998,,,1.525,1.39,68.3,82.4,,,,,,961.0,97.7,1.028421052631579,0.014055555555555556,3.4576666666666664,413.6,True,2026-03-18 22:55:22 - Flight 1,2.4,0.04166666666666667
78.06,1,8,2026-03-18 22:56:40,37.08164,-121.59959,389.0,0.0,344.7,-12.6,,,,,0.0,10.9,-0.6,3.9,0.0,184.0,0.0,-0.01,1.0,99.0,18.0,95.0,0.0,30.06,2586.0,,,42.0,,,,,0.0,0.0,,,,,,,-1.0,,,1.0,,,,,,,,,68.0,82.4,958.0,958.0,15.3,2.4,,2.4,25.8,,,18.4,0.0,0.0,30.1,6.8,5.3,,,,,96.8,878.0,96.8,883.4,96.8,831.2,102.2,847.4,,,12.0,1.0,,25.8,0.0,4.998,,,1.525,1.389,68.4,82.22,,,,,,958.0,98.15,1.0331578947368423,0.014722222222222222,3.542,413.6,True,2026-03-18 22:55:22 - Flight 1,2.4,0.0
79.06,1,8,2026-03-18 22:56:41,37.08164,-121.59959,389.0,0.0,344.7,-12.6,,,,,0.0,10.9,-0.5,4.0,0.0,184.0,0.0,-0.01,1.0,99.0,-20.0,95.0,0.0,30.06,2598.0,,,42.0,,,,,0.0,0.0,,,,,,,0.0,,,0.0,,,,,,,,,69.0,82.4,949.0,949.0,15.1,2.4,,2.4,25.9,,,18.4,0.0,0.0,25.7,6.8,5.3,,,,,96.8,888.8,96.8,896.0,98.6,842.0,102.2,860.0,,,12.0,1.0,,25.9,0.0,4.998,,,1.525,1.39,68.6,82.22,,,,,,949.0,98.60000000000001,1.0378947368421054,0.01538888888888889,3.542,413.6,True,2026-03-18 22:55:22 - Flight 1,2.4,0.0
80.06,1,8,2026-03-18 22:56:42,37.08164,-121.59959,388.0,0.0,344.7,-12.6,,,,,0.0,10.9,-0.6,3.9,0.0,184.0,0.0,-0.01,1.0,99.0,17.0,95.0,0.0,30.06,2598.0,,,42.0,,,,,0.0,0.0,,,,,,,1.0,,,-1.0,,,,,,,,,68.0,82.4,947.0,947.0,15.0,2.4,,2.4,25.9,,,18.4,0.0,0.0,22.4,6.8,5.3,,,,,98.6,899.6,98.6,908.6,98.6,852.8,104.0,872.6,,,12.0,1.0,,25.9,0.0,4.998,,,1.525,1.389,68.4,82.04,,,,,,947.0,99.94999999999999,1.0521052631578947,0.016055555555555556,3.542,413.6,True,2026-03-18 22:55:22 - Flight 1,2.4,0.0
81.06,1,8,2026-03-18 22:56:43,37.08163,-121.59959,388.0,0.0,344.7,-12.6,,,,,0.0,10.9,-0.6,4.0,0.0,184.0,0.0,-0.01,1.0,99.0,-2.0,95.0,0.0,30.06,2598.0,,,42.0,,,,,0.0,0.0,,,,,,,1.0,,,-2.0,,,,,,,,,69.0,82.4,1027.0,1027.0,15.0,2.3,,2.3,26.1,,,18.4,0.0,0.0,19.8,6.8,5.3,,,,,98.6,910.4,98.6,919.4,98.6,863.6,104.0,885.2,,,12.0,1.0,,26.1,0.0,4.998,,,1.525,1.39,69.0,82.04,,,,,,1027.0,99.94999999999999,1.0521052631578947,0.016708333333333332,3.542,413.6,True,2026-03-18 22:55:22 - Flight 1,2.3,0.0
82.06,1,8,2026-03-18 22:56:44,37.08163,-121.59959,387.0,0.0,344.7,-12.6,,,,,0.0,10.9,-0.6,3.9,0.0,184.0,-0.0,-0.02,1.0,99.0,15.0,95.0,0.0,30.06,2609.0,,,42.0,,,,,0.0,0.0,,,,,,,1.0,,,-2.0,,,,,,,,,71.0,82.4,1047.0,1047.0,13.7,2.2,,2.2,26.2,,,18.4,0.0,0.0,17.6,6.8,5.3,,,,,98.6,921.2,98.6,926.6,100.4,879.8,105.8,899.6,,,12.0,1.0,,26.2,0.0,4.998,,,1.525,1.389,71.1,81.86,,,,,,1047.0,100.85,1.061578947368421,0.017333333333333333,3.542,413.6,True,2026-03-18 22:55:22 - Flight 1,2.2,0.0
83.06,1,8,2026-03-18 22:56:45,37.08163,-121.59959,387.0,0.0,344.7,-12.6,,,,,0.0,10.9,-0.5,3.9,0.0,184.0,-0.0,-0.01,0.9,99.0,-32.0,95.0,0.0,30.06,2609.0,,,42.0,,,,,0.0,0.0,,,,,,,2.0,,,-2.0,,,,,,,,,71.0,82.4,1033.0,1033.0,13.7,2.2,,2.2,26.2,,,18.4,0.0,0.0,15.9,6.8,5.3,,,,,100.4,933.8,100.4,937.4,100.4,896.0,105.8,915.8,,,12.0,1.0,,26.2,0.0,4.998,,,1.525,1.389,71.1,81.86,,,,,,1033.0,101.75,1.0710526315789475,0.017944444444444443,3.542,413.6,True,2026-03-18 22:55:22 - Flight 1,2.2,0.0
84.06,1,8,2026-03-18 22:56:46,37.08163,-121.59959,386.0,0.1,344.7,-12.6,,,,,0.0,10.9,-0.5,3.9,0.0,184.0,-0.0,-0.01,1.0,99.0,-50.0,95.0,0.0,30.06,2609.0,,,42.0,,,,,0.0,0.0,,,,,,,2.0,,,-3.0,,,,,,,,,71.0,82.4,1057.0,1057.0,13.6,2.1,,2.1,26.2,,,18.4,0.0,0.0,14.5,6.8,5.3,,,,,100.4,941.0,102.2,948.2,102.2,912.2,107.6,932.0,,,12.0,1.0,,26.2,0.0,4.998,,,1.525,1.389,71.4,81.86,,,,,,1057.0,103.1,1.0852631578947367,0.018541666666666668,3.626333333333333,413.6,True,2026-03-18 22:55:22 - Flight 1,2.1,0.047619047619047616
85.06,1,8,2026-03-18 22:56:47,37.08163,-121.59959,384.0,0.0,344.7,-12.6,,,,,0.0,10.8,-0.5,4.0,0.0,184.0,-0.0,-0.01,1.0,99.0,-6.0,95.0,0.0,30.06,2621.0,,,42.0,,,,,0.0,0.0,,,,,,,2.0,,,-3.0,,,,,,,,,72.0,82.4,1052.0,1052.0,13.4,2.1,,2.1,26.2,,,18.4,0.0,0.0,13.0,6.8,5.3,,,,,102.2,946.4,102.2,959.0,102.2,928.4,109.4,942.8,,,12.0,1.0,,26.2,0.0,4.998,,,1.525,1.39,71.6,81.86,,,,,,1052.0,104.0,1.0947368421052632,0.019125,3.7106666666666666,413.6,True,2026-03-18 22:55:22 - Flight 1,2.1,0.0
86.06,1,8,2026-03-18 22:56:48,37.08163,-121.59959,384.0,0.0,344.7,-12.6,,,,,0.0,10.9,-0.5,3.9,0.0,184.0,-0.0,-0.01,1.0,99.0,-38.0,95.0,0.0,30.06,2621.0,,,42.0,,,,,0.0,0.0,,,,,,,2.0,,,-3.0,,,,,,,,,72.0,82.4,1078.0,1078.0,13.3,2.1,,2.1,26.3,,,18.4,0.0,0.0,11.8,6.8,5.3,,,,,102.2,955.4,102.2,968.0,104.0,942.8,109.4,957.2,,,12.0,1.0,,26.3,0.0,4.998,,,1.525,1.39,71.8,81.86,,,,,,1078.0,104.45,1.0994736842105264,0.019708333333333335,3.7106666666666666,413.6,True,2026-03-18 22:55:22 - Flight 1,2.1,0.0
87.06,1,9,2026-03-18 22:56:49,37.08166,-121.59959,403.0,0.0,344.7,-12.6,,,,,0.0,10.9,-0.6,3.9,0.0,184.0,-0.0,-0.01,1.0,99.0,-38.0,95.0,0.0,30.06,2632.0,,,42.0,,,,,0.0,0.0,,,,,,,2.0,,,-3.0,,,,,,,,,73.0,82.4,1089.0,1089.0,13.1,2.1,,2.1,26.3,,,18.4,0.0,0.0,10.9,6.8,5.3,,,,,102.2,960.8,104.0,975.2,105.8,953.6,111.2,969.8,,,12.0,0.0,,26.3,0.0,4.998,,,1.525,1.389,72.6,81.68,,,,,,1089.0,105.8,1.1136842105263158,0.020291666666666666,3.7106666666666666,413.6,True,2026-03-18 22:55:22 - Flight 1,2.1,0.0
88.06,1,9,2026-03-18 22:56:50,37.08165,-121.59959,396.0,0.0,344.7,-12.6,,,,,0.0,10.8,-0.6,3.8,0.0,184.0,-0.0,-0.01,1.0,99.0,4.0,95.0,0.0,30.06,2632.0,,,42.0,,,,,0.0,0.0,,,,,,,2.0,,,-3.0,,,,,,,,,73.0,82.4,1096.0,1096.0,13.1,2.1,,2.1,26.3,,,18.3,0.0,0.0,10.2,6.8,5.3,,,,,104.0,964.4,104.0,982.4,105.8,966.2,111.2,978.8,,,12.0,0.0,,26.3,0.0,4.998,,,1.525,1.39,72.7,81.68,,,,,,1096.0,106.25,1.118421052631579,0.020875,3.7106666666666666,413.6,True,2026-03-18 22:55:22 - Flight 1,2.1,0.0
89.06,1,9,2026-03-18 22:56:51,37.08165,-121.59959,396.0,0.1,344.7,-12.6,,,,,0.0,10.8,-0.6,3.9,0.0,184.0,-0.0,-0.01,0.9,99.0,-8.0,95.0,0.0,30.06,2632.0,,,42.0,,,,,0.0,0.0,,,,,,,2.0,,,-3.0,,,,,,,,,73.0,82.4,1097.0,1097.0,13.0,2.1,,2.1,26.3,,,18.3,0.0,0.0,9.5,6.8,5.3,,,,,105.8,969.8,105.8,987.8,107.6,982.4,113.0,991.4,,,12.0,0.0,,26.3,0.0,4.998,,,1.525,1.39,72.8,81.68,,,,,,1097.0,108.05,1.1373684210526316,0.021458333333333333,3.795,413.6,True,2026-03-18 22:55:22 - Flight 1,2.1,0.047619047619047616
90.06,1,9,2026-03-18 22:56:52,37.08165,-121.59959,397.0,0.0,344.7,-12.6,,,,,0.0,10.8,-0.5,3.9,0.0,184.0,-0.0,-0.01,1.0,99.0,-27.0,95.0,0.0,30.06,2642.0,,,42.0,,,,,0.0,0.0,,,,,,,2.0,,,-3.0,,,,,,,,,72.0,82.4,1031.0,1031.0,12.7,2.1,,2.1,26.3,,,18.3,0.0,0.0,8.9,6.8,5.3,,,,,105.8,975.2,107.6,993.2,107.6,989.6,114.8,996.8,,,12.0,0.0,,26.3,0.0,4.998,,,1.525,1.389,72.2,81.68,,,,,,1031.0,108.95,1.1468421052631579,0.022041666666666668,3.8793333333333333,413.6,True,2026-03-18 22:55:22 - Flight 1,2.1,0.0
91.06,1,9,2026-03-18 22:56:53,37.08165,-121.59959,397.0,0.0,344.7,-12.6,,,,,0.0,10.8,-0.5,3.9,0.0,184.0,-0.0,-0.01,1.0,99.0,-9.0,95.0,0.0,30.06,2644.0,,,42.0,,,,,0.0,0.0,,,,,,,2.0,,,-3.0,,,,,,,,,70.0,82.4,977.0,977.0,12.8,2.0,,2.0,26.3,,,18.3,0.0,0.0,8.5,6.8,5.3,,,,,107.6,980.6,107.6,996.8,109.4,993.2,114.8,1005.8,,,12.0,0.0,,26.3,0.0,4.998,,,1.525,1.39,70.1,81.68,,,,,,977.0,109.85,1.1563157894736842,0.02261111111111111,3.8793333333333333,413.6,True,2026-03-18 22:55:22 - Flight 1,2.0,0.0
92.06,1,9,2026-03-18 22:56:54,37.08165,-121.59959,398.0,0.1,344.7,-12.6,,,,,0.0,10.8,-0.5,3.9,0.0,184.0,0.0,-0.01,1.0,99.0,-33.0,95.0,0.0,30.06,2644.0,,,42.0,,,,,0.0,0.0,,,,,,,-3.0,,,-3.0,,,,,,,,,69.0,82.4,964.0,964.0,13.1,1.9,,1.9,26.3,,,18.3,0.0,0.0,8.2,6.8,5.3,,,,,107.6,982.4,109.4,1002.2,109.4,996.8,116.6,1007.6,,,12.0,0.0,,26.3,0.0,4.998,,,1.525,1.39,68.8,81.68,,,,,,964.0,110.75,1.1657894736842105,0.02315277777777778,3.9636666666666667,413.6,True,2026-03-18 22:55:22 - Flight 1,1.9,0.052631578947368425
93.06,1,9,2026-03-18 22:56:55,37.08166,-121.59959,398.0,0.0,344.7,-12.6,,,,,0.0,10.8,-0.6,3.9,0.0,184.0,0.0,-0.01,1.0,99.0,-55.0,95.0,0.0,30.06,2644.0,,,42.0,,,,,0.0,0.0,,,,,,,-5.0,,,-4.0,,,,,,,,,68.0,82.4,962.0,962.0,13.2,1.9,,1.9,26.3,,,18.3,0.0,0.0,8.1,6.8,5.3,,,,,109.4,984.2,109.4,1004.0,111.2,996.8,116.6,1007.6,,,12.0,0.0,,26.3,0.0,4.998,,,1.525,1.39,68.3,81.68,,,,,,962.0,111.65,1.175263157894737,0.023680555555555555,4.048,413.6,True,2026-03-18 22:55:22 - Flight 1,1.9,0.0
94.06,1,9,2026-03-18 22:56:56,37.08166,-121.59959,399.0,0.0,344.7,-12.6,,,,,0.0,10.8,-0.7,3.9,0.0,184.0,0.0,-0.01,1.0,99.0,-17.0,96.8,0.0,30.06,2656.0,,,42.0,,,,,0.0,0.0,,,,,,,-2.0,,,-4.0,,,,,,,,,68.0,82.4,951.0,951.0,13.3,1.9,,1.9,26.3,,,18.3,0.0,0.0,8.1,6.8,5.3,,,,,109.4,986.0,111.2,1007.6,111.2,998.6,118.4,1013.0,,,12.0,0.0,,26.3,0.0,4.998,,,1.525,1.389,68.3,81.86,,,,,,951.0,112.55000000000001,1.162706611570248,0.02420833333333333,4.048,413.6,True,2026-03-18 22:55:22 - Flight 1,1.9,0.0
95.06,1,9,2026-03-18 22:56:57,37.08166,-121.59959,399.0,0.0,344.7,-12.6,,,,,0.0,10.8,-0.6,3.9,0.0,184.0,0.0,-0.01,1.0,99.0,-13.0,96.8,0.0,30.06,2656.0,,,42.0,,,,,0.0,0.0,,,,,,,0.0,,,-6.0,,,,,,,,,68.0,82.4,937.0,937.0,13.4,1.8,,1.8,26.3,,,18.3,0.0,0.0,8.0,6.8,5.3,,,,,111.2,989.6,111.2,1009.4,113.0,1000.4,118.4,1013.0,,,12.0,0.0,,26.3,0.0,4.998,,,1.525,1.389,67.6,81.68,,,,,,937.0,113.45,1.172004132231405,0.024722222222222222,4.048,413.6,True,2026-03-18 22:55:22 - Flight 1,1.8,0.0
96.06,1,9,2026-03-18 22:56:58,37.08166,-121.5996,399.0,0.0,344.7,-12.6,,,,,0.0,10.9,-0.6,3.9,0.0,184.0,0.0,-0.01,1.0,99.0,-35.0,96.8,0.0,30.06,2667.0,,,42.0,,,,,0.0,0.0,,,,,,,1.0,,,-7.0,,,,,1.0,0.0,0.0,1200.0,68.0,82.4,945.0,945.0,13.6,1.8,,1.8,26.3,,,18.3,0.0,0.0,7.8,6.8,5.3,,,,,111.2,991.4,113.0,1011.2,114.8,1000.4,120.2,1013.0,,,12.0,0.0,,26.3,0.0,4.998,,,1.525,1.39,67.7,81.68,,,,,,945.0,114.8,1.1859504132231404,0.025222222222222222,4.048,413.6,True,2026-03-18 22:55:22 - Flight 1,1.8,0.0
97.06,1,9,2026-03-18 22:56:59,37.08166,-121.5996,399.0,0.0,344.7,-12.6,,,,,0.0,10.8,-0.6,3.8,0.0,184.0,-0.0,-0.01,1.0,99.0,8.0,96.8,0.0,30.06,2667.0,,,42.0,,,,,0.0,0.0,,,,,,,2.0,,,-8.0,,,,,1.0,0.0,0.0,1200.0,68.0,82.4,949.0,949.0,13.4,1.8,,1.8,26.3,,,18.3,0.0,0.0,7.7,6.8,5.3,,,,,113.0,993.2,113.0,1014.8,114.8,1000.4,122.0,1016.6,,,12.0,0.0,,26.3,0.0,4.998,,,1.525,1.39,67.8,81.86,,,,,,949.0,115.7,1.1952479338842976,0.025722222222222223,4.048,413.6,True,2026-03-18 22:55:22 - Flight 1,1.8,0.0
98.06,1,9,2026-03-18 22:57:00,37.08166,-121.5996,398.0,0.0,344.7,-12.6,,,,,0.0,10.8,-0.6,3.8,0.0,184.0,0.0,-0.01,1.0,99.0,-18.0,96.8,0.0,30.06,2667.0,,,42.0,,,,,0.0,0.0,,,,,,,2.0,,,-8.0,,,,,1.0,0.0,0.0,1200.0,68.0,82.4,942.0,942.0,13.4,1.8,,1.8,26.3,,,18.3,0.0,0.0,7.5,6.8,5.3,,,,,113.0,995.0,114.8,1018.4,116.6,1000.4,122.0,1018.4,,,12.0,0.0,,26.3,0.0,4.998,,,1.525,1.39,67.7,81.86,,,,,,942.0,116.6,1.2045454545454546,0.026222222222222223,4.048,413.6,True,2026-03-18 22:55:22 - Flight 1,1.8,0.0
99.06,1,9,2026-03-18 22:57:01,37.08166,-121.5996,398.0,0.0,344.7,-12.6,,,,,0.0,10.9,-0.6,3.8,0.0,184.0,-0.0,-0.01,1.0,99.0,-25.0,96.8,0.0,30.06,2677.0,,,42.0,,,,,0.0,0.0,,,,,,,2.0,,,-8.0,,,,,1.0,0.0,0.0,1200.0,68.0,82.4,961.0,961.0,13.3,1.8,,1.8,26.3,,,18.3,0.0,0.0,7.5,6.8,5.3,,,,,114.8,995.0,114.8,1022.0,116.6,1002.2,123.8,1022.0,,,12.0,0.0,,26.3,0.0,4.998,,,1.525,1.39,67.8,81.86,,,,,,961.0,117.5,1.2138429752066116,0.026722222222222224,4.048,413.6,True,2026-03-18 22:55:22 - Flight 1,1.8,0.0
100.06,1,9,2026-03-18 22:57:02,37.08167,-121.5996,398.0,0.0,344.7,-12.6,,,,,0.0,10.9,-0.6,3.8,0.0,184.0,-0.0,-0.01,1.0,99.0,42.0,96.8,0.0,30.06,2677.0,,,42.0,,,,,0.0,0.0,,,,,,,2.0,,,-9.0,,,,,1.0,0.0,0.0,1200.0,68.0,82.4,966.0,966.0,13.2,1.8,,1.8,26.3,,,18.3,0.0,0.0,7.3,6.8,5.3,,,,,114.8,996.8,116.6,1022.0,118.4,1005.8,123.8,1025.6,,,12.0,0.0,,26.3,0.0,4.998,,,1.525,1.39,68.1,81.86,,,,,,966.0,118.39999999999999,1.2231404958677685,0.027222222222222224,4.048,413.6,True,2026-03-18 22:55:22 - Flight 1,1.8,0.0
101.06,1,9,2026-03-18 22:57:03,37.08167,-121.5996,397.0,0.0,344.7,-12.6,,,,,0.0,10.8,-0.6,3.8,0.0,184.0,0.0,-0.01,1.0,99.0,23.0,96.8,0.0,30.06,2679.0,,,42.0,,,,,0.0,0.0,,,,,,,2.0,,,-9.0,,,,,1.0,0.0,0.0,1200.0,68.0,82.4,976.0,976.0,13.1,1.7,,1.7,26.3,,,18.3,0.0,0.0,7.2,6.8,5.3,,,,,116.6,1000.4,116.6,1022.0,118.4,1005.8,125.6,1029.2,,,12.0,0.0,,26.3,0.0,4.998,,,1.523,1.39,68.3,81.86,,,,,,976.0,119.30000000000001,1.2324380165289257,0.027708333333333335,4.048,413.6,True,2026-03-18 22:55:22 - Flight 1,1.7,0.0
102.06,1,9,2026-03-18 22:57:04,37.08167,-121.59961,396.0,0.0,344.7,-12.6,,,,,0.0,10.8,-0.6,3.9,0.0,184.0,0.0,-0.01,1.0,99.0,13.0,96.8,0.0,30.06,2679.0,,,42.0,,,,,0.0,0.0,,,,,,,2.0,,,-9.0,,,,,1.0,0.0,0.0,1200.0,68.0,82.4,943.0,943.0,13.2,1.7,,1.7,26.3,,,18.3,0.0,0.0,7.1,6.8,5.3,,,,,116.6,1004.0,118.4,1023.8,120.2,1011.2,125.6,1031.0,,,12.0,0.0,,26.3,0.0,4.998,,,1.525,1.39,68.0,81.86,,,,,,943.0,120.20000000000002,1.241735537190083,0.028180555555555556,4.048,413.6,True,2026-03-18 22:55:22 - Flight 1,1.7,0.0
103.06,1,9,2026-03-18 22:57:05,37.08167,-121.59961,395.0,0.0,344.7,-12.6,,,,,0.0,10.8,-0.6,3.9,0.0,184.0,0.0,-0.01,1.0,99.0,-23.0,96.8,0.0,30.06,2679.0,,,42.0,,,,,0.0,0.0,,,,,,,-8.0,,,-9.0,,,,,1.0,0.0,0.0,1200.0,68.0,82.4,960.0,960.0,13.2,1.7,,1.7,26.3,,,18.3,0.0,0.0,7.0,6.8,5.3,,,,,118.4,1005.8,118.4,1025.6,120.2,1014.8,127.4,1032.8,,,12.0,0.0,,26.3,0.0,4.998,,,1.525,1.39,68.0,81.86,,,,,,960.0,121.1,1.2510330578512396,0.028652777777777777,4.048,413.6,True,2026-03-18 22:55:22 - Flight 1,1.7,0.0
104.06,1,9,2026-03-18 22:57:06,37.08167,-121.59961,394.0,0.0,344.7,-12.6,,,,,0.0,10.7,-0.6,3.9,0.0,184.0,0.0,-0.01,1.0,99.0,9.0,96.8,0.0,30.06,2691.0,,,42.0,,,,,0.0,0.0,,,,,,,-4.0,,,-9.0,,,,,1.0,0.0,0.0,1200.0,68.0,82.4,968.0,968.0,13.1,1.7,,1.7,26.3,,,18.3,0.0,0.0,6.9,6.8,5.3,,,,,118.4,1005.8,120.2,1027.4,122.0,1014.8,129.2,1034.6,,,12.0,0.0,,26.3,0.0,4.998,,,1.525,1.39,68.2,81.86,,,,,,968.0,122.44999999999999,1.264979338842975,0.029125,4.048,413.6,True,2026-03-18 22:55:22 - Flight 1,1.7,0.0
105.06,1,9,2026-03-18 22:57:07,37.08167,-121.59961,393.0,0.0,344.7,-12.6,,,,,0.0,10.8,-0.6,3.9,0.0,184.0,0.0,-0.01,1.0,99.0,52.0,96.8,0.0,30.06,2691.0,,,42.0,,,,,0.0,0.0,,,,,,,-4.0,,,-9.0,,,,,1.0,0.0,0.0,1200.0,68.0,82.4,953.0,953.0,13.1,1.7,,1.7,26.3,,,18.3,0.0,0.0,6.8,6.8,5.3,,,,,120.2,1009.4,120.2,1027.4,122.0,1020.2,129.2,1034.6,,,12.0,0.0,,26.3,0.0,4.998,,,1.525,1.39,68.0,81.86,,,,,,953.0,122.89999999999999,1.2696280991735536,0.029597222222222223,4.048,413.6,True,2026-03-18 22:55:22 - Flight 1,1.7,0.0
106.06,1,9,2026-03-18 22:57:08,37.08167,-121.59961,392.0,0.1,344.7,-12.6,,,,,0.0,10.8,-0.5,4.0,0.0,184.0,0.0,-0.01,1.0,99.0,22.0,96.8,0.0,30.06,2691.0,,,42.0,,,,,0.0,0.0,,,,,,,-3.0,,,-10.0,,,,,1.0,0.0,0.0,1200.0,68.0,82.4,954.0,954.0,13.2,1.7,,1.7,26.3,,,18.3,0.0,0.0,6.7,6.8,5.3,,,,,120.2,1013.0,122.0,1027.4,123.8,1020.2,131.0,1041.8,,,12.0,0.0,,26.3,0.0,4.998,,,1.525,1.39,68.0,81.86,,,,,,954.0,124.25,1.2835743801652892,0.030069444444444444,4.132333333333333,413.6,True,2026-03-18 22:55:22 - Flight 1,1.7,0.05882352941176471
107.06,1,9,2026-03-18 22:57:09,37.08167,-121.59961,391.0,0.0,344.7,-12.6,,,,,0.0,10.8,-0.5,4.0,0.0,184.0,0.0,-0.01,1.0,99.0,58.0,96.8,0.0,30.06,2701.0,,,42.0,,,,,0.0,0.0,,,,,,,-1.0,,,-10.0,,,,,1.0,0.0,0.0,1200.0,68.0,82.4,984.0,984.0,13.0,1.7,,1.7,26.3,,,18.3,0.0,0.0,6.7,6.8,5.3,,,,,122.0,1016.6,123.8,1029.2,125.6,1022.0,131.0,1043.6,,,12.0,0.0,,26.3,0.0,4.998,,,1.525,1.39,68.3,81.86,,,,,,984.0,125.60000000000001,1.297520661157025,0.030541666666666665,4.216666666666667,413.6,True,2026-03-18 22:55:22 - Flight 1,1.7,0.0
108.06,1,9,2026-03-18 22:57:10,37.08167,-121.59961,390.0,0.0,344.7,-12.6,,,,,0.0,10.8,-0.6,3.9,0.0,184.0,0.0,-0.01,0.9,99.0,29.0,96.8,0.0,30.06,2703.0,,,42.0,,,,,0.0,0.0,,,,,,,0.0,,,-10.0,,,,,1.0,0.0,0.0,1200.0,68.0,82.4,982.0,982.0,12.9,1.7,,1.7,26.3,,,18.3,0.0,0.0,6.6,6.8,5.3,,,,,122.0,1016.6,123.8,1029.2,125.6,1023.8,132.8,1043.6,,,12.0,0.0,,26.3,0.0,4.998,,,1.525,1.39,68.4,82.04,,,,,,982.0,126.05,1.3021694214876034,0.03101388888888889,4.216666666666667,413.6,True,2026-03-18 22:55:22 - Flight 1,1.7,0.0
109.06,1,9,2026-03-18 22:57:11,37.08167,-121.59961,388.0,0.0,344.7,-12.6,,,,,0.0,10.9,-0.6,3.9,0.0,184.0,-0.0,-0.02,1.0,99.0,9.0,96.8,0.0,30.06,2703.0,,,42.0,,,,,0.0,0.0,,,,,,,0.0,,,-10.0,,,,,1.0,0.0,0.0,1200.0,68.0,82.4,968.0,968.0,13.0,1.7,,1.7,26.3,,,18.3,0.0,0.0,6.5,6.8,5.3,,,,,123.8,1020.2,125.6,1032.8,127.4,1023.8,134.6,1036.4,,,12.0,0.0,,26.3,0.0,4.998,,,1.525,1.39,68.1,82.04,,,,,,968.0,127.85000000000001,1.3207644628099175,0.03148611111111111,4.216666666666667,413.6,True,2026-03-18 22:55:22 - Flight 1,1.7,0.0
110.06,1,9,2026-03-18 22:57:12,37.08167,-121.59961,387.0,0.0,344.7,-12.6,,,,,0.0,10.8,-0.6,3.9,0.0,184.0,-0.0,-0.01,1.0,99.0,19.0,96.8,0.0,30.06,2703.0,,,42.0,,,,,0.0,0.0,,,,,,,1.0,,,-10.0,,,,,1.0,1.0,0.0,1200.0,68.0,82.4,976.0,976.0,13.0,1.7,,1.7,26.3,,,18.3,0.0,0.0,6.5,6.8,5.3,,,,,123.8,1022.0,125.6,1032.8,127.4,1027.4,134.6,1045.4,,,12.0,0.0,,26.3,0.0,4.998,,,1.525,1.39,68.1,82.04,,,,,,976.0,127.85000000000001,1.3207644628099175,0.03195833333333333,4.216666666666667,413.6,True,2026-03-18 22:55:22 - Flight 1,1.7,0.0
111.06,1,9,2026-03-18 22:57:13,37.08167,-121.59961,386.0,0.0,344.7,-12.6,,,,,0.0,10.8,-0.5,4.0,0.0,184.0,0.0,-0.01,1.0,99.0,2.0,96.8,0.0,30.06,2712.0,,,42.0,,,,,0.0,0.0,,,,,,,1.0,,,-10.0,,,,,1.0,0.0,0.0,1200.0,68.0,82.4,970.0,970.0,13.0,1.6,,1.6,26.3,,,18.3,0.0,0.0,6.4,6.8,5.3,,,,,125.6,1022.0,127.4,1036.4,129.2,1032.8,136.4,1045.4,,,12.0,0.0,,26.3,0.0,4.998,,,1.525,1.39,68.0,82.04,,,,,,970.0,129.65,1.3393595041322315,0.03241666666666666,4.216666666666667,413.6,True,2026-03-18 22:55:22 - Flight 1,1.6,0.0
112.06,1,9,2026-03-18 22:57:14,37.08167,-121.59961,385.0,0.1,344.7,-12.6,,,,,0.0,10.9,-0.5,4.1,0.0,184.0,0.0,-0.01,1.0,99.0,8.0,96.8,0.0,30.06,2714.0,,,42.0,,,,,0.0,0.0,,,,,,,2.0,,,-10.0,,,,,1.0,0.0,0.0,1200.0,68.0,82.4,972.0,972.0,13.0,1.7,,1.7,26.3,,,18.3,0.0,0.0,6.3,6.8,5.3,,,,,125.6,1023.8,127.4,1036.4,129.2,1031.0,136.4,1049.0,,,12.0,0.0,,26.3,0.0,4.998,,,1.525,1.39,68.2,82.04,,,,,,972.0,129.65,1.3393595041322315,0.032875,4.301,413.6,True,2026-03-18 22:55:22 - Flight 1,1.7,0.05882352941176471
113.06,1,9,2026-03-18 22:57:15,37.08167,-121.59961,384.0,0.0,344.7,-12.6,,,,,0.0,10.8,-0.5,4.1,0.0,184.0,0.0,-0.01,1.0,99.0,28.0,96.8,0.0,30.06,2714.0,,,42.0,,,,,0.0,0.0,,,,,,,-8.0,,,18.0,,,,,1.0,0.0,0.0,1200.0,68.0,82.4,979.0,979.0,12.9,1.6,,1.6,26.3,,,18.3,0.0,0.0,6.2,6.8,5.3,,,,,127.4,1025.6,129.2,1038.2,131.0,1034.6,138.2,1054.4,,,12.0,0.0,,26.3,0.0,4.998,,,1.523,1.124,68.4,82.04,,,,,,979.0,131.45,1.3579545454545454,0.03333333333333333,4.3853333333333335,413.6,True,2026-03-18 22:55:22 - Flight 1,1.6,0.0
114.06,1,9,2026-03-18 22:57:16,37.08169,-121.59966,360.0,0.0,344.7,-12.6,,,,,0.0,10.8,-0.4,4.1,0.0,184.0,0.0,-0.01,1.0,99.0,4.0,96.8,0.0,30.06,2714.0,,,42.0,,,,,0.0,0.0,,,,,,,-7.0,,,18.0,,,,,1.0,0.0,0.0,1200.0,68.0,82.4,959.0,959.0,13.0,1.6,,1.6,26.3,,,18.3,0.0,0.0,6.2,6.8,5.3,,,,,127.4,1029.2,131.0,1040.0,131.0,1034.6,140.0,1056.2,,,6.0,0.0,,26.3,0.0,4.998,,,1.525,1.281,68.2,82.04,,,,,,959.0,132.35,1.3672520661157024,0.033777777777777775,4.3853333333333335,413.6,True,2026-03-18 22:55:22 - Flight 1,1.6,0.0
115.06,1,9,2026-03-18 22:57:17,37.08168,-121.59966,361.0,0.0,344.7,-12.6,,,,,0.0,10.8,-0.5,4.1,0.0,184.0,0.0,-0.01,1.0,99.0,-12.0,96.8,0.0,30.06,2724.0,,,42.0,,,,,0.0,0.0,,,,,,,-6.0,,,18.0,,,,,1.0,0.0,0.0,1200.0,68.0,82.4,980.0,980.0,13.1,1.6,,1.6,26.3,,,18.3,0.0,0.0,6.2,6.8,5.3,,,,,129.2,1031.0,131.0,1040.0,132.8,1036.4,140.0,1059.8,,,-6.0,0.0,,26.3,0.0,4.998,,,1.525,1.39,68.1,82.22,,,,,,980.0,133.25,1.3765495867768596,0.03422222222222222,4.3853333333333335,413.6,True,2026-03-18 22:55:22 - Flight 1,1.6,0.0
116.06,1,9,2026-03-18 22:57:18,37.08168,-121.59966,363.0,0.0,344.7,-12.6,,,,,0.0,10.8,-0.5,4.1,0.0,184.0,0.0,-0.01,1.0,99.0,9.0,96.8,0.0,30.06,2726.0,,,42.0,,,,,0.0,0.0,,,,,,,-6.0,,,18.0,,,,,1.0,0.0,0.0,1200.0,68.0,82.4,968.0,968.0,13.0,1.6,,1.6,26.2,,,18.3,0.0,0.0,6.1,6.8,5.3,,,,,131.0,1034.6,131.0,1040.0,132.8,1032.8,141.8,1058.0,,,-18.0,0.0,,26.2,0.0,4.998,,,1.525,1.39,68.0,82.22,,,,,,968.0,134.15,1.3858471074380165,0.034666666666666665,4.3853333333333335,413.6,True,2026-03-18 22:55:22 - Flight 1,1.6,0.0
117.06,1,9,2026-03-18 22:57:19,37.08168,-121.59965,363.0,0.1,344.7,-12.6,,,,,0.0,10.8,-0.5,4.1,0.0,184.0,0.0,-0.01,1.0,99.0,-2.0,96.8,0.0,30.06,2726.0,,,42.0,,,,,0.0,0.0,,,,,,,-6.0,,,17.0,,,,,1.0,0.0,0.0,1200.0,68.0,82.4,971.0,971.0,13.0,1.6,,1.6,26.2,,,18.3,0.0,0.0,6.1,6.8,5.3,,,,,131.0,1036.4,132.8,1041.8,134.6,1029.2,141.8,1065.2,,,-27.0,0.0,,26.2,0.0,4.998,,,1.525,1.39,68.1,82.22,,,,,,971.0,135.05,1.3951446280991737,0.035111111111111114,4.469666666666667,413.6,True,2026-03-18 22:55:22 - Flight 1,1.6,0.0625
118.06,1,9,2026-03-18 22:57:20,37.08168,-121.59965,363.0,0.1,344.7,-12.6,,,,,0.0,10.8,-0.6,4.0,0.0,184.0,0.0,-0.01,1.0,99.0,18.0,96.8,0.0,30.06,2726.0,,,42.0,,,,,0.0,0.0,,,,,,,-6.0,,,17.0,,,,,1.0,0.0,0.0,1200.0,68.0,82.4,976.0,976.0,12.9,1.6,,1.6,26.2,,,18.3,0.0,0.0,6.0,6.8,5.3,,,,,131.0,1036.4,134.6,1045.4,136.4,1034.6,143.6,1065.2,,,-25.0,0.0,,26.2,0.0,4.998,,,1.525,1.39,68.1,82.22,,,,,,976.0,136.4,1.4090909090909092,0.035555555555555556,4.638333333333333,413.6,True,2026-03-18 22:55:22 - Flight 1,1.6,0.0625
119.06,1,8,2026-03-18 22:57:21,37.08168,-121.59963,358.0,0.0,344.7,-12.6,,,,,0.0,10.8,-0.6,4.0,0.0,184.0,0.0,-0.01,0.9,99.0,-6.0,96.8,0.0,30.06,2736.0,,,42.0,,,,,0.0,0.0,,,,,,,-6.0,,,16.0,,,,,1.0,0.0,0.0,1200.0,68.0,82.4,970.0,970.0,13.0,1.6,,1.6,26.2,,,18.3,0.0,0.0,5.9,6.8,5.3,,,,,132.8,1038.2,134.6,1049.0,136.4,1034.6,145.4,1070.6,,,-25.0,0.0,,26.2,0.0,4.998,,,1.525,1.39,68.0,82.22,,,,,,970.0,137.3,1.4183884297520664,0.036,4.722666666666666,413.6,True,2026-03-18 22:55:22 - Flight 1,1.6,0.0
