Session Time,GPS Fix Quality,Number of Satellites,GPS Date & Time,Latitude (deg),Longitude (deg),GPS Altitude (feet),Ground Speed (knots),Ground Track (deg),Mag Var (deg),Cross Track Error (NM),Destination Waypoint ID,Range to Destination (NM),Bearing to Destination (deg),System Time,Pitch (deg),Roll (deg),Magnetic Heading (deg),Indicated Airspeed (knots),Pressure Altitude (ft),Turn Rate (deg/s),Lateral Accel (g),Vertical Accel(g),Angle of Attack (%),Vertical Speed (ft/min),OAT (deg C),True Airspeed (knots),Barometer Setting (inHg),Density Altitude (ft),Wind Direction (deg),Wind Speed (knots),Heading Bug (deg),Altitude Bug (ft),Airspeed Bug (knots),Vertical Speed Bug (ft/min),Course (deg),CDI Source Type,CDI Source Port,CDI Scale (NM),CDI Deflection (%),Glideslope (%),AP Engaged,AP Roll Mode,AP Roll Force,AP Roll Position (steps),AP Roll Slip (bool),AP Pitch Force,AP Pitch Position (steps),AP Pitch Slip (bool),AP Yaw Force,AP Yaw Position,AP Yaw Slip (bool),Transponder Status,Transponder Reply (bool),Transponder Identing (bool),Transponder Code (octal),Oil Pressure (PSI),Oil Temp (deg C),RPM L,RPM R,Manifold Pressure (inHg),Fuel Flow 1 (gal/hr),Fuel Flow 2 (gal/hr),Total Fuel Flow (gal/hr),Fuel Pressure (PSI),Fuel Level L (gal),Fuel Level R (gal),Fuel Remaining (gal),Volts 1,Volts 2,Amps,Hobbs Time,Tach Time,Thermocouple 1 (deg C),Thermocouple 2 (deg C),Thermocouple 3 (deg C),Thermocouple 4 (deg C),CHT 4 (deg C),EGT 4 (deg C),CHT 3 (deg C),EGT 3 (deg C),CHT 2 (deg C),EGT 2 (deg C),CHT 1 (deg C),EGT 1 (deg C),Thermocouple 13 (deg C),Thermocouple 14 (deg C),ELEV POSITION (%),CO PPM PRESSURE (PSI),GP Input 3,FUEL PRESSURE (PSI),AILERN POSITION (%),CANOPY CONTACT (V),GP Input 7,GP Input 8,LEFT LEVEL (Sensor V),RIGHT LEVEL (Sensor V),OIL PRESSURE (PSI),OIL TEMPERATURE (deg C),GP Input 13,Contacts,Percent Power,EGT Leaning State,Unnamed: 103,OAT (deg F),Oil Temp (deg F),Thermocouple 1 (deg F),Thermocouple 2 (deg F),Thermocouple 3 (deg F),Thermocouple 4 (deg F),CHT 4 (deg F),EGT 4 (deg F),CHT 3 (deg F),EGT 3 (deg F),CHT 2 (deg F),EGT 2 (deg F),CHT 1 (deg F),EGT 1 (deg F),Thermocouple 13 (deg F),Thermocouple 14 (deg F),OIL TEMPERATURE (deg F),RPM,AVG_CHT,CHT_Delta_T,OIL_Delta_T,Fuel Flow Integral,Distance Traveled,Max CHT,Engine Run,Flight ID
0.06,1.0,10.0,2026-03-10 23:31:52,37.08164,-121.59966,429.0,0.0,47.8,-12.7,,,,,0.0,,,,,,,,,,,24.0,,,,,,140.0,,130.0,-100.0,,0.0,0.0,,,,,,,,,,,,,,,,,,,,,0.0,0.0,,0.0,,,,,,15.7,,,,4.0,2.7,,,,,,,,,,,,,,,,,,,,,,,,,,,,,,,,75.2,,,,,,,,,,,,,,,,,0.0,,,,0.0,0.0,406.4,True,2026-03-10 23:31:52
1.06,1.0,10.0,2026-03-10 23:31:53,37.08164,-121.59966,429.0,0.0,47.8,-12.6,,,,,0.0,10.7,-0.8,38.4,0.0,88.0,0.0,-0.01,1.0,,-168.0,24.0,0.0,30.12,1201.0,,,140.0,,130.0,-100.0,,0.0,0.0,,,,,,,,,,,,,,,,,,,,,0.0,0.0,,0.0,,0.0,,,,15.7,0.0,0.0,-0.7,4.0,2.7,,,,,19.0,20.0,19.0,20.0,19.0,20.0,20.0,20.0,,,9.0,254.4,,0.2,8.0,4.998,,,2.758,0.869,0.0,57.9,,,,,,75.2,,,,,,66.2,68.0,66.2,68.0,66.2,68.0,68.0,68.0,,,136.22,0.0,66.64999999999999,-8.550000000000011,,0.0,0.0,406.4,True,2026-03-10 23:31:52
2.06,1.0,10.0,2026-03-10 23:31:54,37.08164,-121.59966,429.0,0.0,47.8,-12.6,,,,,0.0,10.7,-0.8,38.4,0.0,86.0,-0.0,-0.01,1.0,,-146.0,24.0,0.0,30.12,1201.0,,,140.0,,130.0,-100.0,,0.0,0.0,,,,,,,,,,,,,,,,,,,,,0.0,0.0,,0.0,,0.0,,,,15.7,0.0,0.0,-0.7,4.0,2.7,,,,,19.0,20.0,19.0,20.0,19.0,20.0,20.0,20.0,,,9.0,254.4,,0.2,7.0,4.998,,,2.758,0.869,0.0,,,,,,,75.2,,,,,,66.2,68.0,66.2,68.0,66.2,68.0,68.0,68.0,,,,0.0,66.64999999999999,-8.550000000000011,,0.0,0.0,406.4,True,2026-03-10 23:31:52
3.06,1.0,10.0,2026-03-10 23:31:55,37.08164,-121.59966,430.0,0.0,47.8,-12.6,,,,,0.0,10.7,-0.8,38.3,0.0,85.0,0.0,-0.01,1.0,,-106.0,24.0,0.0,30.12,1201.0,,,140.0,,130.0,-100.0,,0.0,0.0,,,,,,,,,,,,,,,,,,,,,0.0,0.0,,0.0,,0.0,,,,15.7,0.0,0.0,-0.7,4.0,2.7,,,,,19.0,20.0,19.0,20.0,19.0,20.0,20.0,20.0,,,9.0,254.4,,0.2,7.0,4.998,,,2.758,0.869,0.0,,,,,,,75.2,,,,,,66.2,68.0,66.2,68.0,66.2,68.0,68.0,68.0,,,,0.0,66.64999999999999,-8.550000000000011,,0.0,0.0,406.4,True,2026-03-10 23:31:52
4.06,1.0,10.0,2026-03-10 23:31:57,37.08164,-121.59966,430.0,0.0,47.8,-12.6,,,,,0.0,10.7,-0.8,38.4,0.0,84.0,0.0,-0.01,1.0,,-60.0,24.0,0.0,30.12,1204.0,,,140.0,,130.0,-100.0,,0.0,0.0,,,,,,,,,,,,,,,,,,,,,0.0,0.0,,0.0,,0.0,,,,15.7,0.0,0.0,-0.7,4.0,2.7,,,,,19.0,20.0,19.0,20.0,19.0,20.0,20.0,20.0,,,9.0,254.4,,0.2,7.0,4.998,,,2.758,0.869,0.0,18.5,,,,,,75.2,,,,,,66.2,68.0,66.2,68.0,66.2,68.0,68.0,68.0,,,65.3,0.0,66.64999999999999,-8.550000000000011,,0.0,0.0,406.4,True,2026-03-10 23:31:52
5.06,1.0,10.0,2026-03-10 23:31:57,37.08164,-121.59966,431.0,0.0,47.8,-12.6,,,,,0.0,10.7,-0.8,38.4,0.0,84.0,0.0,-0.01,1.0,,-50.0,24.0,0.0,30.12,1204.0,,,140.0,,,,,0.0,0.0,,,,,,,,,,,,,,,,,,,0.0,19.0,0.0,0.0,30.2,0.0,,0.0,0.2,,,15.7,0.0,0.0,-0.7,4.0,2.7,,,,,19.0,20.0,19.0,20.0,19.0,20.0,20.0,20.0,,,9.0,254.4,,0.2,8.0,4.998,,,2.758,0.868,0.0,18.5,,,,,,75.2,66.2,,,,,66.2,68.0,66.2,68.0,66.2,68.0,68.0,68.0,,,65.3,0.0,66.64999999999999,-8.550000000000011,-9.0,0.0,0.0,406.4,True,2026-03-10 23:31:52
6.06,1.0,10.0,2026-03-10 23:31:58,37.08164,-121.59965,431.0,0.0,47.8,-12.6,,,,,0.0,10.7,-0.8,38.4,0.0,84.0,0.0,-0.01,1.0,,-58.0,24.0,0.0,30.12,1204.0,,,140.0,,,,,0.0,0.0,,,,,,,,,,,,,,,,,,,0.0,19.0,0.0,0.0,30.3,0.0,,0.0,0.2,,,15.7,0.0,0.0,-0.7,4.0,2.7,,,,,19.0,20.0,19.0,20.0,19.0,20.0,20.0,20.0,,,9.0,254.4,,0.2,8.0,4.998,,,2.758,0.869,0.0,18.5,,,,,,75.2,66.2,,,,,66.2,68.0,66.2,68.0,66.2,68.0,68.0,68.0,,,65.3,0.0,66.64999999999999,-8.550000000000011,-9.0,0.0,0.0,406.4,True,2026-03-10 23:31:52
7.06,1.0,10.0,2026-03-10 23:31:59,37.08164,-121.59965,431.0,0.0,47.8,-12.6,,,,,0.0,10.7,-0.8,38.4,0.0,81.0,0.0,-0.01,1.0,,-89.0,24.0,0.0,30.12,1203.0,,,140.0,,,,,0.0,0.0,,,,,,,,,,,,,,,,,,,0.0,18.0,0.0,0.0,30.3,0.0,,0.0,0.2,,,15.7,0.0,0.0,-0.7,4.0,2.7,,,,,19.0,20.0,19.0,20.0,19.0,20.0,20.0,20.0,,,9.0,254.4,,0.2,7.0,4.998,,,2.758,0.869,0.0,18.5,,,,,,75.2,64.4,,,,,66.2,68.0,66.2,68.0,66.2,68.0,68.0,68.0,,,65.3,0.0,66.64999999999999,-8.550000000000011,-10.799999999999997,0.0,0.0,406.4,True,2026-03-10 23:31:52
8.06,1.0,10.0,2026-03-10 23:32:00,37.08164,-121.59965,432.0,0.0,47.8,-12.6,,,,,0.0,10.7,-0.8,38.4,0.0,80.0,0.0,-0.01,1.0,,-97.0,24.0,0.0,30.12,1203.0,,,140.0,,,,,0.0,0.0,,,,,,,,,,,,,,,,,,,0.0,18.0,0.0,0.0,30.3,0.0,,0.0,0.2,,,15.7,0.0,0.0,-0.7,4.0,2.7,,,,,19.0,20.0,19.0,20.0,19.0,20.0,20.0,20.0,,,9.0,254.4,,0.2,7.0,4.998,,,2.759,0.869,0.0,18.5,,,,,,75.2,64.4,,,,,66.2,68.0,66.2,68.0,66.2,68.0,68.0,68.0,,,65.3,0.0,66.64999999999999,-8.550000000000011,-10.799999999999997,0.0,0.0,406.4,True,2026-03-10 23:31:52
9.06,1.0,10.0,2026-03-10 23:32:01,37.08164,-121.59965,432.0,0.0,47.8,-12.6,,,,,0.0,10.7,-0.8,38.4,0.0,79.0,0.0,-0.01,1.0,,-79.0,24.0,0.0,30.12,1203.0,,,140.0,,,,,0.0,0.0,,,,,,,,,,,,,,,,,,,0.0,18.0,0.0,0.0,30.3,0.0,,0.0,0.2,,,15.7,0.0,0.0,-0.7,4.0,2.7,,,,,19.0,20.0,19.0,20.0,19.0,20.0,20.0,20.0,,,9.0,254.4,,0.2,7.0,4.998,,,2.758,0.868,0.0,18.5,,,,,,75.2,64.4,,,,,66.2,68.0,66.2,68.0,66.2,68.0,68.0,68.0,,,65.3,0.0,66.64999999999999,-8.550000000000011,-10.799999999999997,0.0,0.0,406.4,True,2026-03-10 23:31:52
10.06,1.0,10.0,2026-03-10 23:32:02,37.08163,-121.59965,432.0,0.0,47.8,-12.6,,,,,0.0,10.7,-0.8,38.3,0.0,78.0,0.0,-0.01,1.0,,-71.0,24.0,0.0,30.12,1197.0,,,140.0,,,,,0.0,0.0,,,,,,,,,,,,,,,,,,,0.0,18.0,0.0,0.0,30.3,0.0,,0.0,0.2,,,15.7,0.0,0.0,-0.7,4.0,2.7,,,,,19.0,20.0,19.0,20.0,19.0,20.0,20.0,20.0,,,9.0,254.4,,0.2,8.0,4.998,,,2.758,0.868,0.0,18.5,,,,,,75.2,64.4,,,,,66.2,68.0,66.2,68.0,66.2,68.0,68.0,68.0,,,65.3,0.0,66.64999999999999,-8.550000000000011,-10.799999999999997,0.0,0.0,406.4,True,2026-03-10 23:31:52
11.06,1.0,10.0,2026-03-10 23:32:03,37.08163,-121.59965,432.0,0.1,47.8,-12.6,,,,,0.0,10.7,-0.8,38.3,0.0,77.0,0.0,-0.01,1.0,,-56.0,24.0,0.0,30.12,1197.0,,,140.0,,,,,0.0,0.0,,,,,,,,,,,,,,,,,,,0.0,18.0,0.0,0.0,30.3,0.0,,0.0,0.2,,,15.7,0.0,0.0,-0.7,4.0,2.7,,,,,19.0,20.0,19.0,20.0,19.0,20.0,20.0,20.0,,,9.0,254.4,,0.2,7.0,4.998,,,2.759,0.868,0.0,18.5,,,,,,75.2,64.4,,,,,66.2,68.0,66.2,68.0,66.2,68.0,68.0,68.0,,,65.3,0.0,66.64999999999999,-8.550000000000011,-10.799999999999997,0.0,0.08433333333333333,406.4,True,2026-03-10 23:31:52
12.06,1.0,10.0,2026-03-10 23:32:04,37.08163,-121.59965,432.0,0.0,47.8,-12.6,,,,,0.0,10.7,-0.9,38.3,0.0,77.0,0.0,-0.01,1.0,,-31.0,24.0,0.0,30.12,1197.0,,,140.0,,,,,0.0,0.0,,,,,,,,,,,,,,,,,,,0.0,18.0,0.0,0.0,30.3,0.0,,0.0,0.2,,,15.7,0.0,0.0,-0.7,4.0,2.7,,,,,19.0,20.0,19.0,20.0,19.0,20.0,20.0,20.0,,,9.0,254.4,,0.2,8.0,4.998,,,2.758,0.868,0.0,18.5,,,,,,75.2,64.4,,,,,66.2,68.0,66.2,68.0,66.2,68.0,68.0,68.0,,,65.3,0.0,66.64999999999999,-8.550000000000011,-10.799999999999997,0.0,0.16866666666666666,406.4,True,2026-03-10 23:31:52
13.06,1.0,10.0,2026-03-10 23:32:05,37.08163,-121.59965,431.0,0.0,47.8,-12.6,,,,,0.0,10.7,-0.9,38.3,0.0,77.0,-0.0,-0.01,1.0,,-16.0,24.0,0.0,30.12,1196.0,,,140.0,,,,,0.0,0.0,,,,,,,,,,,,,,,,,,,0.0,18.0,0.0,0.0,30.3,0.0,,0.0,0.2,,,15.7,0.0,0.0,-0.7,4.0,2.7,,,,,19.0,20.0,19.0,20.0,19.0,20.0,20.0,20.0,,,9.0,254.4,,0.2,8.0,4.998,,,2.759,0.868,0.0,18.5,,,,,,75.2,64.4,,,,,66.2,68.0,66.2,68.0,66.2,68.0,68.0,68.0,,,65.3,0.0,66.64999999999999,-8.550000000000011,-10.799999999999997,0.0,0.16866666666666666,406.4,True,2026-03-10 23:31:52
14.06,1.0,10.0,2026-03-10 23:32:06,37.08163,-121.59965,430.0,0.0,47.8,-12.6,,,,,0.0,10.8,-0.9,38.3,0.0,77.0,0.0,-0.01,1.0,,15.0,24.0,0.0,30.12,1196.0,,,140.0,,,,,0.0,0.0,,,,,,,,,,,,,,,,,,,0.0,18.0,0.0,0.0,30.3,0.0,,0.0,0.2,,,15.7,0.0,0.0,-0.7,4.0,2.7,,,,,19.0,20.0,19.0,20.0,19.0,20.0,20.0,20.0,,,9.0,254.4,,0.2,8.0,4.998,,,2.759,0.869,0.0,18.5,,,,,,75.2,64.4,,,,,66.2,68.0,66.2,68.0,66.2,68.0,68.0,68.0,,,65.3,0.0,66.64999999999999,-8.550000000000011,-10.799999999999997,0.0,0.16866666666666666,406.4,True,2026-03-10 23:31:52
15.06,1.0,10.0,2026-03-10 23:32:07,37.08163,-121.59965,429.0,0.0,47.8,-12.6,,,,,0.0,10.7,-0.8,38.3,0.0,77.0,0.0,-0.01,1.0,,14.0,24.0,0.0,30.12,1196.0,,,140.0,,,,,0.0,0.0,,,,,,,,,,,,,,,,,,,0.0,18.0,0.0,0.0,30.3,0.0,,0.0,0.2,,,15.7,0.0,0.0,-0.7,4.0,2.7,,,,,19.0,20.0,19.0,20.0,19.0,20.0,20.0,20.0,,,9.0,254.4,,0.2,8.0,4.998,,,2.758,0.87,0.0,18.5,,,,,,75.2,64.4,,,,,66.2,68.0,66.2,68.0,66.2,68.0,68.0,68.0,,,65.3,0.0,66.64999999999999,-8.550000000000011,-10.799999999999997,0.0,0.16866666666666666,406.4,True,2026-03-10 23:31:52
16.06,1.0,10.0,2026-03-10 23:32:08,37.08163,-121.59965,428.0,0.0,47.8,-12.6,,,,,0.0,10.8,-0.8,38.2,0.0,77.0,0.0,-0.01,1.0,,10.0,24.0,0.0,30.12,1206.0,,,140.0,,,,,0.0,0.0,,,,,,,,,,,,,,,,,,,0.0,18.0,0.0,0.0,30.3,0.0,,0.0,0.2,,,15.7,0.0,0.0,-0.7,4.0,2.7,,,,,19.0,20.0,19.0,20.0,19.0,20.0,20.0,20.0,,,9.0,254.4,,0.2,8.0,4.998,,,2.758,0.869,0.0,18.5,,,,,,75.2,64.4,,,,,66.2,68.0,66.2,68.0,66.2,68.0,68.0,68.0,,,65.3,0.0,66.64999999999999,-8.550000000000011,-10.799999999999997,0.0,0.16866666666666666,406.4,True,2026-03-10 23:31:52
17.06,1.0,10.0,2026-03-10 23:32:09,37.08163,-121.59965,426.0,0.0,47.8,-12.6,,,,,0.0,10.8,-0.8,38.2,0.0,77.0,0.0,-0.01,1.0,,14.0,24.0,0.0,30.12,1205.0,,,140.0,,,,,0.0,0.0,,,,,,,,,,,,,,,,,,,0.0,18.0,0.0,0.0,30.3,0.0,,0.0,0.1,,,15.7,0.0,0.0,-0.7,4.0,2.7,,,,,19.0,20.0,19.0,20.0,19.0,20.0,20.0,20.0,,,9.0,254.4,,0.1,7.0,4.998,,,2.758,0.87,0.0,18.5,,,,,,75.2,64.4,,,,,66.2,68.0,66.2,68.0,66.2,68.0,68.0,68.0,,,65.3,0.0,66.64999999999999,-8.550000000000011,-10.799999999999997,0.0,0.16866666666666666,406.4,True,2026-03-10 23:31:52
18.06,1.0,10.0,2026-03-10 23:32:10,37.08163,-121.59965,424.0,0.0,47.8,-12.6,,,,,0.0,10.8,-0.9,38.2,0.0,77.0,0.0,-0.01,1.0,,11.0,24.0,0.0,30.12,1205.0,,,140.0,,,,,0.0,0.0,,,,,,,,,,,,,,,,,,,0.0,18.0,0.0,0.0,30.3,0.0,,0.0,0.0,,,15.7,0.0,0.0,-0.7,4.0,2.7,,,,,19.0,20.0,19.0,20.0,19.0,20.0,20.0,20.0,,,9.0,254.4,,0.0,8.0,4.998,,,2.759,0.87,0.0,18.5,,,,,,75.2,64.4,,,,,66.2,68.0,66.2,68.0,66.2,68.0,68.0,68.0,,,65.3,0.0,66.64999999999999,-8.550000000000011,-10.799999999999997,0.0,0.16866666666666666,406.4,True,2026-03-10 23:31:52
19.06,1.0,10.0,2026-03-10 23:32:11,37.08164,-121.59965,422.0,0.0,47.8,-12.6,,,,,0.0,10.7,-0.9,38.2,0.0,77.0,0.0,-0.01,1.0,,-10.0,24.0,0.0,30.12,1205.0,,,140.0,,,,,0.0,0.0,,,,,,,,,,,,,,,,,,,0.0,18.0,0.0,0.0,30.3,0.0,,0.0,0.0,,,15.7,0.0,0.0,-0.7,4.0,2.7,,,,,19.0,20.0,19.0,20.0,19.0,20.0,20.0,20.0,,,9.0,254.4,,0.0,8.0,4.998,,,2.758,0.873,0.0,18.5,,,,,,75.2,64.4,,,,,66.2,68.0,66.2,68.0,66.2,68.0,68.0,68.0,,,65.3,0.0,66.64999999999999,-8.550000000000011,-10.799999999999997,0.0,0.16866666666666666,406.4,True,2026-03-10 23:31:52
20.06,1.0,10.0,2026-03-10 23:32:12,37.08164,-121.59965,419.0,0.0,47.8,-12.6,,,,,0.0,10.8,-0.9,38.2,0.0,77.0,0.0,-0.01,1.0,,-28.0,24.0,0.0,30.12,1206.0,,,140.0,,,,,0.0,0.0,,,,,,,,,,,,,,,,,,,0.0,18.0,0.0,0.0,30.3,0.0,,0.0,0.0,,,15.7,0.0,0.0,-0.7,4.0,2.7,,,,,19.0,20.0,19.0,20.0,19.0,20.0,20.0,20.0,,,9.0,254.4,,0.0,8.0,4.998,,,2.758,0.874,0.0,18.5,,,,,,75.2,64.4,,,,,66.2,68.0,66.2,68.0,66.2,68.0,68.0,68.0,,,65.3,0.0,66.64999999999999,-8.550000000000011,-10.799999999999997,0.0,0.16866666666666666,406.4,True,2026-03-10 23:31:52
21.06,1.0,10.0,2026-03-10 23:32:13,37.08164,-121.59965,417.0,0.1,47.8,-12.6,,,,,0.0,10.8,-0.9,38.2,0.0,76.0,0.0,-0.01,1.0,,-56.0,24.0,0.0,30.12,1206.0,,,140.0,,,,,0.0,0.0,,,,,,,,,,,,,,,,,,,0.0,18.0,0.0,0.0,30.3,0.0,,0.0,0.0,,,15.7,0.0,0.0,-0.7,4.0,2.7,,,,,19.0,20.0,19.0,20.0,19.0,20.0,20.0,20.0,,,9.0,254.3,,0.0,8.0,4.998,,,2.759,0.875,0.0,18.5,,,,,,75.2,64.4,,,,,66.2,68.0,66.2,68.0,66.2,68.0,68.0,68.0,,,65.3,0.0,66.64999999999999,-8.550000000000011,-10.799999999999997,0.0,0.253,406.4,True,2026-03-10 23:31:52
22.06,1.0,10.0,2026-03-10 23:32:14,37.08164,-121.59965,415.0,0.0,47.8,-12.6,,,,,0.0,10.8,-0.9,38.2,0.0,75.0,0.0,-0.01,1.0,,-83.0,24.0,0.0,30.12,1206.0,,,140.0,,,,,0.0,0.0,,,,,,,,,,,,,,,,,,,0.0,18.0,0.0,0.0,30.3,0.0,,0.0,0.0,,,15.7,0.0,0.0,-0.7,4.0,2.7,,,,,19.0,20.0,19.0,20.0,19.0,20.0,20.0,20.0,,,9.0,254.3,,0.0,8.0,4.998,,,2.759,0.88,0.0,18.5,,,,,,75.2,64.4,,,,,66.2,68.0,66.2,68.0,66.2,68.0,68.0,68.0,,,65.3,0.0,66.64999999999999,-8.550000000000011,-10.799999999999997,0.0,0.3373333333333333,406.4,True,2026-03-10 23:31:52
23.06,1.0,10.0,2026-03-10 23:32:15,37.08164,-121.59965,413.0,0.0,47.8,-12.6,,,,,0.0,10.7,-0.9,38.2,0.0,72.0,0.0,-0.01,1.0,,-103.0,24.0,0.0,30.12,1202.0,,,140.0,,,,,0.0,0.0,,,,,,,,,,,,,,,,,,,0.0,18.0,0.0,0.0,30.3,0.0,,0.0,0.0,,,15.7,0.0,0.0,-0.7,4.0,2.7,,,,,20.0,20.0,20.0,20.0,20.0,20.0,20.0,20.0,,,9.0,254.3,,0.0,8.0,4.998,,,2.758,0.879,0.0,18.5,,,,,,75.2,64.4,,,,,68.0,68.0,68.0,68.0,68.0,68.0,68.0,68.0,,,65.3,0.0,68.0,-7.200000000000003,-10.799999999999997,0.0,0.3373333333333333,406.4,True,2026-03-10 23:31:52
24.06,1.0,10.0,2026-03-10 23:32:16,37.08164,-121.59965,411.0,0.0,47.8,-12.6,,,,,0.0,10.7,-0.8,38.2,0.0,70.0,0.0,-0.01,1.0,,-120.0,24.0,0.0,30.12,1202.0,,,140.0,,,,,0.0,0.0,,,,,,,,,,,,,,,,,,,0.0,18.0,0.0,0.0,30.3,0.0,,0.0,0.0,,,15.7,0.0,0.0,-0.7,4.0,2.7,,,,,19.0,20.0,19.0,20.0,19.0,20.0,20.0,20.0,,,9.0,254.3,,0.0,8.0,4.998,,,2.758,0.879,0.0,18.5,,,,,,75.2,64.4,,,,,66.2,68.0,66.2,68.0,66.2,68.0,68.0,68.0,,,65.3,0.0,66.64999999999999,-8.550000000000011,-10.799999999999997,0.0,0.3373333333333333,406.4,True,2026-03-10 23:31:52
25.06,1.0,10.0,2026-03-10 23:32:17,37.08164,-121.59965,410.0,0.0,47.8,-12.6,,,,,0.0,10.7,-0.9,38.3,0.0,67.0,0.0,-0.01,1.0,,-137.0,24.0,0.0,30.12,1202.0,,,140.0,,,,,0.0,0.0,,,,,,,,,,,,,,,,,,,0.0,18.0,0.0,0.0,30.3,0.0,,0.0,0.0,,,15.7,0.0,0.0,-0.7,4.0,2.7,,,,,20.0,20.0,20.0,20.0,20.0,20.0,20.0,20.0,,,9.0,254.3,,0.0,8.0,4.998,,,2.758,0.87,0.0,18.5,,,,,,75.2,64.4,,,,,68.0,68.0,68.0,68.0,68.0,68.0,68.0,68.0,,,65.3,0.0,68.0,-7.200000000000003,-10.799999999999997,0.0,0.3373333333333333,406.4,True,2026-03-10 23:31:52
26.06,1.0,10.0,2026-03-10 23:32:18,37.08164,-121.59965,408.0,0.0,47.8,-12.6,,,,,0.0,10.7,-0.9,38.3,0.0,65.0,0.0,-0.01,1.0,,-141.0,24.0,0.0,30.12,1194.0,,,140.0,,,,,0.0,0.0,,,,,,,,,,,,,,,,,,,0.0,18.0,0.0,0.0,30.3,0.0,,0.0,0.0,,,15.7,0.0,0.0,-0.7,4.0,2.7,,,,,20.0,20.0,20.0,20.0,20.0,20.0,20.0,20.0,,,9.0,254.3,,0.0,8.0,4.998,,,2.758,0.868,0.0,18.5,,,,,,75.2,64.4,,,,,68.0,68.0,68.0,68.0,68.0,68.0,68.0,68.0,,,65.3,0.0,68.0,-7.200000000000003,-10.799999999999997,0.0,0.3373333333333333,406.4,True,2026-03-10 23:31:52
27.06,1.0,10.0,2026-03-10 23:32:19,37.08164,-121.59965,407.0,0.0,47.8,-12.6,,,,,0.0,10.7,-0.8,38.3,0.0,64.0,0.0,-0.01,1.0,,-113.0,24.0,0.0,30.12,1194.0,,,140.0,,,,,0.0,0.0,,,,,,,,,,,,,,,,,,,0.0,18.0,0.0,0.0,30.3,0.0,,0.0,0.0,,,15.7,0.0,0.0,-0.7,4.0,2.7,,,,,20.0,20.0,20.0,20.0,20.0,20.0,20.0,20.0,,,9.0,254.3,,0.0,8.0,4.998,,,2.758,0.864,0.0,18.5,,,,,,75.2,64.4,,,,,68.0,68.0,68.0,68.0,68.0,68.0,68.0,68.0,,,65.3,0.0,68.0,-7.200000000000003,-10.799999999999997,0.0,0.3373333333333333,406.4,True,2026-03-10 23:31:52
28.06,1.0,10.0,2026-03-10 23:32:20,37.08164,-121.59965,405.0,0.0,47.8,-12.6,,,,,0.0,10.7,-0.8,38.4,0.0,62.0,0.0,-0.01,1.0,,-113.0,24.0,0.0,30.12,1194.0,,,140.0,,,,,0.0,0.0,,,,,,,,,,,,,,,,,,,0.0,18.0,0.0,0.0,30.3,0.0,,0.0,0.0,,,15.7,0.0,0.0,-0.7,4.0,2.7,,,,,20.0,20.0,20.0,20.0,20.0,20.0,20.0,20.0,,,9.0,254.3,,0.0,8.0,4.998,,,2.758,0.863,0.0,18.5,,,,,,75.2,64.4,,,,,68.0,68.0,68.0,68.0,68.0,68.0,68.0,68.0,,,65.3,0.0,68.0,-7.200000000000003,-10.799999999999997,0.0,0.3373333333333333,406.4,True,2026-03-10 23:31:52
29.06,1.0,10.0,2026-03-10 23:32:21,37.08164,-121.59965,404.0,0.0,47.8,-12.6,,,,,0.0,10.7,-0.8,38.4,0.0,58.0,0.0,-0.01,1.0,,-163.0,24.0,0.0,30.12,1187.0,,,140.0,,,,,0.0,0.0,,,,,,,,,,,,,,,,,,,0.0,18.0,0.0,0.0,30.3,0.0,,0.0,0.0,,,15.7,0.0,0.0,-0.7,4.0,2.7,,,,,20.0,20.0,20.0,20.0,20.0,20.0,20.0,20.0,,,9.0,254.3,,0.0,8.0,4.998,,,2.758,0.862,0.0,18.5,,,,,,75.2,64.4,,,,,68.0,68.0,68.0,68.0,68.0,68.0,68.0,68.0,,,65.3,0.0,68.0,-7.200000000000003,-10.799999999999997,0.0,0.3373333333333333,406.4,True,2026-03-10 23:31:52
30.06,1.0,10.0,2026-03-10 23:32:22,37.08164,-121.59965,403.0,0.0,47.8,-12.6,,,,,0.0,10.6,-0.8,38.4,0.0,56.0,0.0,-0.01,1.0,,-158.0,24.0,0.0,30.16,1187.0,,,140.0,,,,,0.0,0.0,,,,,,,,,,,,,,,,,,,0.0,18.0,0.0,0.0,30.3,0.0,,0.0,0.0,,,15.7,0.0,0.0,-0.7,4.0,2.7,,,,,20.0,20.0,20.0,20.0,20.0,20.0,20.0,20.0,,,9.0,254.3,,0.0,8.0,4.998,,,2.758,0.859,0.0,18.5,,,,,,75.2,64.4,,,,,68.0,68.0,68.0,68.0,68.0,68.0,68.0,68.0,,,65.3,0.0,68.0,-7.200000000000003,-10.799999999999997,0.0,0.3373333333333333,406.4,True,2026-03-10 23:31:52
31.06,1.0,10.0,2026-03-10 23:32:23,37.08164,-121.59965,402.0,0.0,47.8,-12.6,,,,,0.0,10.6,-0.8,38.4,0.0,54.0,-0.0,-0.01,1.0,,-131.0,24.0,0.0,30.17,1187.0,,,140.0,,,,,0.0,0.0,,,,,,,,,,,,,,,,,,,0.0,18.0,0.0,0.0,30.3,0.0,,0.0,0.0,,,15.7,0.0,0.0,-0.7,4.0,2.7,,,,,20.0,20.0,20.0,20.0,20.0,20.0,20.0,20.0,,,9.0,254.3,,0.0,8.0,4.998,,,2.758,0.859,0.0,18.5,,,,,,75.2,64.4,,,,,68.0,68.0,68.0,68.0,68.0,68.0,68.0,68.0,,,65.3,0.0,68.0,-7.200000000000003,-10.799999999999997,0.0,0.3373333333333333,406.4,True,2026-03-10 23:31:52
32.06,1.0,10.0,2026-03-10 23:32:24,37.08164,-121.59965,401.0,0.0,47.8,-12.6,,,,,0.0,10.7,-0.8,38.4,0.0,53.0,-0.0,-0.01,1.0,,-78.0,24.0,0.0,30.17,1186.0,,,140.0,,,,,0.0,0.0,,,,,,,,,,,,,,,,,,,0.0,18.0,0.0,0.0,30.3,0.0,,0.0,0.0,,,15.7,0.0,0.0,-0.7,4.0,2.7,,,,,20.0,20.0,20.0,20.0,20.0,20.0,20.0,20.0,,,9.0,254.3,,0.0,8.0,4.998,,,2.758,0.859,0.0,18.5,,,,,,75.2,64.4,,,,,68.0,68.0,68.0,68.0,68.0,68.0,68.0,68.0,,,65.3,0.0,68.0,-7.200000000000003,-10.799999999999997,0.0,0.3373333333333333,406.4,True,2026-03-10 23:31:52
33.06,1.0,10.0,2026-03-10 23:32:25,37.08164,-121.59965,399.0,0.0,47.8,-12.6,,,,,0.0,10.6,-0.8,38.4,0.0,53.0,-0.0,-0.01,1.0,,-28.0,24.0,0.0,30.17,1186.0,,,140.0,,,,,0.0,0.0,,,,,,,,,,,,,,,,,,,0.0,18.0,0.0,0.0,30.3,0.0,,0.0,0.0,,,15.7,0.0,0.0,-0.7,4.0,2.7,,,,,19.0,20.0,20.0,20.0,20.0,20.0,20.0,20.0,,,9.0,254.3,,0.0,8.0,4.998,,,2.758,0.858,0.0,18.5,,,,,,75.2,64.4,,,,,66.2,68.0,68.0,68.0,68.0,68.0,68.0,68.0,,,65.3,0.0,67.55,-7.650000000000006,-10.799999999999997,0.0,0.3373333333333333,406.4,True,2026-03-10 23:31:52
34.06,1.0,10.0,2026-03-10 23:32:26,37.08165,-121.59964,398.0,0.0,47.8,-12.6,,,,,0.0,10.7,-0.9,38.3,0.0,53.0,0.0,-0.01,1.0,,-2.0,24.0,0.0,30.17,1186.0,,,140.0,,,,,0.0,0.0,,,,,,,,,,,,,,,,,,,0.0,18.0,0.0,0.0,30.3,0.0,,0.0,0.0,,,15.7,0.0,0.0,-0.7,4.0,2.7,,,,,20.0,20.0,20.0,20.0,20.0,20.0,20.0,20.0,,,9.0,254.3,,0.0,8.0,4.998,,,2.758,0.858,0.0,18.5,,,,,,75.2,64.4,,,,,68.0,68.0,68.0,68.0,68.0,68.0,68.0,68.0,,,65.3,0.0,68.0,-7.200000000000003,-10.799999999999997,0.0,0.3373333333333333,406.4,True,2026-03-10 23:31:52
35.06,1.0,10.0,2026-03-10 23:32:27,37.08164,-121.59965,399.0,0.0,47.8,-12.6,,,,,0.0,10.7,-0.9,38.4,0.0,53.0,0.0,-0.01,1.0,,-11.0,24.0,0.0,30.17,1187.0,,,140.0,,,,,0.0,0.0,,,,,,,,,,,,,,,,,,,0.0,18.0,0.0,0.0,30.3,0.0,,0.0,0.0,,,15.7,0.0,0.0,-0.7,4.0,2.7,,,,,19.0,20.0,20.0,20.0,20.0,20.0,20.0,20.0,,,9.0,254.3,,0.0,8.0,4.998,,,2.758,0.857,0.0,18.5,,,,,,75.2,64.4,,,,,66.2,68.0,68.0,68.0,68.0,68.0,68.0,68.0,,,65.3,0.0,67.55,-7.650000000000006,-10.799999999999997,0.0,0.3373333333333333,406.4,True,2026-03-10 23:31:52
36.06,1.0,10.0,2026-03-10 23:32:28,37.08164,-121.59964,396.0,0.0,47.8,-12.6,,,,,0.0,10.7,-0.9,38.4,0.0,53.0,0.0,-0.01,1.0,,-14.0,24.0,0.0,30.17,1187.0,,,140.0,,,,,0.0,0.0,,,,,,,,,,,,,,,,,,,0.0,18.0,0.0,0.0,30.3,0.0,,0.0,0.0,,,15.7,0.0,0.0,-0.7,4.0,2.7,,,,,20.0,20.0,20.0,20.0,20.0,20.0,20.0,20.0,,,9.0,254.3,,0.0,8.0,4.998,,,2.759,0.857,0.0,18.5,,,,,,75.2,64.4,,,,,68.0,68.0,68.0,68.0,68.0,68.0,68.0,68.0,,,65.3,0.0,68.0,-7.200000000000003,-10.799999999999997,0.0,0.3373333333333333,406.4,True,2026-03-10 23:31:52
37.06,1.0,10.0,2026-03-10 23:32:29,37.08164,-121.59964,395.0,0.0,47.8,-12.6,,,,,0.0,10.7,-0.9,38.4,0.0,53.0,0.0,-0.01,1.0,,-23.0,24.0,0.0,30.17,1187.0,,,140.0,,,,,0.0,0.0,,,,,,,,,,,,,,,,,,,0.0,18.0,0.0,0.0,30.3,0.0,,0.0,0.0,,,15.7,0.0,0.0,-0.7,4.0,2.7,,,,,20.0,20.0,20.0,20.0,20.0,20.0,20.0,20.0,,,9.0,254.3,,0.0,8.0,4.998,,,2.758,0.856,0.0,18.5,,,,,,75.2,64.4,,,,,68.0,68.0,68.0,68.0,68.0,68.0,68.0,68.0,,,65.3,0.0,68.0,-7.200000000000003,-10.799999999999997,0.0,0.3373333333333333,406.4,True,2026-03-10 23:31:52
38.06,1.0,10.0,2026-03-10 23:32:30,37.08164,-121.59964,394.0,0.0,47.8,-12.6,,,,,0.0,10.7,-0.8,38.3,0.0,52.0,0.0,-0.01,1.0,,-64.0,24.0,0.0,30.17,1187.0,,,140.0,,,,,0.0,0.0,,,,,,,,,,,,,,,,,,,0.0,18.0,0.0,0.0,30.3,0.0,,0.0,0.0,,,15.7,0.0,0.0,-0.7,4.0,2.7,,,,,19.0,20.0,20.0,20.0,20.0,20.0,20.0,20.0,,,9.0,254.3,,0.0,8.0,4.998,,,2.758,0.856,0.0,18.5,,,,,,75.2,64.4,,,,,66.2,68.0,68.0,68.0,68.0,68.0,68.0,68.0,,,65.3,0.0,67.55,-7.650000000000006,-10.799999999999997,0.0,0.3373333333333333,406.4,True,2026-03-10 23:31:52
39.06,1.0,10.0,2026-03-10 23:32:31,37.08164,-121.59964,393.0,0.0,47.8,-12.6,,,,,0.0,10.7,-0.9,38.3,0.0,52.0,0.0,-0.01,1.0,,-20.0,24.0,0.0,30.17,1187.0,,,140.0,,,,,0.0,0.0,,,,,,,,,,,,,,,,,,,0.0,18.0,0.0,0.0,30.3,0.0,,0.0,0.0,,,15.7,0.0,0.0,-0.7,4.0,2.7,,,,,19.0,20.0,19.0,20.0,20.0,20.0,20.0,20.0,,,9.0,254.3,,0.0,8.0,4.998,,,2.758,0.856,0.0,18.5,,,,,,75.2,64.4,,,,,66.2,68.0,66.2,68.0,68.0,68.0,68.0,68.0,,,65.3,0.0,67.1,-8.100000000000009,-10.799999999999997,0.0,0.3373333333333333,406.4,True,2026-03-10 23:31:52
40.06,1.0,10.0,2026-03-10 23:32:32,37.08169,-121.59968,375.0,0.0,47.8,-12.6,,,,,0.0,10.8,-0.9,38.3,0.0,52.0,0.0,-0.01,1.0,,2.0,24.0,0.0,30.17,1187.0,,,140.0,,,,,0.0,0.0,,,,,,,,,,,,,,,,,,,0.0,18.0,0.0,0.0,30.3,0.0,,0.0,0.0,,,15.7,0.0,0.0,-0.7,4.0,2.7,,,,,19.0,20.0,20.0,20.0,20.0,20.0,20.0,20.0,,,9.0,230.0,,0.0,8.0,4.998,,,2.758,0.856,0.0,18.5,,,,,,75.2,64.4,,,,,66.2,68.0,68.0,68.0,68.0,68.0,68.0,68.0,,,65.3,0.0,67.55,-7.650000000000006,-10.799999999999997,0.0,0.3373333333333333,406.4,True,2026-03-10 23:31:52
41.06,1.0,10.0,2026-03-10 23:32:33,37.08169,-121.59967,375.0,0.0,47.8,-12.6,,,,,0.0,10.7,-0.9,38.3,0.0,52.0,0.0,-0.01,1.0,,20.0,24.0,0.0,30.17,1186.0,,,140.0,,,,,0.0,0.0,,,,,,,,,,,,,,,,,,,0.0,18.0,0.0,0.0,30.3,0.0,,0.0,0.0,,,15.7,0.0,0.0,-0.7,4.0,2.7,,,,,19.0,20.0,20.0,20.0,20.0,20.0,20.0,20.0,,,9.0,179.0,,0.0,8.0,4.998,,,2.758,0.856,0.0,18.5,,,,,,75.2,64.4,,,,,66.2,68.0,68.0,68.0,68.0,68.0,68.0,68.0,,,65.3,0.0,67.55,-7.650000000000006,-10.799999999999997,0.0,0.3373333333333333,406.4,True,2026-03-10 23:31:52
42.06,1.0,10.0,2026-03-10 23:32:34,37.08167,-121.59962,355.0,0.0,47.8,-12.6,,,,,0.0,10.7,-0.9,38.3,0.0,52.0,0.0,-0.01,1.0,,18.0,24.0,0.0,30.17,1186.0,,,140.0,,,,,0.0,0.0,,,,,,,,,,,,,,,,,,,0.0,18.0,0.0,0.0,30.3,0.0,,0.0,0.0,,,15.7,0.0,0.0,-0.7,4.0,2.7,,,,,19.0,20.0,19.0,20.0,20.0,20.0,20.0,20.0,,,9.0,139.3,,0.0,8.0,4.998,,,2.759,0.856,0.0,18.5,,,,,,75.2,64.4,,,,,66.2,68.0,66.2,68.0,68.0,68.0,68.0,68.0,,,65.3,0.0,67.1,-8.100000000000009,-10.799999999999997,0.0,0.3373333333333333,406.4,True,2026-03-10 23:31:52
43.06,1.0,10.0,2026-03-10 23:32:35,37.08167,-121.59962,357.0,0.0,47.8,-12.6,,,,,0.0,10.7,-0.8,38.3,0.0,52.0,0.0,-0.01,1.0,,34.0,25.0,0.0,30.17,1186.0,,,140.0,,,,,0.0,0.0,,,,,,,,,,,,,,,,,,,0.0,18.0,0.0,0.0,30.3,0.0,,0.0,0.0,,,15.7,0.0,0.0,-0.7,4.0,2.7,,,,,19.0,20.0,19.0,20.0,20.0,20.0,20.0,20.0,,,9.0,108.5,,0.0,8.0,4.998,,,2.759,0.856,0.0,18.5,,,,,,77.0,64.4,,,,,66.2,68.0,66.2,68.0,68.0,68.0,68.0,68.0,,,65.3,0.0,67.1,-9.900000000000006,-12.599999999999994,0.0,0.3373333333333333,406.4,True,2026-03-10 23:31:52
44.06,1.0,10.0,2026-03-10 23:32:36,37.08167,-121.59962,358.0,0.0,47.8,-12.6,,,,,0.0,10.7,-0.9,38.3,0.0,52.0,0.0,-0.01,1.0,,71.0,25.0,0.0,30.17,1196.0,,,140.0,,,,,0.0,0.0,,,,,,,,,,,,,,,,,,,0.0,18.0,0.0,0.0,30.3,0.0,,0.0,0.0,,,15.7,0.0,0.0,-0.7,4.0,2.7,,,,,19.0,20.0,19.0,20.0,20.0,20.0,20.0,20.0,,,9.0,84.6,,0.0,8.0,4.998,,,2.758,0.856,0.0,18.5,,,,,,77.0,64.4,,,,,66.2,68.0,66.2,68.0,68.0,68.0,68.0,68.0,,,65.3,0.0,67.1,-9.900000000000006,-12.599999999999994,0.0,0.3373333333333333,406.4,True,2026-03-10 23:31:52
45.06,1.0,10.0,2026-03-10 23:32:37,37.08167,-121.59962,358.0,0.1,47.8,-12.6,,,,,0.0,10.7,-0.9,38.3,0.0,52.0,0.0,-0.01,1.0,,57.0,25.0,0.0,30.17,1195.0,,,140.0,,,,,0.0,0.0,,,,,,,,,,,,,,,,,,,0.0,18.0,0.0,0.0,30.3,0.0,,0.0,0.0,,,15.7,0.0,0.0,-0.7,4.0,2.7,,,,,19.0,20.0,19.0,20.0,20.0,20.0,20.0,20.0,,,9.0,65.9,,0.0,8.0,4.998,,,2.759,0.856,0.0,18.5,,,,,,77.0,64.4,,,,,66.2,68.0,66.2,68.0,68.0,68.0,68.0,68.0,,,65.3,0.0,67.1,-9.900000000000006,-12.599999999999994,0.0,0.42166666666666663,406.4,True,2026-03-10 23:31:52
46.06,1.0,10.0,2026-03-10 23:32:38,37.08167,-121.59962,360.0,0.0,47.8,-12.6,,,,,0.0,10.7,-0.8,38.3,0.0,52.0,0.0,-0.01,1.0,,25.0,25.0,0.0,30.17,1195.0,,,140.0,,,,,0.0,0.0,,,,,,,,,,,,,,,,,,,0.0,18.0,0.0,0.0,30.3,0.0,,0.0,0.0,,,15.7,0.0,0.0,-0.7,4.0,2.7,,,,,19.0,20.0,19.0,20.0,20.0,20.0,20.0,20.0,,,9.0,51.5,,0.0,8.0,4.998,,,2.758,0.854,0.0,18.5,,,,,,77.0,64.4,,,,,66.2,68.0,66.2,68.0,68.0,68.0,68.0,68.0,,,65.3,0.0,67.1,-9.900000000000006,-12.599999999999994,0.0,0.506,406.4,True,2026-03-10 23:31:52
47.06,1.0,10.0,2026-03-10 23:32:39,37.08167,-121.59962,361.0,0.0,47.8,-12.6,,,,,0.0,10.7,-0.8,38.4,0.0,52.0,0.0,-0.01,1.0,,-15.0,25.0,0.0,30.17,1195.0,,,140.0,,,,,0.0,0.0,,,,,,,,,,,,,,,,,,,0.0,18.0,0.0,0.0,30.3,0.0,,0.0,0.0,,,15.7,0.0,0.0,-0.7,4.0,2.7,,,,,19.0,20.0,19.0,20.0,20.0,20.0,20.0,20.0,,,9.0,40.2,,0.0,8.0,4.998,,,2.758,0.854,0.0,18.5,,,,,,77.0,64.4,,,,,66.2,68.0,66.2,68.0,68.0,68.0,68.0,68.0,,,65.3,0.0,67.1,-9.900000000000006,-12.599999999999994,0.0,0.506,406.4,True,2026-03-10 23:31:52
48.06,1.0,10.0,2026-03-10 23:32:40,37.08167,-121.59962,362.0,0.0,47.8,-12.6,,,,,0.0,10.7,-0.8,38.3,0.0,52.0,0.0,-0.01,1.0,,-25.0,25.0,0.0,30.17,1196.0,,,140.0,,,,,0.0,0.0,,,,,,,,,,,,,,,,,,,0.0,18.0,0.0,0.0,30.3,0.0,,0.0,0.0,,,15.7,0.0,0.0,-0.7,4.0,2.7,,,,,19.0,20.0,19.0,20.0,20.0,20.0,20.0,20.0,,,9.0,31.5,,0.0,8.0,4.998,,,2.758,0.854,0.0,18.5,,,,,,77.0,64.4,,,,,66.2,68.0,66.2,68.0,68.0,68.0,68.0,68.0,,,65.3,0.0,67.1,-9.900000000000006,-12.599999999999994,0.0,0.506,406.4,True,2026-03-10 23:31:52
49.06,1.0,10.0,2026-03-10 23:32:41,37.08166,-121.59962,363.0,0.0,47.8,-12.6,,,,,0.0,10.7,-0.9,38.3,0.0,52.0,0.0,-0.01,1.0,,-35.0,25.0,0.0,30.17,1196.0,,,140.0,,,,,0.0,0.0,,,,,,,,,,,,,,,,,,,0.0,18.0,0.0,0.0,30.3,0.0,,0.0,0.0,,,15.7,0.0,0.0,-0.7,4.0,2.7,,,,,19.0,20.0,19.0,20.0,20.0,20.0,20.0,20.0,,,9.0,24.7,,0.0,8.0,4.998,,,2.759,0.854,0.0,18.5,,,,,,77.0,64.4,,,,,66.2,68.0,66.2,68.0,68.0,68.0,68.0,68.0,,,65.3,0.0,67.1,-9.900000000000006,-12.599999999999994,0.0,0.506,406.4,True,2026-03-10 23:31:52
50.06,1.0,10.0,2026-03-10 23:32:42,37.08166,-121.59962,364.0,0.0,47.8,-12.6,,,,,0.0,10.7,-0.8,38.3,0.0,52.0,0.0,-0.01,1.0,,-35.0,25.0,0.0,30.17,1196.0,,,140.0,,,,,0.0,0.0,,,,,,,,,,,,,,,,,,,0.0,18.0,0.0,0.0,30.3,0.0,,0.0,0.0,,,15.7,0.0,0.0,-0.7,4.0,2.7,,,,,19.0,20.0,19.0,20.0,20.0,20.0,20.0,21.0,,,9.0,19.4,,0.0,8.0,4.998,,,2.758,0.854,0.0,18.5,,,,,,77.0,64.4,,,,,66.2,68.0,66.2,68.0,68.0,68.0,68.0,69.8,,,65.3,0.0,67.1,-9.900000000000006,-12.599999999999994,0.0,0.506,406.4,True,2026-03-10 23:31:52
51.06,1.0,10.0,2026-03-10 23:32:43,37.08166,-121.59962,366.0,0.0,47.8,-12.6,,,,,0.0,10.7,-0.9,38.3,0.0,52.0,0.0,-0.01,1.0,,25.0,25.0,0.0,30.17,1196.0,,,140.0,,,,,0.0,0.0,,,,,,,,,,,,,,,,,,,0.0,18.0,0.0,0.0,30.3,0.0,,0.0,0.0,,,15.7,0.0,0.0,-0.7,4.0,2.7,,,,,19.0,20.0,19.0,20.0,20.0,20.0,20.0,20.0,,,9.0,15.3,,0.0,8.0,4.998,,,2.759,0.854,0.0,18.5,,,,,,77.0,64.4,,,,,66.2,68.0,66.2,68.0,68.0,68.0,68.0,68.0,,,65.3,0.0,67.1,-9.900000000000006,-12.599999999999994,0.0,0.506,406.4,True,2026-03-10 23:31:52
52.06,1.0,10.0,2026-03-10 23:32:44,37.08166,-121.59962,367.0,0.0,47.8,-12.6,,,,,0.0,10.7,-0.8,38.3,0.0,52.0,0.0,-0.01,1.0,,-5.0,25.0,0.0,30.17,1196.0,,,140.0,,,,,0.0,0.0,,,,,,,,,,,,,,,,,,,0.0,18.0,0.0,0.0,30.3,0.0,,0.0,0.0,,,15.7,0.0,0.0,-0.7,4.0,2.7,,,,,19.0,20.0,19.0,20.0,20.0,20.0,20.0,20.0,,,9.0,12.1,,0.0,8.0,4.998,,,2.759,0.854,0.0,18.5,,,,,,77.0,64.4,,,,,66.2,68.0,66.2,68.0,68.0,68.0,68.0,68.0,,,65.3,0.0,67.1,-9.900000000000006,-12.599999999999994,0.0,0.506,406.4,True,2026-03-10 23:31:52
53.06,1.0,10.0,2026-03-10 23:32:45,37.08166,-121.59962,368.0,0.0,47.8,-12.6,,,,,0.0,10.8,-0.8,38.3,0.0,52.0,0.0,-0.01,1.0,,-57.0,25.0,0.0,30.17,1196.0,,,140.0,,,,,0.0,0.0,,,,,,,,,,,,,,,,,,,0.0,18.0,0.0,0.0,30.3,0.0,,0.0,0.0,,,15.7,0.0,0.0,-0.7,4.0,2.7,,,,,19.0,20.0,19.0,20.0,20.0,20.0,20.0,20.0,,,9.0,9.6,,0.0,8.0,4.998,,,2.759,0.854,0.0,18.5,,,,,,77.0,64.4,,,,,66.2,68.0,66.2,68.0,68.0,68.0,68.0,68.0,,,65.3,0.0,67.1,-9.900000000000006,-12.599999999999994,0.0,0.506,406.4,True,2026-03-10 23:31:52
54.06,1.0,10.0,2026-03-10 23:32:46,37.08165,-121.59962,369.0,0.0,47.8,-12.6,,,,,0.0,10.8,-0.8,38.3,0.0,52.0,0.0,-0.01,1.0,,-87.0,25.0,0.0,30.17,1196.0,,,140.0,,,,,0.0,0.0,,,,,,,,,,,,,,,,,,,0.0,18.0,0.0,0.0,30.3,0.0,,0.0,0.0,,,15.7,0.0,0.0,-0.7,4.0,2.7,,,,,19.0,20.0,19.0,20.0,20.0,20.0,20.0,20.0,,,9.0,7.7,,0.0,8.0,4.998,,,2.758,0.854,0.0,18.5,,,,,,77.0,64.4,,,,,66.2,68.0,66.2,68.0,68.0,68.0,68.0,68.0,,,65.3,0.0,67.1,-9.900000000000006,-12.599999999999994,0.0,0.506,406.4,True,2026-03-10 23:31:52
55.06,1.0,10.0,2026-03-10 23:32:47,37.08165,-121.59962,371.0,0.0,47.8,-12.6,,,,,0.0,10.8,-0.8,38.3,0.0,52.0,0.0,-0.01,1.0,,-75.0,25.0,0.0,30.17,1196.0,,,140.0,,,,,0.0,0.0,,,,,,,,,,,,,,,,,,,0.0,18.0,0.0,0.0,30.3,0.0,,0.0,0.0,,,15.7,0.0,0.0,-0.7,4.0,2.7,,,,,19.0,20.0,19.0,20.0,20.0,20.0,20.0,20.0,,,9.0,6.2,,0.0,8.0,4.998,,,2.758,0.854,0.0,18.5,,,,,,77.0,64.4,,,,,66.2,68.0,66.2,68.0,68.0,68.0,68.0,68.0,,,65.3,0.0,67.1,-9.900000000000006,-12.599999999999994,0.0,0.506,406.4,True,2026-03-10 23:31:52
56.06,1.0,10.0,2026-03-10 23:32:48,37.08164,-121.59961,372.0,0.0,47.8,-12.6,,,,,0.0,10.8,-0.8,38.3,0.0,50.0,0.0,-0.01,1.0,,-102.0,25.0,0.0,30.17,1196.0,,,140.0,,,,,0.0,0.0,,,,,,,,,,,,,,,,,,,0.0,18.0,0.0,0.0,30.3,0.0,,0.0,0.0,,,15.7,0.0,0.0,-0.7,4.0,2.7,,,,,19.0,20.0,19.0,20.0,19.0,20.0,20.0,20.0,,,9.0,5.0,,0.0,8.0,4.998,,,2.758,0.854,0.0,18.5,,,,,,77.0,64.4,,,,,66.2,68.0,66.2,68.0,66.2,68.0,68.0,68.0,,,65.3,0.0,66.64999999999999,-10.350000000000009,-12.599999999999994,0.0,0.506,406.4,True,2026-03-10 23:31:52
57.06,1.0,10.0,2026-03-10 23:32:49,37.08164,-121.59961,373.0,0.0,47.8,-12.6,,,,,0.0,10.8,-0.8,38.3,0.0,47.0,0.0,-0.01,1.0,,-137.0,25.0,0.0,30.17,1193.0,,,140.0,,,,,0.0,0.0,,,,,,,,,,,,,,,,,,,0.0,18.0,0.0,0.0,30.3,0.0,,0.0,0.0,,,15.7,0.0,0.0,-0.7,4.0,2.7,,,,,19.0,20.0,19.0,20.0,20.0,20.0,20.0,21.0,,,9.0,4.1,,0.0,8.0,4.998,,,2.758,0.854,0.0,18.5,,,,,,77.0,64.4,,,,,66.2,68.0,66.2,68.0,68.0,68.0,68.0,69.8,,,65.3,0.0,67.1,-9.900000000000006,-12.599999999999994,0.0,0.506,406.4,True,2026-03-10 23:31:52
58.06,2.0,10.0,2026-03-10 23:32:50,37.08164,-121.59961,376.0,0.0,47.8,-12.6,,,,,0.0,10.8,-0.8,38.3,0.0,46.0,0.0,-0.01,1.0,,-107.0,25.0,0.0,30.17,1193.0,,,140.0,,,,,0.0,0.0,,,,,,,,,,,,,,,,,,,0.0,18.0,0.0,0.0,30.3,0.0,,0.0,0.0,,,15.7,0.0,0.0,-0.7,4.0,2.7,,,,,19.0,20.0,19.0,20.0,20.0,20.0,20.0,20.0,,,9.0,3.4,,0.0,8.0,4.998,,,2.759,0.854,0.0,18.5,,,,,,77.0,64.4,,,,,66.2,68.0,66.2,68.0,68.0,68.0,68.0,68.0,,,65.3,0.0,67.1,-9.900000000000006,-12.599999999999994,0.0,0.506,406.4,True,2026-03-10 23:31:52
59.06,2.0,10.0,2026-03-10 23:32:51,37.08163,-121.59961,377.0,0.0,47.8,-12.6,,,,,0.0,10.8,-0.8,38.3,0.0,44.0,0.0,-0.01,1.0,,-105.0,25.0,0.0,30.17,1193.0,,,140.0,,,,,0.0,0.0,,,,,,,,,,,,,,,,,,,0.0,18.0,0.0,0.0,30.3,0.0,,0.0,0.0,,,15.7,0.0,0.0,-0.7,4.0,2.7,,,,,19.0,20.0,19.0,20.0,19.0,20.0,20.0,20.0,,,9.0,2.9,,0.0,8.0,4.998,,,2.758,0.854,0.0,18.5,,,,,,77.0,64.4,,,,,66.2,68.0,66.2,68.0,66.2,68.0,68.0,68.0,,,65.3,0.0,66.64999999999999,-10.350000000000009,-12.599999999999994,0.0,0.506,406.4,True,2026-03-10 23:31:52
60.06,2.0,10.0,2026-03-10 23:32:52,37.08163,-121.59961,379.0,0.0,47.8,-12.6,,,,,0.0,10.8,-0.9,38.2,0.0,44.0,0.0,-0.01,1.0,,-53.0,25.0,0.0,30.17,1196.0,,,140.0,,,,,0.0,0.0,,,,,,,,,,,,,,,,,,,0.0,18.0,0.0,0.0,30.3,0.0,,0.0,0.0,,,15.7,0.0,0.0,-0.7,4.0,2.7,,,,,19.0,20.0,19.0,20.0,19.0,20.0,20.0,20.0,,,9.0,2.4,,0.0,8.0,4.998,,,2.758,0.854,0.0,18.5,,,,,,77.0,64.4,,,,,66.2,68.0,66.2,68.0,66.2,68.0,68.0,68.0,,,65.3,0.0,66.64999999999999,-10.350000000000009,-12.599999999999994,0.0,0.506,406.4,True,2026-03-10 23:31:52
61.06,2.0,10.0,2026-03-10 23:32:53,37.08163,-121.59961,379.0,0.0,47.8,-12.6,,,,,0.0,10.8,-0.9,38.2,0.0,44.0,0.0,-0.01,1.0,,-12.0,25.0,0.0,30.17,1196.0,,,140.0,,,,,0.0,0.0,,,,,,,,,,,,,,,,,,,0.0,18.0,0.0,0.0,30.3,0.0,,0.0,0.0,,,15.7,0.0,0.0,-0.7,4.0,2.7,,,,,19.0,20.0,19.0,20.0,19.0,20.0,20.0,20.0,,,9.0,2.1,,0.0,8.0,4.998,,,2.758,0.854,0.0,18.5,,,,,,77.0,64.4,,,,,66.2,68.0,66.2,68.0,66.2,68.0,68.0,68.0,,,65.3,0.0,66.64999999999999,-10.350000000000009,-12.599999999999994,0.0,0.506,406.4,True,2026-03-10 23:31:52
62.06,2.0,10.0,2026-03-10 23:32:54,37.08163,-121.59961,380.0,0.0,47.8,-12.6,,,,,0.0,10.8,-0.8,38.2,0.0,44.0,0.0,-0.01,1.0,,5.0,25.0,0.0,30.17,1195.0,,,140.0,,,,,0.0,0.0,,,,,,,,,,,,,,,,,,,0.0,18.0,0.0,0.0,30.3,0.0,,0.0,0.0,,,15.7,0.0,0.0,-0.7,4.0,2.7,,,,,20.0,20.0,20.0,20.0,20.0,20.0,20.0,20.0,,,9.0,1.9,,0.0,8.0,4.998,,,2.759,0.854,0.0,18.5,,,,,,77.0,64.4,,,,,68.0,68.0,68.0,68.0,68.0,68.0,68.0,68.0,,,65.3,0.0,68.0,-9.0,-12.599999999999994,0.0,0.506,406.4,True,2026-03-10 23:31:52
63.06,2.0,10.0,2026-03-10 23:32:55,37.08163,-121.59961,380.0,0.0,47.8,-12.6,,,,,0.0,10.8,-0.8,38.1,0.0,44.0,-0.0,-0.02,1.0,,51.0,25.0,0.0,30.17,1195.0,,,140.0,,,,,0.0,0.0,,,,,,,,,,,,,,,,,,,0.0,18.0,0.0,0.0,30.3,0.0,,0.0,0.0,,,15.7,0.0,0.0,-0.7,4.0,2.7,,,,,20.0,20.0,20.0,20.0,20.0,20.0,20.0,20.0,,,9.0,1.7,,0.0,8.0,4.998,,,2.759,0.856,0.0,18.5,,,,,,77.0,64.4,,,,,68.0,68.0,68.0,68.0,68.0,68.0,68.0,68.0,,,65.3,0.0,68.0,-9.0,-12.599999999999994,0.0,0.506,406.4,True,2026-03-10 23:31:52
64.06,2.0,10.0,2026-03-10 23:32:56,37.08163,-121.59961,380.0,0.0,47.8,-12.6,,,,,0.0,10.9,-0.8,38.1,0.0,44.0,0.0,-0.01,1.0,,-6.0,25.0,0.0,30.17,1195.0,,,140.0,,,,,0.0,0.0,,,,,,,,,,,,,,,,,,,0.0,18.0,0.0,0.0,30.3,0.0,,0.0,0.0,,,15.7,0.0,0.0,-0.7,4.0,2.7,,,,,20.0,20.0,20.0,20.0,20.0,20.0,20.0,20.0,,,9.0,1.5,,0.0,8.0,4.998,,,2.759,0.856,0.0,18.5,,,,,,77.0,64.4,,,,,68.0,68.0,68.0,68.0,68.0,68.0,68.0,68.0,,,65.3,0.0,68.0,-9.0,-12.599999999999994,0.0,0.506,406.4,True,2026-03-10 23:31:52
65.06,2.0,10.0,2026-03-10 23:32:57,37.08163,-121.59961,381.0,0.0,47.8,-12.6,,,,,0.0,10.8,-0.9,38.2,0.0,44.0,0.0,-0.01,1.0,,-13.0,25.0,0.0,30.17,1196.0,,,140.0,,,,,0.0,0.0,,,,,,,,,,,,,,,,,,,0.0,18.0,0.0,0.0,30.3,0.0,,0.0,0.0,,,15.7,0.0,0.0,-0.7,4.0,2.7,,,,,20.0,20.0,20.0,20.0,20.0,20.0,20.0,20.0,,,9.0,1.4,,0.0,8.0,4.998,,,2.758,0.856,0.0,18.5,,,,,,77.0,64.4,,,,,68.0,68.0,68.0,68.0,68.0,68.0,68.0,68.0,,,65.3,0.0,68.0,-9.0,-12.599999999999994,0.0,0.506,406.4,True,2026-03-10 23:31:52
66.06,2.0,10.0,2026-03-10 23:32:58,37.0816,-121.59958,393.0,0.0,47.8,-12.6,,,,,0.0,10.8,-0.9,38.2,0.0,44.0,0.0,-0.01,1.0,,22.0,25.0,0.0,30.17,1196.0,,,140.0,,,,,0.0,0.0,,,,,,,,,,,,,,,,,,,0.0,18.0,0.0,0.0,30.3,0.0,,0.0,0.0,,,15.7,0.0,0.0,-0.7,4.0,2.7,,,,,20.0,20.0,20.0,20.0,20.0,20.0,20.0,20.0,,,9.0,1.3,,0.0,8.0,4.998,,,2.758,0.856,0.0,18.5,,,,,,77.0,64.4,,,,,68.0,68.0,68.0,68.0,68.0,68.0,68.0,68.0,,,65.3,0.0,68.0,-9.0,-12.599999999999994,0.0,0.506,406.4,True,2026-03-10 23:31:52
67.06,2.0,10.0,2026-03-10 23:32:59,37.0816,-121.59958,394.0,0.0,47.8,-12.6,,,,,0.0,10.8,-0.9,38.2,0.0,44.0,0.0,-0.01,1.0,,-30.0,25.0,0.0,30.17,1196.0,,,140.0,,,,,0.0,0.0,,,,,,,,,,,,,,,,,,,0.0,18.0,0.0,0.0,30.3,0.0,,0.0,0.0,,,15.7,0.0,0.0,-0.7,4.0,2.7,,,,,20.0,20.0,20.0,20.0,20.0,20.0,20.0,20.0,,,9.0,1.2,,0.0,8.0,4.998,,,2.759,0.856,0.0,18.5,,,,,,77.0,64.4,,,,,68.0,68.0,68.0,68.0,68.0,68.0,68.0,68.0,,,65.3,0.0,68.0,-9.0,-12.599999999999994,0.0,0.506,406.4,True,2026-03-10 23:31:52
68.06,2.0,10.0,2026-03-10 23:33:00,37.0816,-121.59958,394.0,0.0,47.8,-12.6,,,,,0.0,10.8,-0.9,38.2,0.0,44.0,0.0,-0.01,1.0,,-25.0,25.0,0.0,30.17,1196.0,,,140.0,,,,,0.0,0.0,,,,,,,,,,,,,,,,,,,0.0,18.0,0.0,0.0,30.3,0.0,,0.0,0.0,,,15.7,0.0,0.0,-0.7,4.0,2.7,,,,,20.0,20.0,20.0,20.0,20.0,20.0,20.0,20.0,,,9.0,1.2,,0.0,8.0,4.998,,,2.758,0.856,0.0,18.5,,,,,,77.0,64.4,,,,,68.0,68.0,68.0,68.0,68.0,68.0,68.0,68.0,,,65.3,0.0,68.0,-9.0,-12.599999999999994,0.0,0.506,406.4,True,2026-03-10 23:31:52
69.06,2.0,10.0,2026-03-10 23:33:01,37.0816,-121.59958,396.0,0.0,47.8,-12.6,,,,,0.0,10.8,-0.9,38.2,0.0,44.0,0.0,-0.02,1.0,,-9.0,25.0,0.0,30.17,1196.0,,,140.0,,,,,0.0,0.0,,,,,,,,,,,,,,,,,,,0.0,18.0,0.0,0.0,30.3,0.0,,0.0,0.0,,,15.7,0.0,0.0,-0.7,4.0,2.7,,,,,20.0,20.0,20.0,20.0,20.0,20.0,20.0,20.0,,,9.0,1.1,,0.0,8.0,4.998,,,2.758,0.856,0.0,18.5,,,,,,77.0,64.4,,,,,68.0,68.0,68.0,68.0,68.0,68.0,68.0,68.0,,,65.3,0.0,68.0,-9.0,-12.599999999999994,0.0,0.506,406.4,True,2026-03-10 23:31:52
70.06,2.0,10.0,2026-03-10 23:33:02,37.0816,-121.59958,396.0,0.0,47.8,-12.6,,,,,0.0,10.8,-0.9,38.1,0.0,44.0,0.0,-0.01,1.0,,25.0,25.0,0.0,30.17,1197.0,,,140.0,,,,,0.0,0.0,,,,,,,,,,,,,,,,,,,0.0,18.0,0.0,0.0,30.3,0.0,,0.0,0.0,,,15.7,0.0,0.0,-0.7,4.0,2.7,,,,,20.0,20.0,20.0,20.0,20.0,20.0,20.0,20.0,,,9.0,1.1,,0.0,8.0,4.998,,,2.759,0.856,0.0,18.5,,,,,,77.0,64.4,,,,,68.0,68.0,68.0,68.0,68.0,68.0,68.0,68.0,,,65.3,0.0,68.0,-9.0,-12.599999999999994,0.0,0.506,406.4,True,2026-03-10 23:31:52
71.06,2.0,10.0,2026-03-10 23:33:03,37.0816,-121.59958,395.0,0.0,47.8,-12.6,,,,,0.0,10.8,-0.9,38.1,0.0,44.0,-0.0,-0.01,1.0,,58.0,25.0,0.0,30.17,1197.0,,,140.0,,,,,0.0,0.0,,,,,,,,,,,,,,,,,,,0.0,18.0,0.0,0.0,30.3,0.0,,0.0,0.0,,,15.7,0.0,0.0,-0.7,4.0,2.7,,,,,20.0,20.0,20.0,20.0,20.0,20.0,20.0,20.0,,,9.0,1.1,,0.0,8.0,4.998,,,2.758,0.856,0.0,18.5,,,,,,77.0,64.4,,,,,68.0,68.0,68.0,68.0,68.0,68.0,68.0,68.0,,,65.3,0.0,68.0,-9.0,-12.599999999999994,0.0,0.506,406.4,True,2026-03-10 23:31:52
72.06,2.0,10.0,2026-03-10 23:33:04,37.0816,-121.59958,395.0,0.0,47.8,-12.6,,,,,0.0,10.8,-0.9,38.0,0.0,44.0,-0.0,-0.01,1.0,,83.0,25.0,0.0,30.17,1197.0,,,140.0,,,,,0.0,0.0,,,,,,,,,,,,,,,,,,,0.0,18.0,0.0,0.0,30.3,0.0,,0.0,0.1,,,15.7,0.0,0.0,-0.7,4.0,2.7,,,,,20.0,20.0,20.0,20.0,20.0,20.0,20.0,20.0,,,9.0,1.0,,0.1,8.0,4.998,,,2.758,0.856,0.0,18.5,,,,,,77.0,64.4,,,,,68.0,68.0,68.0,68.0,68.0,68.0,68.0,68.0,,,65.3,0.0,68.0,-9.0,-12.599999999999994,0.0,0.506,406.4,True,2026-03-10 23:31:52
73.06,2.0,10.0,2026-03-10 23:33:05,37.0816,-121.59958,395.0,0.0,47.8,-12.6,,,,,0.0,10.8,-0.9,38.1,0.0,44.0,0.0,-0.01,1.0,,67.0,25.0,0.0,30.17,1206.0,,,140.0,,,,,0.0,0.0,,,,,,,,,,,,,,,,,,,0.0,18.0,0.0,0.0,30.3,0.0,,0.0,5.9,,,15.7,0.0,0.0,-0.7,4.0,2.7,,,,,20.0,20.0,20.0,20.0,20.0,20.0,20.0,20.0,,,9.0,1.0,,5.9,8.0,4.998,,,2.758,0.856,0.0,18.5,,,,,,77.0,64.4,,,,,68.0,68.0,68.0,68.0,68.0,68.0,68.0,68.0,,,65.3,0.0,68.0,-9.0,-12.599999999999994,0.0,0.506,406.4,True,2026-03-10 23:31:52
74.06,2.0,10.0,2026-03-10 23:33:06,37.0816,-121.59958,394.0,0.1,47.8,-12.6,,,,,0.0,10.9,-0.9,38.1,0.0,44.0,0.0,-0.01,1.0,,58.0,25.0,0.0,30.17,1206.0,,,140.0,,,,,0.0,0.0,,,,,,,,,,,,,,,,,,,0.0,18.0,0.0,0.0,30.3,0.0,,0.0,32.4,,,15.7,0.0,0.0,-0.6,4.0,2.7,,,,,20.0,20.0,20.0,20.0,20.0,20.0,20.0,20.0,,,9.0,1.0,,32.4,8.0,4.998,,,2.758,0.856,0.0,18.5,,,,,,77.0,64.4,,,,,68.0,68.0,68.0,68.0,68.0,68.0,68.0,68.0,,,65.3,0.0,68.0,-9.0,-12.599999999999994,0.0,0.5903333333333333,406.4,True,2026-03-10 23:31:52
75.06,2.0,10.0,2026-03-10 23:33:07,37.0816,-121.59958,391.0,0.0,47.8,-12.6,,,,,0.0,10.8,-1.0,38.1,0.0,45.0,0.0,-0.02,1.0,,68.0,25.0,0.0,30.17,1206.0,,,140.0,,,,,0.0,0.0,,,,,,,,,,,,,,,,,,,0.0,18.0,0.0,0.0,30.3,0.0,,0.0,33.3,,,15.7,0.0,0.0,-0.6,4.0,2.7,,,,,20.0,20.0,20.0,20.0,20.0,20.0,20.0,20.0,,,9.0,1.0,,33.3,8.0,4.998,,,2.758,0.856,0.0,18.5,,,,,,77.0,64.4,,,,,68.0,68.0,68.0,68.0,68.0,68.0,68.0,68.0,,,65.3,0.0,68.0,-9.0,-12.599999999999994,0.0,0.6746666666666666,406.4,True,2026-03-10 23:31:52
76.06,2.0,10.0,2026-03-10 23:33:08,37.0816,-121.59958,390.0,0.0,47.8,-12.6,,,,,0.0,10.8,-0.9,38.1,0.0,45.0,0.0,-0.02,1.0,,30.0,25.0,0.0,30.17,1208.0,,,140.0,,,,,0.0,0.0,,,,,,,,,,,,,,,,,,,0.0,18.0,0.0,0.0,30.3,0.0,,0.0,33.3,,,15.7,0.0,0.0,-0.6,4.0,2.7,,,,,20.0,20.0,20.0,20.0,20.0,20.0,20.0,20.0,,,9.0,1.0,,33.3,8.0,4.998,,,2.758,0.856,0.0,18.5,,,,,,77.0,64.4,,,,,68.0,68.0,68.0,68.0,68.0,68.0,68.0,68.0,,,65.3,0.0,68.0,-9.0,-12.599999999999994,0.0,0.6746666666666666,406.4,True,2026-03-10 23:31:52
77.06,2.0,10.0,2026-03-10 23:33:09,37.0816,-121.59958,390.0,0.1,47.8,-12.6,,,,,0.0,10.8,-0.9,38.1,0.0,47.0,-0.0,-0.02,1.0,,68.0,25.0,0.0,30.17,1208.0,,,140.0,,,,,0.0,0.0,,,,,,,,,,,,,,,,,,,0.0,18.0,0.0,0.0,30.3,0.0,,0.0,33.1,,,15.7,0.0,0.0,-0.6,4.0,2.7,,,,,20.0,20.0,20.0,20.0,20.0,20.0,20.0,20.0,,,9.0,1.0,,33.1,8.0,4.998,,,2.758,0.856,0.0,18.5,,,,,,77.0,64.4,,,,,68.0,68.0,68.0,68.0,68.0,68.0,68.0,68.0,,,65.3,0.0,68.0,-9.0,-12.599999999999994,0.0,0.759,406.4,True,2026-03-10 23:31:52
78.06,2.0,10.0,2026-03-10 23:33:10,37.0816,-121.59958,390.0,0.0,47.8,-12.6,,,,,0.0,10.8,-0.9,38.1,0.0,48.0,0.0,-0.01,1.0,,12.0,25.0,0.0,30.17,1208.0,,,140.0,,,,,0.0,0.0,,,,,,,,,,,,,,,,,,,0.0,18.0,0.0,0.0,30.3,0.5,,0.5,31.7,,,15.7,0.0,0.0,-0.6,4.0,2.7,,,,,20.0,20.0,20.0,20.0,20.0,20.0,20.0,20.0,,,9.0,1.0,,31.7,8.0,4.998,,,2.758,0.856,0.0,18.5,,,,,,77.0,64.4,,,,,68.0,68.0,68.0,68.0,68.0,68.0,68.0,68.0,,,65.3,0.0,68.0,-9.0,-12.599999999999994,6.944444444444444e-05,0.8433333333333333,406.4,True,2026-03-10 23:31:52
79.06,2.0,10.0,2026-03-10 23:33:11,37.0816,-121.59958,388.0,0.1,47.8,-12.6,,,,,0.0,10.8,-0.8,38.2,0.0,48.0,0.0,-0.01,1.0,,-4.0,25.0,0.0,30.17,1211.0,,,140.0,,,,,0.0,0.0,,,,,,,,,,,,,,,,,,,0.0,18.0,0.0,0.0,30.3,1.3,,1.3,31.5,,,15.7,0.0,0.0,-0.6,4.0,2.7,,,,,20.0,20.0,20.0,20.0,20.0,20.0,20.0,20.0,,,9.0,1.0,,31.5,8.0,4.998,,,2.758,0.856,0.0,18.5,,,,,,77.0,64.4,,,,,68.0,68.0,68.0,68.0,68.0,68.0,68.0,68.0,,,65.3,0.0,68.0,-9.0,-12.599999999999994,0.00031944444444444446,0.9276666666666666,406.4,True,2026-03-10 23:31:52
80.06,2.0,10.0,2026-03-10 23:33:12,37.0816,-121.59958,389.0,0.0,47.8,-12.6,,,,,0.0,10.8,-0.8,38.2,0.0,48.0,0.0,-0.01,1.0,,-35.0,25.0,0.0,30.17,1211.0,,,140.0,,,,,0.0,0.0,,,,,,,,,,,,,,,,,,,0.0,18.0,0.0,0.0,30.3,2.0,,2.0,31.6,,,15.7,0.0,0.0,-0.6,4.0,2.7,,,,,20.0,20.0,20.0,20.0,20.0,20.0,20.0,20.0,,,9.0,1.0,,31.6,8.0,4.998,,,2.758,0.856,0.0,18.5,,,,,,77.0,64.4,,,,,68.0,68.0,68.0,68.0,68.0,68.0,68.0,68.0,,,65.3,0.0,68.0,-9.0,-12.599999999999994,0.0007777777777777778,1.012,406.4,True,2026-03-10 23:31:52
81.06,2.0,10.0,2026-03-10 23:33:13,37.0816,-121.59958,390.0,0.0,47.8,-12.6,,,,,0.0,10.8,-0.8,38.2,0.0,48.0,0.0,-0.01,1.0,,-45.0,25.0,0.0,30.17,1211.0,,,140.0,,,,,0.0,0.0,,,,,,,,,,,,,,,,,,,0.0,18.0,0.0,0.0,30.3,2.3,,2.3,33.7,,,15.7,0.0,0.0,-0.6,4.0,2.7,,,,,20.0,20.0,20.0,20.0,20.0,20.0,20.0,20.0,,,9.0,1.0,,33.7,8.0,4.998,,,2.758,0.856,0.0,18.5,,,,,,77.0,64.4,,,,,68.0,68.0,68.0,68.0,68.0,68.0,68.0,68.0,,,65.3,0.0,68.0,-9.0,-12.599999999999994,0.001375,1.012,406.4,True,2026-03-10 23:31:52
82.06,2.0,10.0,2026-03-10 23:33:14,37.0816,-121.59958,389.0,0.0,47.8,-12.6,,,,,0.0,10.8,-0.9,38.2,0.0,48.0,0.0,-0.02,1.0,,-15.0,25.0,0.0,30.17,1211.0,,,140.0,,,,,0.0,0.0,,,,,,,,,,,,,,,,,,,0.0,18.0,0.0,0.0,30.3,2.1,,2.1,32.7,,,15.7,0.0,0.0,-0.6,4.0,2.7,,,,,20.0,21.0,20.0,21.0,20.0,21.0,20.0,21.0,,,9.0,1.0,,32.7,8.0,4.998,,,2.758,0.856,0.0,18.5,,,,,,77.0,64.4,,,,,68.0,69.8,68.0,69.8,68.0,69.8,68.0,69.8,,,65.3,0.0,68.0,-9.0,-12.599999999999994,0.0019861111111111112,1.012,406.4,True,2026-03-10 23:31:52
83.06,2.0,10.0,2026-03-10 23:33:15,37.0816,-121.59958,389.0,0.0,47.8,-12.6,,,,,0.0,10.8,-0.8,38.2,0.0,48.0,0.0,-0.01,1.0,,-37.0,25.0,0.0,30.17,1211.0,,,140.0,,,,,0.0,0.0,,,,,,,,,,,,,,,,,,,0.0,18.0,0.0,0.0,30.3,2.1,,2.1,32.5,,,15.7,0.0,0.0,-0.7,4.0,2.7,,,,,20.0,21.0,20.0,21.0,20.0,21.0,20.0,21.0,,,9.0,1.0,,32.5,8.0,4.998,,,2.758,0.856,0.0,18.5,,,,,,77.0,64.4,,,,,68.0,69.8,68.0,69.8,68.0,69.8,68.0,69.8,,,65.3,0.0,68.0,-9.0,-12.599999999999994,0.0025694444444444445,1.012,406.4,True,2026-03-10 23:31:52
84.06,2.0,10.0,2026-03-10 23:33:16,37.0816,-121.59958,388.0,0.0,47.8,-12.6,,,,,0.0,10.8,-0.8,38.2,0.0,48.0,0.0,-0.01,1.0,,-55.0,25.0,0.0,30.17,1211.0,,,140.0,,,,,0.0,0.0,,,,,,,,,,,,,,,,,,,0.0,18.0,0.0,0.0,30.3,0.0,,0.0,32.3,,,15.7,0.0,0.0,-0.7,4.0,2.7,,,,,20.0,21.0,20.0,21.0,20.0,21.0,20.0,21.0,,,9.0,1.0,,32.3,8.0,4.998,,,2.758,0.856,0.0,18.5,,,,,,77.0,64.4,,,,,68.0,69.8,68.0,69.8,68.0,69.8,68.0,69.8,,,65.3,0.0,68.0,-9.0,-12.599999999999994,0.002861111111111111,1.012,406.4,True,2026-03-10 23:31:52
85.06,2.0,10.0,2026-03-10 23:33:17,37.0816,-121.59958,388.0,0.0,47.8,-12.6,,,,,0.0,10.8,-0.8,38.2,0.0,48.0,0.0,-0.01,1.0,,-60.0,25.0,0.0,30.17,1211.0,,,140.0,,,,,0.0,0.0,,,,,,,,,,,,,,,,,,,0.0,18.0,0.0,0.0,30.3,0.0,,0.0,32.1,,,15.7,0.0,0.0,-0.7,4.0,2.7,,,,,20.0,21.0,20.0,21.0,20.0,21.0,20.0,21.0,,,9.0,0.0,,32.1,8.0,4.998,,,2.758,0.856,0.0,18.5,,,,,,77.0,64.4,,,,,68.0,69.8,68.0,69.8,68.0,69.8,68.0,69.8,,,65.3,0.0,68.0,-9.0,-12.599999999999994,0.002861111111111111,1.012,406.4,True,2026-03-10 23:31:52
86.06,2.0,10.0,2026-03-10 23:33:18,37.08162,-121.59958,378.0,0.0,47.8,-12.6,,,,,0.0,10.8,-0.9,38.2,0.0,48.0,0.0,-0.01,1.0,,-78.0,25.0,0.0,30.17,1221.0,,,140.0,,,,,0.0,0.0,,,,,,,,,,,,,,,,,,,0.0,18.0,0.0,0.0,30.3,0.0,,0.0,32.0,,,15.7,0.0,0.0,-0.7,4.0,2.7,,,,,20.0,21.0,20.0,21.0,20.0,21.0,20.0,21.0,,,9.0,0.0,,32.0,8.0,4.998,,,2.758,0.857,0.0,18.5,,,,,,77.0,64.4,,,,,68.0,69.8,68.0,69.8,68.0,69.8,68.0,69.8,,,65.3,0.0,68.0,-9.0,-12.599999999999994,0.002861111111111111,1.012,406.4,True,2026-03-10 23:31:52
87.06,2.0,10.0,2026-03-10 23:33:19,37.08162,-121.59958,376.0,0.0,47.8,-12.6,,,,,0.0,10.8,-0.9,38.2,0.0,46.0,0.0,-0.02,1.0,,-83.0,25.0,0.0,30.17,1220.0,,,140.0,,,,,0.0,0.0,,,,,,,,,,,,,,,,,,,0.0,18.0,0.0,0.0,30.3,0.0,,0.0,31.8,,,15.7,0.0,0.0,-0.7,4.0,2.7,,,,,20.0,21.0,20.0,21.0,20.0,21.0,20.0,21.0,,,9.0,0.0,,31.8,8.0,4.998,,,2.758,0.856,0.0,18.5,,,,,,77.0,64.4,,,,,68.0,69.8,68.0,69.8,68.0,69.8,68.0,69.8,,,65.3,0.0,68.0,-9.0,-12.599999999999994,0.002861111111111111,1.012,406.4,True,2026-03-10 23:31:52
88.06,2.0,10.0,2026-03-10 23:33:20,37.08162,-121.59958,376.0,0.0,47.8,-12.6,,,,,0.0,10.8,-0.8,38.2,0.0,46.0,0.0,-0.01,1.0,,-34.0,25.0,0.0,30.17,1218.0,,,140.0,,,,,0.0,0.0,,,,,,,,,,,,,,,,,,,0.0,15.0,110.0,110.0,30.3,0.0,,0.0,31.9,,,15.7,0.0,0.0,-0.7,4.0,2.7,,,,,17.0,17.0,17.0,17.0,17.0,17.0,17.0,17.0,,,9.0,0.0,,31.9,8.0,0.0,,,2.758,0.868,0.0,15.1,,,,,,77.0,59.0,,,,,62.6,62.6,62.6,62.6,62.6,62.6,62.6,62.6,,,59.18,110.0,62.6,-14.399999999999999,-18.0,0.002861111111111111,1.012,406.4,True,2026-03-10 23:31:52
89.06,2.0,10.0,2026-03-10 23:33:21,37.08162,-121.59958,375.0,0.0,47.8,-12.6,,,,,0.0,10.8,-0.8,38.2,0.0,46.0,-0.0,-0.01,1.0,,-67.0,25.0,0.0,30.17,1218.0,,,140.0,,,,,0.0,0.0,,,,,,,,,,,,,,,,,,,0.0,18.0,157.0,157.0,30.4,0.6,,0.6,24.9,,,15.7,0.0,0.0,-0.6,4.0,2.7,,,,,20.0,22.0,20.0,21.0,20.0,21.0,20.0,35.0,,,9.0,0.0,,24.9,8.0,0.0,,,2.758,0.875,0.2,18.1,,,,,,77.0,64.4,,,,,68.0,71.6,68.0,69.8,68.0,69.8,68.0,95.0,,,64.58,157.0,68.0,-9.0,-12.599999999999994,0.0029444444444444444,1.012,406.4,True,2026-03-10 23:31:52
90.06,2.0,10.0,2026-03-10 23:33:22,37.08162,-121.59958,374.0,0.1,47.8,-12.6,,,,,0.0,10.8,-0.8,38.3,0.0,44.0,0.0,-0.02,1.0,,-76.0,25.0,0.0,30.17,1217.0,,,140.0,,,,,0.0,0.0,,,,,,,,,,,,,,,,,,,0.0,18.0,119.0,119.0,30.6,1.4,,1.4,21.5,,,15.7,0.0,0.0,-0.7,4.0,2.7,,,,,20.0,23.0,20.0,22.0,20.0,22.0,20.0,34.0,,,9.0,0.0,,21.5,8.0,0.0,,,2.758,0.864,0.0,18.5,,,,,,77.0,64.4,,,,,68.0,73.4,68.0,71.6,68.0,71.6,68.0,93.2,,,65.3,119.0,68.0,-9.0,-12.599999999999994,0.0032222222222222222,1.0963333333333334,406.4,True,2026-03-10 23:31:52
91.06,2.0,10.0,2026-03-10 23:33:23,37.08162,-121.59958,374.0,0.0,47.8,-12.6,,,,,0.0,10.8,-0.9,38.3,0.0,43.0,0.0,-0.02,1.0,,-71.0,25.0,0.0,30.17,1217.0,,,140.0,,,,,0.0,0.0,,,,,,,,,,,,,,,,,,,0.0,18.0,119.0,119.0,30.5,1.4,,1.4,21.8,,,15.7,0.0,0.0,-0.7,4.0,2.7,,,,,20.0,23.0,20.0,22.0,20.0,22.0,20.0,33.0,,,9.0,0.0,,21.8,8.0,0.0,,,2.759,0.863,0.0,18.5,,,,,,77.0,64.4,,,,,68.0,73.4,68.0,71.6,68.0,71.6,68.0,91.4,,,65.3,119.0,68.0,-9.0,-12.599999999999994,0.003611111111111111,1.1806666666666665,406.4,True,2026-03-10 23:31:52
92.06,2.0,10.0,2026-03-10 23:33:24,37.08162,-121.59958,374.0,0.0,47.8,-12.6,,,,,0.0,10.8,-0.8,38.3,0.0,43.0,0.0,-0.02,1.0,,-40.0,25.0,0.0,30.17,1217.0,,,140.0,,,,,0.0,0.0,,,,,,,,,,,,,,,,,,,0.0,18.0,0.0,0.0,30.5,1.4,,1.4,21.9,,,15.7,0.0,0.0,-0.7,4.0,2.7,,,,,20.0,23.0,20.0,22.0,20.0,22.0,20.0,33.0,,,9.0,0.0,,21.9,8.0,0.0,,,2.758,0.858,0.0,18.5,,,,,,77.0,64.4,,,,,68.0,73.4,68.0,71.6,68.0,71.6,68.0,91.4,,,65.3,0.0,68.0,-9.0,-12.599999999999994,0.004,1.1806666666666665,406.4,True,2026-03-10 23:31:52
93.06,2.0,10.0,2026-03-10 23:33:25,37.08162,-121.59958,375.0,0.0,47.8,-12.6,,,,,0.0,10.8,-0.7,38.3,0.0,43.0,0.0,-0.02,1.0,,-9.0,25.0,0.0,30.17,1215.0,,,140.0,,,,,0.0,0.0,,,,,,,,,,,,,,,,,,,0.0,18.0,0.0,0.0,30.3,1.4,,1.4,21.9,,,15.7,0.0,0.0,-0.7,4.0,2.7,,,,,20.0,23.0,20.0,22.0,20.0,22.0,20.0,33.0,,,9.0,0.0,,21.9,8.0,0.0,,,2.758,0.857,0.0,18.5,,,,,,77.0,64.4,,,,,68.0,73.4,68.0,71.6,68.0,71.6,68.0,91.4,,,65.3,0.0,68.0,-9.0,-12.599999999999994,0.004388888888888889,1.1806666666666665,406.4,True,2026-03-10 23:31:52
94.06,2.0,10.0,2026-03-10 23:33:26,37.08162,-121.59958,375.0,0.0,47.8,-12.6,,,,,0.0,10.9,-0.7,38.4,0.0,43.0,0.0,-0.01,1.0,,16.0,25.0,0.0,30.17,1215.0,,,140.0,,,,,0.0,0.0,,,,,,,,,,,,,,,,,,,0.0,18.0,0.0,0.0,30.3,0.0,,0.0,21.9,,,15.7,0.0,0.0,-0.7,4.0,2.7,,,,,20.0,23.0,20.0,22.0,20.0,22.0,20.0,33.0,,,9.0,0.0,,21.9,8.0,0.0,,,2.759,0.854,0.0,18.5,,,,,,77.0,64.4,,,,,68.0,73.4,68.0,71.6,68.0,71.6,68.0,91.4,,,65.3,0.0,68.0,-9.0,-12.599999999999994,0.004583333333333333,1.1806666666666665,406.4,True,2026-03-10 23:31:52
95.06,2.0,10.0,2026-03-10 23:33:27,37.08162,-121.59959,376.0,0.0,47.8,-12.6,,,,,0.0,10.8,-0.7,38.4,0.0,43.0,0.0,-0.01,1.0,,54.0,25.0,0.0,30.17,1215.0,,,140.0,,,,,0.0,0.0,,,,,,,,,,,,,,,,,,,0.0,18.0,0.0,0.0,30.3,0.0,,0.0,21.9,,,15.7,0.0,0.0,-0.7,4.0,2.7,,,,,20.0,23.0,20.0,22.0,20.0,22.0,20.0,32.0,,,9.0,0.0,,21.9,8.0,0.0,,,2.759,0.856,0.0,18.5,,,,,,77.0,64.4,,,,,68.0,73.4,68.0,71.6,68.0,71.6,68.0,89.6,,,65.3,0.0,68.0,-9.0,-12.599999999999994,0.004583333333333333,1.1806666666666665,406.4,True,2026-03-10 23:31:52
96.06,2.0,10.0,2026-03-10 23:33:28,37.08162,-121.59959,376.0,0.0,47.8,-12.6,,,,,0.0,10.8,-0.7,38.5,0.0,43.0,0.0,-0.01,1.0,,55.0,25.0,0.0,30.17,1215.0,,,140.0,,,,,0.0,0.0,,,,,,,,,,,,,,,,,,,0.0,18.0,0.0,0.0,30.3,0.0,,0.0,21.9,,,15.7,0.0,0.0,-0.7,4.0,2.7,,,,,20.0,23.0,20.0,22.0,20.0,22.0,20.0,32.0,,,9.0,0.0,,21.9,8.0,0.0,,,2.759,0.856,0.0,18.5,,,,,,77.0,64.4,,,,,68.0,73.4,68.0,71.6,68.0,71.6,68.0,89.6,,,65.3,0.0,68.0,-9.0,-12.599999999999994,0.004583333333333333,1.1806666666666665,406.4,True,2026-03-10 23:31:52
97.06,2.0,10.0,2026-03-10 23:33:29,37.08162,-121.59959,375.0,0.0,47.8,-12.6,,,,,0.0,10.8,-0.7,38.4,0.0,43.0,0.0,-0.01,1.0,,40.0,25.0,0.0,30.17,1215.0,,,140.0,,,,,0.0,0.0,,,,,,,,,,,,,,,,,,,0.0,18.0,0.0,0.0,30.3,0.0,,0.0,21.8,,,15.7,0.0,0.0,-0.7,4.0,2.7,,,,,20.0,23.0,20.0,22.0,20.0,22.0,20.0,32.0,,,9.0,0.0,,21.8,8.0,0.0,,,2.759,0.856,0.0,18.5,,,,,,77.0,64.4,,,,,68.0,73.4,68.0,71.6,68.0,71.6,68.0,89.6,,,65.3,0.0,68.0,-9.0,-12.599999999999994,0.004583333333333333,1.1806666666666665,406.4,True,2026-03-10 23:31:52
98.06,2.0,10.0,2026-03-10 23:33:30,37.08163,-121.59959,376.0,0.0,47.8,-12.6,,,,,0.0,10.8,-0.8,38.4,0.0,43.0,0.0,-0.01,1.0,,30.0,25.0,0.0,30.17,1215.0,,,140.0,,,,,0.0,0.0,,,,,,,,,,,,,,,,,,,0.0,16.0,150.0,150.0,30.0,0.0,,0.0,22.0,,,15.7,0.0,0.0,-0.7,4.0,2.7,,,,,18.0,20.0,18.0,20.0,18.0,19.0,18.0,29.0,,,9.0,0.0,,22.0,8.0,0.0,,,2.758,0.856,0.0,16.1,,,,,,77.0,60.8,,,,,64.4,68.0,64.4,68.0,64.4,66.2,64.4,84.2,,,60.980000000000004,150.0,64.4,-12.599999999999994,-16.200000000000003,0.004583333333333333,1.1806666666666665,406.4,True,2026-03-10 23:31:52
99.06,2.0,10.0,2026-03-10 23:33:31,37.08163,-121.59959,375.0,0.1,47.8,-12.6,,,,,0.0,10.8,-0.8,38.4,0.0,43.0,0.0,-0.01,1.0,,-30.0,25.0,0.0,30.17,1215.0,,,140.0,,,,,0.0,0.0,,,,,,,,,,,,,,,,,,,0.0,17.0,768.0,768.0,28.0,0.5,,0.5,24.5,,,15.7,0.0,0.0,-0.6,4.0,2.7,,,,,19.0,29.0,19.0,24.0,19.0,31.0,19.0,38.0,,,9.0,0.0,,24.5,8.0,0.006,,,2.761,0.883,0.2,17.1,,,,,,77.0,62.6,,,,,66.2,84.2,66.2,75.2,66.2,87.8,66.2,100.4,,,62.78,768.0,66.2,-10.799999999999997,-14.399999999999999,0.004652777777777777,1.265,406.4,True,2026-03-10 23:31:52
100.06,2.0,10.0,2026-03-10 23:33:32,37.08163,-121.59959,375.0,0.0,47.8,-12.6,,,,,0.0,10.8,-0.7,38.4,0.0,43.0,0.0,-0.01,1.0,,-7.0,25.0,0.0,30.17,1215.0,,,140.0,,,,,0.0,0.0,,,,,,,,,,,,,,,,,,,3.0,18.0,992.0,992.0,19.5,1.2,,1.2,25.6,,,15.7,0.0,0.0,-0.7,4.0,2.7,,,,,20.0,90.0,20.0,69.0,20.0,87.0,20.0,96.0,,,9.0,0.0,,25.6,8.0,0.002,,,2.76,0.885,2.5,18.5,,,,,,77.0,64.4,,,,,68.0,194.0,68.0,156.2,68.0,188.6,68.0,204.8,,,65.3,992.0,68.0,-9.0,-12.599999999999994,0.004888888888888889,1.3493333333333333,406.4,True,2026-03-10 23:31:52
101.06,2.0,10.0,2026-03-10 23:33:33,37.08161,-121.59957,375.0,0.1,47.8,-12.6,,,,,0.0,10.8,-0.6,38.4,0.0,43.0,0.0,-0.02,1.0,,-4.0,25.0,0.0,30.17,1216.0,,,140.0,,,,,0.0,0.0,,,,,,,,,,,,,,,,,,,6.0,19.0,1048.0,1048.0,17.0,1.7,,1.7,25.7,,,15.7,0.0,0.0,-0.7,4.0,2.7,,,,,20.0,143.0,20.0,126.0,20.0,138.0,21.0,146.0,,,9.0,0.0,,25.7,8.0,0.001,,,2.759,0.862,5.7,18.5,,,,,,77.0,66.2,,,,,68.0,289.4,68.0,258.8,68.0,280.4,69.8,294.8,,,65.3,1048.0,68.45,-8.549999999999997,-10.799999999999997,0.005291666666666667,1.4336666666666666,406.4,True,2026-03-10 23:31:52
102.06,2.0,10.0,2026-03-10 23:33:34,37.08162,-121.59959,372.0,0.0,47.8,-12.6,,,,,0.0,10.8,-0.6,38.4,0.0,43.0,0.0,-0.02,1.0,,18.0,25.0,0.0,30.17,1216.0,,,140.0,,,,,0.0,0.0,,,,,,,,,,,,,,,,,,,10.0,19.0,1119.0,1119.0,16.0,2.0,,2.0,25.8,,,15.7,0.0,0.0,-0.7,4.0,2.7,,,,,20.0,188.0,21.0,176.0,21.0,185.0,21.0,190.0,,,9.0,0.0,,25.8,8.0,0.001,,,2.759,0.862,9.8,18.5,,,,,,77.0,66.2,,,,,68.0,370.4,69.8,348.8,69.8,365.0,69.8,374.0,,,65.3,1119.0,69.35,-7.650000000000006,-10.799999999999997,0.005805555555555555,1.518,406.4,True,2026-03-10 23:31:52
103.06,2.0,10.0,2026-03-10 23:33:35,37.08162,-121.59959,374.0,0.0,47.8,-12.6,,,,,0.0,10.8,-0.6,38.4,0.0,43.0,0.0,-0.01,1.0,,66.0,25.0,0.0,30.17,1216.0,,,140.0,,,,,0.0,0.0,,,,,,,,,,,,,,,,,,,15.0,18.0,1155.0,1155.0,15.1,2.1,,2.1,25.9,,,15.7,0.0,0.0,-0.7,4.0,2.7,,,,,21.0,230.0,21.0,217.0,21.0,229.0,22.0,231.0,,,9.0,0.0,,25.9,8.0,0.001,,,2.759,0.872,15.4,18.5,,,,,,77.0,64.4,,,,,69.8,446.0,69.8,422.6,69.8,444.2,71.6,447.8,,,65.3,1155.0,70.25,-6.75,-12.599999999999994,0.006375,1.518,406.4,True,2026-03-10 23:31:52
104.06,2.0,10.0,2026-03-10 23:33:36,37.08162,-121.59959,375.0,0.1,47.8,-12.6,,,,,0.0,10.7,-0.6,38.5,0.0,43.0,0.0,-0.02,1.0,,70.0,25.0,0.0,30.17,1225.0,,,140.0,,,,,0.0,0.0,,,,,,,,,,,,,,,,,,,23.0,18.0,1189.0,1189.0,14.7,2.2,,2.2,26.0,,,15.7,0.0,0.0,-0.7,4.0,2.7,,,,,21.0,268.0,22.0,255.0,22.0,267.0,22.0,267.0,,,9.0,0.0,,26.0,8.0,0.001,,,2.759,0.864,23.0,18.5,,,,,,77.0,64.4,,,,,69.8,514.4,71.6,491.0,71.6,512.6,71.6,512.6,,,65.3,1189.0,71.14999999999999,-5.8500000000000085,-12.599999999999994,0.006972222222222222,1.6023333333333332,406.4,True,2026-03-10 23:31:52
105.06,2.0,10.0,2026-03-10 23:33:37,37.08163,-121.59964,398.0,0.1,47.8,-12.6,,,,,0.0,10.8,-0.6,38.5,0.0,43.0,0.0,-0.01,1.0,,34.0,25.0,0.0,30.17,1225.0,,,140.0,,,,,0.0,0.0,,,,,,,,,,,,,,,,,,,33.0,18.0,1217.0,1217.0,14.5,2.3,,2.3,26.1,,,15.7,0.0,0.0,-0.7,4.0,2.7,,,,,21.0,302.0,22.0,287.0,22.0,304.0,23.0,301.0,,,9.0,0.0,,26.1,8.0,0.001,,,2.759,0.885,33.2,18.5,,,,,,77.0,64.4,,,,,69.8,575.6,71.6,548.6,71.6,579.2,73.4,573.8,,,65.3,1217.0,71.6,-5.400000000000006,-12.599999999999994,0.007597222222222222,1.771,406.4,True,2026-03-10 23:31:52
106.06,2.0,10.0,2026-03-10 23:33:38,37.08163,-121.59964,398.0,0.0,47.8,-12.6,,,,,0.0,10.8,-0.6,38.4,0.0,44.0,0.0,-0.02,0.9,,74.0,25.0,0.0,30.17,1225.0,,,140.0,,,,,0.0,0.0,,,,,,,,,,,,,,,,,,,46.0,18.0,1220.0,1220.0,14.4,2.3,,2.3,26.4,,,15.7,0.0,0.0,-0.7,4.0,2.7,,,,,22.0,333.0,23.0,318.0,22.0,341.0,24.0,335.0,,,9.0,0.0,,26.4,8.0,0.001,,,2.759,0.876,46.0,18.5,,,,,,77.0,64.4,,,,,71.6,631.4,73.4,604.4,71.6,645.8,75.2,635.0,,,65.3,1220.0,72.95,-4.049999999999997,-12.599999999999994,0.00823611111111111,1.8553333333333333,406.4,True,2026-03-10 23:31:52
107.06,2.0,10.0,2026-03-10 23:33:39,37.08163,-121.59964,397.0,0.1,47.8,-12.6,,,,,0.0,10.8,-0.6,38.4,0.0,46.0,0.0,-0.02,1.0,,88.0,25.0,0.0,30.17,1229.0,,,140.0,,,,,0.0,0.0,,,,,,,,,,,,,,,,,,,59.0,18.0,1048.0,1048.0,14.5,2.2,,2.2,26.4,,,15.7,0.0,0.0,-0.7,4.0,2.7,,,,,22.0,377.0,24.0,351.0,23.0,381.0,24.0,374.0,,,9.0,0.0,,26.4,8.0,0.001,,,2.759,0.885,58.5,18.5,,,,,,77.0,64.4,,,,,71.6,710.6,75.2,663.8,73.4,717.8,75.2,705.2,,,65.3,1048.0,73.85,-3.1500000000000057,-12.599999999999994,0.008861111111111111,1.9396666666666667,406.4,True,2026-03-10 23:31:52
108.06,2.0,10.0,2026-03-10 23:33:40,37.08163,-121.59964,397.0,0.0,47.8,-12.6,,,,,0.0,10.8,-0.6,38.5,0.0,48.0,0.0,-0.01,1.0,,82.0,25.0,0.0,30.17,1232.0,,,140.0,,,,,0.0,0.0,,,,,,,,,,,,,,,,,,,68.0,18.0,1034.0,1034.0,14.4,2.1,,2.1,26.4,,,15.7,0.0,0.0,-0.7,4.0,2.7,,,,,23.0,403.0,24.0,375.0,23.0,417.0,25.0,406.0,,,9.0,0.0,,26.4,8.0,0.001,,,2.759,0.88,67.5,18.5,,,,,,77.0,64.4,,,,,73.4,757.4,75.2,707.0,73.4,782.6,77.0,762.8,,,65.3,1034.0,74.75,-2.25,-12.599999999999994,0.009458333333333332,2.024,406.4,True,2026-03-10 23:31:52
109.06,2.0,10.0,2026-03-10 23:33:41,37.08163,-121.59964,395.0,0.1,47.8,-12.6,,,,,0.0,10.8,-0.7,38.5,0.0,49.0,0.0,-0.01,1.0,,78.0,25.0,0.0,30.17,1234.0,,,140.0,,,,,0.0,0.0,,,,,,,,,,,,,,,,,,,72.0,18.0,981.0,981.0,14.0,1.9,,1.9,26.4,,,15.7,0.0,0.0,-0.7,4.0,2.8,,,,,23.0,419.0,25.0,393.0,24.0,444.0,25.0,432.0,,,9.0,0.0,,26.4,8.0,0.001,,,2.759,0.884,72.3,18.5,,,,,,77.0,64.4,,,,,73.4,786.2,77.0,739.4,75.2,831.2,77.0,809.6,,,65.3,981.0,75.65,-1.3499999999999943,-12.599999999999994,0.010013888888888888,2.1083333333333334,406.4,True,2026-03-10 23:31:52
110.06,2.0,10.0,2026-03-10 23:33:42,37.08163,-121.59963,394.0,0.0,47.8,-12.6,,,,,0.0,10.7,-0.7,38.5,0.0,50.0,0.0,-0.01,1.0,,60.0,25.0,0.0,30.17,1235.0,,,140.0,,,,,0.0,0.0,,,,,,,,,,,,,,,,,,,74.0,18.0,971.0,971.0,14.1,1.8,,1.8,26.4,,,15.7,0.0,0.0,-0.7,4.0,2.8,,,,,24.0,430.0,26.0,407.0,24.0,463.0,26.0,455.0,,,9.0,0.0,,26.4,8.0,0.0,,,2.759,0.896,74.3,18.5,,,,,,77.0,64.4,,,,,75.2,806.0,78.8,764.6,75.2,865.4,78.8,851.0,,,65.3,971.0,77.0,0.0,-12.599999999999994,0.010527777777777778,2.1926666666666668,406.4,True,2026-03-10 23:31:52
111.06,2.0,10.0,2026-03-10 23:33:43,37.08163,-121.59963,392.0,0.1,47.8,-12.6,,,,,0.0,10.7,-0.7,38.5,0.0,52.0,0.0,-0.02,1.0,,85.0,25.0,0.0,30.17,1237.0,,,140.0,,,,,0.0,0.0,,,,,,,,,,,,,,,,,,,75.0,18.0,953.0,953.0,14.0,1.8,,1.8,26.4,,,15.7,0.0,0.0,-0.7,4.0,2.8,,,,,24.0,440.0,26.0,420.0,25.0,485.0,26.0,475.0,,,9.0,0.0,,26.4,8.0,0.0,,,2.759,0.884,75.2,18.5,,,,,,77.0,64.4,,,,,75.2,824.0,78.8,788.0,77.0,905.0,78.8,887.0,,,65.3,953.0,77.45,0.45000000000000284,-12.599999999999994,0.011027777777777777,2.2769999999999997,406.4,True,2026-03-10 23:31:52
112.06,2.0,10.0,2026-03-10 23:33:44,37.08163,-121.59963,390.0,0.1,47.8,-12.6,,,,,0.0,10.8,-0.6,38.5,0.0,52.0,0.0,-0.02,1.0,,71.0,25.0,0.0,30.17,1238.0,,,140.0,,,,,0.0,0.0,,,,,,,1.0,,,-34.0,,,,,,,,,76.0,18.0,972.0,972.0,14.0,1.7,,1.7,26.3,,,15.7,0.0,0.0,-0.7,4.0,2.8,,,,,24.0,449.0,26.0,432.0,25.0,504.0,26.0,493.0,,,9.0,0.0,,26.3,8.0,0.0,,,2.759,0.873,75.7,18.5,,,,,,77.0,64.4,,,,,75.2,840.2,78.8,809.6,77.0,939.2,78.8,919.4,,,65.3,972.0,77.45,0.45000000000000284,-12.599999999999994,0.01151388888888889,2.4456666666666664,406.4,True,2026-03-10 23:31:52
