Session Time,GPS Fix Quality,Number of Satellites,GPS Date & Time,Latitude (deg),Longitude (deg),GPS Altitude (feet),Ground Speed (knots),Ground Track (deg),Mag Var (deg),Cross Track Error (NM),Destination Waypoint ID,Range to Destination (NM),Bearing to Destination (deg),System Time,Pitch (deg),Roll (deg),Magnetic Heading (deg),Indicated Airspeed (knots),Pressure Altitude (ft),Turn Rate (deg/s),Lateral Accel (g),Vertical Accel(g),Angle of Attack (%),Vertical Speed (ft/min),OAT (deg C),True Airspeed (knots),Barometer Setting (inHg),Density Altitude (ft),Wind Direction (deg),Wind Speed (knots),Heading Bug (deg),Altitude Bug (ft),Airspeed Bug (knots),Vertical Speed Bug (ft/min),Course (deg),CDI Source Type,CDI Source Port,CDI Scale (NM),CDI Deflection (%),Glideslope (%),AP Engaged,AP Roll Mode,AP Roll Force,AP Roll Position (steps),AP Roll Slip (bool),AP Pitch Force,AP Pitch Position (steps),AP Pitch Slip (bool),AP Yaw Force,AP Yaw Position,AP Yaw Slip (bool),Transponder Status,Transponder Reply (bool),Transponder Identing (bool),Transponder Code (octal),Oil Pressure (PSI),Oil Temp (deg C),RPM L,RPM R,Manifold Pressure (inHg),Fuel Flow 1 (gal/hr),Fuel Flow 2 (gal/hr),Total Fuel Flow (gal/hr),Fuel Pressure (PSI),Fuel Level L (gal),Fuel Level R (gal),Fuel Remaining (gal),Volts 1,Volts 2,Amps,Hobbs Time,Tach Time,Thermocouple 1 (deg C),Thermocouple 2 (deg C),Thermocouple 3 (deg C),Thermocouple 4 (deg C),CHT 4 (deg C),EGT 4 (deg C),CHT 3 (deg C),EGT 3 (deg C),CHT 2 (deg C),EGT 2 (deg C),CHT 1 (deg C),EGT 1 (deg C),Thermocouple 13 (deg C),Thermocouple 14 (deg C),ELEV POSITION (%),CO PPM PRESSURE (PSI),GP Input 3,FUEL PRESSURE (PSI),AILERN POSITION (%),CANOPY CONTACT (V),GP Input 7,GP Input 8,LEFT LEVEL (Sensor V),RIGHT LEVEL (Sensor V),OIL PRESSURE (PSI),OIL TEMPERATURE (deg C),GP Input 13,Contacts,Percent Power,EGT Leaning State,Unnamed: 103,source_file,Unnamed: 0,press_alt,ias,hdg,gps_gs,gps_trk,OAT (deg F),Oil Temp (deg F),Thermocouple 1 (deg F),Thermocouple 2 (deg F),Thermocouple 3 (deg F),Thermocouple 4 (deg F),CHT 4 (deg F),EGT 4 (deg F),CHT 3 (deg F),EGT 3 (deg F),CHT 2 (deg F),EGT 2 (deg F),CHT 1 (deg F),EGT 1 (deg F),Thermocouple 13 (deg F),Thermocouple 14 (deg F),OIL TEMPERATURE (deg F),RPM,AVG_CHT,CHT_OAT_Ratio,OIL_OAT_Ratio,Fuel Flow Integral,Distance Traveled,Max CHT,Engine Run,Flight ID,efficiency
8.06,1.0,4.0,2026-02-07 23:30:08,37.08152,-121.59963,319.0,0.1,50.4,-12.6,,,,,0.0,10.8,-1.3,57.1,0.0,-10.0,0.0,-0.02,1.0,,-88.0,21.0,0.0,30.25,736.0,,,326.0,,,,,0.0,0.0,,,,,,,,,,,,,,,,,,,0.0,20.0,0.0,0.0,30.4,0.0,,0.0,0.0,,,36.4,0.0,0.0,-0.8,1.1,0.4,,,,,21.0,21.0,21.0,21.0,21.0,21.0,21.0,21.0,,,-37.0,254.4,,0.0,-8.0,0.0,,,0.653,0.791,0.0,19.9,,,,,,2026-02-14-N890GF-SN35347-17.4.0.23677-2ND_TAXI-USER_LOG_DATA.csv,,,,,,,69.8,68.0,,,,,69.8,69.8,69.8,69.8,69.8,69.8,69.8,69.8,,,67.82,0.0,69.8,1.0,0.9742120343839542,0.0,0.0,267.8,True,2026-02-07 23:30:08 - Flight 21,
9.06,1.0,4.0,2026-02-07 23:30:09,37.08149,-121.59967,290.0,0.3,50.4,-12.6,,,,,0.0,10.9,-1.3,57.0,0.0,-11.0,0.0,-0.02,1.0,,-72.0,21.0,0.0,30.25,736.0,,,326.0,,,,,0.0,0.0,,,,,,,,,,,,,,,,,,,0.0,20.0,0.0,0.0,30.4,0.0,,0.0,0.0,,,36.4,0.0,0.0,-0.8,1.1,0.4,,,,,21.0,21.0,21.0,21.0,21.0,21.0,21.0,21.0,,,-37.0,254.4,,0.0,-8.0,0.0,,,0.653,0.791,0.0,19.9,,,,,,2026-02-14-N890GF-SN35347-17.4.0.23677-2ND_TAXI-USER_LOG_DATA.csv,,,,,,,69.8,68.0,,,,,69.8,69.8,69.8,69.8,69.8,69.8,69.8,69.8,,,67.82,0.0,69.8,1.0,0.9742120343839542,0.0,0.3373333333333333,267.8,True,2026-02-07 23:30:08 - Flight 21,
10.06,1.0,4.0,2026-02-07 23:30:10,37.08147,-121.59969,279.0,0.2,50.4,-12.6,,,,,0.0,10.9,-1.2,57.0,0.0,-13.0,-0.0,-0.02,1.0,,-82.0,21.0,0.0,30.25,729.0,,,326.0,,,,,0.0,0.0,,,,,,,,,,,,,,,,,,,0.0,20.0,0.0,0.0,30.4,0.0,,0.0,0.0,,,36.4,0.0,0.0,-0.8,1.1,0.4,,,,,21.0,21.0,21.0,21.0,21.0,21.0,21.0,21.0,,,-37.0,254.4,,0.0,-8.0,0.0,,,0.653,0.791,0.0,19.9,,,,,,2026-02-14-N890GF-SN35347-17.4.0.23677-2ND_TAXI-USER_LOG_DATA.csv,,,,,,,69.8,68.0,,,,,69.8,69.8,69.8,69.8,69.8,69.8,69.8,69.8,,,67.82,0.0,69.8,1.0,0.9742120343839542,0.0,0.7589999999999999,267.8,True,2026-02-07 23:30:08 - Flight 21,
11.06,1.0,4.0,2026-02-07 23:30:11,37.08147,-121.59969,271.0,0.1,50.4,-12.6,,,,,0.0,10.9,-1.2,57.0,0.0,-14.0,-0.0,-0.02,1.0,,-97.0,21.0,0.0,30.25,729.0,,,326.0,,,,,0.0,0.0,,,,,,,,,,,,,,,,,,,0.0,20.0,0.0,0.0,30.4,0.0,,0.0,0.0,,,36.4,0.0,0.0,-0.8,1.1,0.4,,,,,21.0,21.0,21.0,21.0,21.0,21.0,21.0,21.0,,,-37.0,254.4,,0.0,-8.0,0.0,,,0.653,0.791,0.0,19.9,,,,,,2026-02-14-N890GF-SN35347-17.4.0.23677-2ND_TAXI-USER_LOG_DATA.csv,,,,,,,69.8,68.0,,,,,69.8,69.8,69.8,69.8,69.8,69.8,69.8,69.8,,,67.82,0.0,69.8,1.0,0.9742120343839542,0.0,1.012,267.8,True,2026-02-07 23:30:08 - Flight 21,
12.06,1.0,6.0,2026-02-07 23:30:12,37.08147,-121.59969,272.0,0.0,50.4,-12.6,,,,,0.0,10.9,-1.2,57.0,0.0,-16.0,-0.0,-0.02,1.0,,-102.0,21.0,0.0,30.25,729.0,,,326.0,,,,,0.0,0.0,,,,,,,,,,,,,,,,,,,0.0,20.0,0.0,0.0,30.4,0.0,,0.0,0.0,,,36.4,0.0,0.0,-0.8,1.1,0.4,,,,,21.0,21.0,21.0,21.0,21.0,21.0,21.0,21.0,,,-37.0,254.4,,0.0,-8.0,0.0,,,0.654,0.791,0.0,19.9,,,,,,2026-02-14-N890GF-SN35347-17.4.0.23677-2ND_TAXI-USER_LOG_DATA.csv,,,,,,,69.8,68.0,,,,,69.8,69.8,69.8,69.8,69.8,69.8,69.8,69.8,,,67.82,0.0,69.8,1.0,0.9742120343839542,0.0,1.0963333333333334,267.8,True,2026-02-07 23:30:08 - Flight 21,
13.06,1.0,6.0,2026-02-07 23:30:13,37.08155,-121.59961,339.0,0.0,50.4,-12.6,,,,,0.0,10.9,-1.3,57.0,0.0,-20.0,-0.0,-0.02,1.0,,-135.0,21.0,0.0,30.25,721.0,,,326.0,,,,,0.0,0.0,,,,,,,,,,,,,,,,,,,0.0,20.0,0.0,0.0,30.4,0.0,,0.0,0.0,,,36.4,0.0,0.0,-0.8,1.1,0.4,,,,,21.0,21.0,21.0,21.0,21.0,21.0,21.0,21.0,,,-37.0,254.4,,0.0,-8.0,0.0,,,0.653,0.791,0.0,19.9,,,,,,2026-02-14-N890GF-SN35347-17.4.0.23677-2ND_TAXI-USER_LOG_DATA.csv,,,,,,,69.8,68.0,,,,,69.8,69.8,69.8,69.8,69.8,69.8,69.8,69.8,,,67.82,0.0,69.8,1.0,0.9742120343839542,0.0,1.0963333333333334,267.8,True,2026-02-07 23:30:08 - Flight 21,
14.06,1.0,6.0,2026-02-07 23:30:14,37.08155,-121.59961,337.0,0.1,50.4,-12.6,,,,,0.0,10.9,-1.3,57.0,0.0,-22.0,-0.0,-0.02,1.0,,-143.0,21.0,0.0,30.25,721.0,,,326.0,,,,,0.0,0.0,,,,,,,,,,,,,,,,,,,0.0,20.0,0.0,0.0,30.4,0.0,,0.0,0.0,,,36.4,0.0,0.0,-0.8,1.1,0.4,,,,,21.0,21.0,21.0,21.0,21.0,21.0,21.0,21.0,,,-37.0,254.4,,0.0,-8.0,0.0,,,0.653,0.791,0.0,19.9,,,,,,2026-02-14-N890GF-SN35347-17.4.0.23677-2ND_TAXI-USER_LOG_DATA.csv,,,,,,,69.8,68.0,,,,,69.8,69.8,69.8,69.8,69.8,69.8,69.8,69.8,,,67.82,0.0,69.8,1.0,0.9742120343839542,0.0,1.1806666666666665,267.8,True,2026-02-07 23:30:08 - Flight 21,
15.06,1.0,7.0,2026-02-07 23:30:15,37.08155,-121.59953,410.0,0.1,50.4,-12.6,,,,,0.0,10.9,-1.3,57.0,0.0,-24.0,-0.0,-0.02,1.0,,-97.0,21.0,0.0,30.25,721.0,,,326.0,,,,,0.0,0.0,,,,,,,,,,,,,,,,,,,0.0,20.0,0.0,0.0,30.4,0.0,,0.0,0.0,,,36.4,0.0,0.0,-0.8,1.1,0.4,,,,,21.0,21.0,21.0,21.0,21.0,21.0,21.0,21.0,,,-37.0,254.4,,0.0,-8.0,0.0,,,0.653,0.791,0.0,19.9,,,,,,2026-02-14-N890GF-SN35347-17.4.0.23677-2ND_TAXI-USER_LOG_DATA.csv,,,,,,,69.8,68.0,,,,,69.8,69.8,69.8,69.8,69.8,69.8,69.8,69.8,,,67.82,0.0,69.8,1.0,0.9742120343839542,0.0,1.3493333333333333,267.8,True,2026-02-07 23:30:08 - Flight 21,
16.06,1.0,7.0,2026-02-07 23:30:16,37.08155,-121.59956,372.0,0.0,50.4,-12.6,,,,,0.0,10.9,-1.2,57.0,0.0,-25.0,-0.0,-0.02,1.0,,-102.0,21.0,0.0,30.25,715.0,,,326.0,,,,,0.0,0.0,,,,,,,,,,,,,,,,,,,0.0,20.0,0.0,0.0,30.4,0.0,,0.0,0.0,,,36.4,0.0,0.0,-0.8,1.1,0.4,,,,,21.0,21.0,21.0,21.0,21.0,21.0,21.0,21.0,,,-37.0,254.4,,0.0,-8.0,0.0,,,0.653,0.791,0.0,19.9,,,,,,2026-02-14-N890GF-SN35347-17.4.0.23677-2ND_TAXI-USER_LOG_DATA.csv,,,,,,,69.8,68.0,,,,,69.8,69.8,69.8,69.8,69.8,69.8,69.8,69.8,,,67.82,0.0,69.8,1.0,0.9742120343839542,0.0,1.4336666666666664,267.8,True,2026-02-07 23:30:08 - Flight 21,
17.06,1.0,7.0,2026-02-07 23:30:17,37.08155,-121.59956,373.0,0.1,50.4,-12.6,,,,,0.0,10.9,-1.3,56.9,0.0,-27.0,-0.0,-0.02,1.0,,-115.0,21.0,0.0,30.25,715.0,,,326.0,,,,,0.0,0.0,,,,,,,,,,,,,,,,,,,0.0,20.0,0.0,0.0,30.4,0.0,,0.0,0.0,,,36.4,0.0,0.0,-0.8,1.1,0.4,,,,,21.0,21.0,21.0,21.0,21.0,21.0,21.0,21.0,,,-37.0,254.4,,0.0,-8.0,0.0,,,0.654,0.791,0.0,19.9,,,,,,2026-02-14-N890GF-SN35347-17.4.0.23677-2ND_TAXI-USER_LOG_DATA.csv,,,,,,,69.8,68.0,,,,,69.8,69.8,69.8,69.8,69.8,69.8,69.8,69.8,,,67.82,0.0,69.8,1.0,0.9742120343839542,0.0,1.5179999999999998,267.8,True,2026-02-07 23:30:08 - Flight 21,
18.06,1.0,8.0,2026-02-07 23:30:18,37.08161,-121.59956,394.0,0.0,50.4,-12.6,,,,,0.0,10.9,-1.3,57.0,0.0,-28.0,-0.0,-0.02,1.0,,-98.0,21.0,0.0,30.25,715.0,,,326.0,,,,,0.0,0.0,,,,,,,,,,,,,,,,,,,0.0,20.0,0.0,0.0,30.4,0.0,,0.0,0.0,,,36.4,0.0,0.0,-0.8,1.1,0.4,,,,,21.0,21.0,21.0,21.0,21.0,21.0,21.0,21.0,,,-37.0,254.4,,0.0,-8.0,0.0,,,0.654,0.791,0.0,19.9,,,,,,2026-02-14-N890GF-SN35347-17.4.0.23677-2ND_TAXI-USER_LOG_DATA.csv,,,,,,,69.8,68.0,,,,,69.8,69.8,69.8,69.8,69.8,69.8,69.8,69.8,,,67.82,0.0,69.8,1.0,0.9742120343839542,0.0,1.6023333333333332,267.8,True,2026-02-07 23:30:08 - Flight 21,
19.06,1.0,8.0,2026-02-07 23:30:19,37.08158,-121.59956,387.0,0.1,50.4,-12.6,,,,,0.0,10.9,-1.3,56.9,0.0,-28.0,-0.0,-0.02,1.0,,-56.0,21.0,0.0,30.25,711.0,,,326.0,,,,,0.0,0.0,,,,,,,,,,,,,,,,,,,0.0,20.0,0.0,0.0,30.4,0.0,,0.0,0.0,,,36.4,0.0,0.0,-0.8,1.1,0.4,,,,,21.0,21.0,21.0,21.0,21.0,21.0,21.0,21.0,,,-37.0,254.4,,0.0,-8.0,0.0,,,0.653,0.791,0.0,19.9,,,,,,2026-02-14-N890GF-SN35347-17.4.0.23677-2ND_TAXI-USER_LOG_DATA.csv,,,,,,,69.8,68.0,,,,,69.8,69.8,69.8,69.8,69.8,69.8,69.8,69.8,,,67.82,0.0,69.8,1.0,0.9742120343839542,0.0,1.6866666666666665,267.8,True,2026-02-07 23:30:08 - Flight 21,
20.06,1.0,8.0,2026-02-07 23:30:20,37.08158,-121.59956,389.0,0.0,50.4,-12.6,,,,,0.0,10.9,-1.3,56.9,0.0,-30.0,-0.0,-0.02,1.0,,-55.0,21.0,0.0,30.25,712.0,,,326.0,,,,,0.0,0.0,,,,,,,,,,,,,,,,,,,0.0,20.0,0.0,0.0,30.4,0.0,,0.0,0.0,,,36.4,0.0,0.0,-0.8,1.1,0.4,,,,,21.0,21.0,21.0,21.0,21.0,21.0,21.0,21.0,,,-37.0,254.4,,0.0,-8.0,0.0,,,0.653,0.791,0.0,19.9,,,,,,2026-02-14-N890GF-SN35347-17.4.0.23677-2ND_TAXI-USER_LOG_DATA.csv,,,,,,,69.8,68.0,,,,,69.8,69.8,69.8,69.8,69.8,69.8,69.8,69.8,,,67.82,0.0,69.8,1.0,0.9742120343839542,0.0,1.7709999999999997,267.8,True,2026-02-07 23:30:08 - Flight 21,
21.06,1.0,8.0,2026-02-07 23:30:21,37.08158,-121.59955,389.0,0.0,50.4,-12.6,,,,,0.0,10.9,-1.3,56.9,0.0,-30.0,-0.0,-0.02,1.0,,-41.0,21.0,0.0,30.25,712.0,,,326.0,,,,,0.0,0.0,,,,,,,,,,,,,,,,,,,0.0,20.0,0.0,0.0,30.4,0.0,,0.0,0.0,,,36.4,0.0,0.0,-0.8,1.1,0.4,,,,,21.0,21.0,21.0,21.0,21.0,21.0,21.0,21.0,,,-37.0,254.4,,0.0,-8.0,0.0,,,0.654,0.791,0.0,19.9,,,,,,2026-02-14-N890GF-SN35347-17.4.0.23677-2ND_TAXI-USER_LOG_DATA.csv,,,,,,,69.8,68.0,,,,,69.8,69.8,69.8,69.8,69.8,69.8,69.8,69.8,,,67.82,0.0,69.8,1.0,0.9742120343839542,0.0,1.7709999999999997,267.8,True,2026-02-07 23:30:08 - Flight 21,
22.06,1.0,8.0,2026-02-07 23:30:22,37.08158,-121.59955,390.0,0.0,50.4,-12.6,,,,,0.0,10.9,-1.3,56.9,0.0,-30.0,-0.0,-0.02,1.0,,-48.0,21.0,0.0,30.25,712.0,,,326.0,,,,,0.0,0.0,,,,,,,,,,,,,,,,,,,0.0,20.0,0.0,0.0,30.4,0.0,,0.0,0.0,,,36.4,0.0,0.0,-0.8,1.1,0.4,,,,,21.0,21.0,21.0,21.0,21.0,21.0,21.0,21.0,,,-37.0,254.4,,0.0,-8.0,0.0,,,0.653,0.791,0.0,19.9,,,,,,2026-02-14-N890GF-SN35347-17.4.0.23677-2ND_TAXI-USER_LOG_DATA.csv,,,,,,,69.8,68.0,,,,,69.8,69.8,69.8,69.8,69.8,69.8,69.8,69.8,,,67.82,0.0,69.8,1.0,0.9742120343839542,0.0,1.7709999999999997,267.8,True,2026-02-07 23:30:08 - Flight 21,
23.06,1.0,8.0,2026-02-07 23:30:23,37.08158,-121.59955,390.0,0.0,50.4,-12.6,,,,,0.0,10.9,-1.2,57.0,0.0,-33.0,0.0,-0.02,1.0,,-87.0,21.0,0.0,30.25,719.0,,,326.0,,,,,0.0,0.0,,,,,,,,,,,,,,,,,,,0.0,20.0,0.0,0.0,30.4,0.0,,0.0,0.0,,,36.4,0.0,0.0,-0.8,1.1,0.4,,,,,21.0,21.0,21.0,21.0,21.0,21.0,21.0,21.0,,,-37.0,254.4,,0.0,-8.0,0.0,,,0.653,0.791,0.0,19.9,,,,,,2026-02-14-N890GF-SN35347-17.4.0.23677-2ND_TAXI-USER_LOG_DATA.csv,,,,,,,69.8,68.0,,,,,69.8,69.8,69.8,69.8,69.8,69.8,69.8,69.8,,,67.82,0.0,69.8,1.0,0.9742120343839542,0.0,1.7709999999999997,267.8,True,2026-02-07 23:30:08 - Flight 21,
24.06,1.0,8.0,2026-02-07 23:30:24,37.08158,-121.59955,390.0,0.0,50.4,-12.6,,,,,0.0,10.9,-1.2,57.0,0.0,-34.0,0.0,-0.02,1.0,,-78.0,21.0,0.0,30.25,719.0,,,326.0,,,,,0.0,0.0,,,,,,,,,,,,,,,,,,,0.0,20.0,0.0,0.0,30.4,0.0,,0.0,0.0,,,36.4,0.0,0.0,-0.8,1.1,0.4,,,,,21.0,21.0,21.0,21.0,21.0,21.0,21.0,21.0,,,-37.0,254.4,,0.0,-8.0,0.0,,,0.653,0.791,0.0,19.9,,,,,,2026-02-14-N890GF-SN35347-17.4.0.23677-2ND_TAXI-USER_LOG_DATA.csv,,,,,,,69.8,68.0,,,,,69.8,69.8,69.8,69.8,69.8,69.8,69.8,69.8,,,67.82,0.0,69.8,1.0,0.9742120343839542,0.0,1.7709999999999997,267.8,True,2026-02-07 23:30:08 - Flight 21,
25.06,1.0,8.0,2026-02-07 23:30:25,37.08158,-121.59955,390.0,0.1,50.4,-12.6,,,,,0.0,11.0,-1.2,57.0,0.0,-35.0,0.0,-0.02,1.0,,-78.0,21.0,0.0,30.25,719.0,,,326.0,,,,,0.0,0.0,,,,,,,,,,,,,,,,,,,0.0,20.0,0.0,0.0,30.4,0.0,,0.0,0.0,,,36.4,0.0,0.0,-0.8,1.1,0.4,,,,,21.0,21.0,21.0,21.0,21.0,21.0,21.0,21.0,,,-37.0,254.4,,0.0,-8.0,0.0,,,0.653,0.791,0.0,19.9,,,,,,2026-02-14-N890GF-SN35347-17.4.0.23677-2ND_TAXI-USER_LOG_DATA.csv,,,,,,,69.8,68.0,,,,,69.8,69.8,69.8,69.8,69.8,69.8,69.8,69.8,,,67.82,0.0,69.8,1.0,0.9742120343839542,0.0,1.855333333333333,267.8,True,2026-02-07 23:30:08 - Flight 21,
26.06,1.0,8.0,2026-02-07 23:30:26,37.08158,-121.59955,390.0,0.0,50.4,-12.6,,,,,0.0,11.0,-1.2,57.0,0.0,-35.0,0.0,-0.02,1.0,,-62.0,21.0,0.0,30.25,713.0,,,326.0,,,,,0.0,0.0,,,,,,,,,,,,,,,,,,,0.0,20.0,0.0,0.0,30.4,0.0,,0.0,3.3,,,36.4,0.0,0.0,-0.7,1.1,0.4,,,,,21.0,21.0,21.0,21.0,21.0,21.0,21.0,21.0,,,-38.0,254.4,,3.3,-8.0,0.0,,,0.653,0.791,0.0,19.9,,,,,,2026-02-14-N890GF-SN35347-17.4.0.23677-2ND_TAXI-USER_LOG_DATA.csv,,,,,,,69.8,68.0,,,,,69.8,69.8,69.8,69.8,69.8,69.8,69.8,69.8,,,67.82,0.0,69.8,1.0,0.9742120343839542,0.0,1.9396666666666664,267.8,True,2026-02-07 23:30:08 - Flight 21,
27.06,1.0,8.0,2026-02-07 23:30:27,37.08158,-121.59955,390.0,0.1,50.4,-12.6,,,,,0.0,11.0,-1.2,56.9,0.0,-36.0,-0.0,-0.02,1.0,,-45.0,21.0,0.0,30.25,713.0,,,326.0,,,,,0.0,0.0,,,,,,,,,,,,,,,,,,,0.0,20.0,0.0,0.0,30.4,1.3,,1.3,20.9,,,36.4,0.0,0.0,-0.7,1.1,0.4,,,,,21.0,21.0,21.0,21.0,21.0,22.0,21.0,21.0,,,-38.0,254.4,,20.9,-8.0,0.0,,,0.653,0.791,0.0,19.9,,,,,,2026-02-14-N890GF-SN35347-17.4.0.23677-2ND_TAXI-USER_LOG_DATA.csv,,,,,,,69.8,68.0,,,,,69.8,69.8,69.8,69.8,69.8,71.6,69.8,69.8,,,67.82,0.0,69.8,1.0,0.9742120343839542,0.00018055555555555557,2.0239999999999996,267.8,True,2026-02-07 23:30:08 - Flight 21,
28.06,1.0,8.0,2026-02-07 23:30:28,37.08158,-121.59955,390.0,0.0,50.4,-12.6,,,,,0.0,11.0,-1.2,56.9,0.0,-36.0,0.0,-0.02,1.0,,-17.0,21.0,0.0,30.25,713.0,,,326.0,,,,,0.0,0.0,,,,,,,,,,,,,,,,,,,0.0,20.0,0.0,0.0,30.4,2.4,,2.4,27.8,,,36.4,0.0,0.0,-0.6,1.1,0.4,,,,,21.0,21.0,21.0,21.0,21.0,21.0,21.0,21.0,,,-38.0,254.4,,27.8,-8.0,0.0,,,0.654,0.791,0.0,19.9,,,,,,2026-02-14-N890GF-SN35347-17.4.0.23677-2ND_TAXI-USER_LOG_DATA.csv,,,,,,,69.8,68.0,,,,,69.8,69.8,69.8,69.8,69.8,69.8,69.8,69.8,,,67.82,0.0,69.8,1.0,0.9742120343839542,0.0006944444444444445,2.108333333333333,267.8,True,2026-02-07 23:30:08 - Flight 21,
29.06,1.0,8.0,2026-02-07 23:30:29,37.08158,-121.59955,390.0,0.0,50.4,-12.6,,,,,0.0,11.0,-1.2,56.9,0.0,-36.0,0.0,-0.02,1.0,,-16.0,21.0,0.0,30.25,712.0,,,326.0,,,,,0.0,0.0,,,,,,,,,,,,,,,,,,,0.0,20.0,0.0,0.0,30.4,3.2,,3.2,30.7,,,36.4,0.0,0.0,-0.6,1.1,0.4,,,,,21.0,21.0,21.0,21.0,21.0,22.0,21.0,21.0,,,-38.0,254.4,,30.7,-8.0,0.0,,,0.653,0.791,0.0,19.9,,,,,,2026-02-14-N890GF-SN35347-17.4.0.23677-2ND_TAXI-USER_LOG_DATA.csv,,,,,,,69.8,68.0,,,,,69.8,69.8,69.8,69.8,69.8,71.6,69.8,69.8,,,67.82,0.0,69.8,1.0,0.9742120343839542,0.0014722222222222224,2.108333333333333,267.8,True,2026-02-07 23:30:08 - Flight 21,
30.06,1.0,8.0,2026-02-07 23:30:30,37.08158,-121.59955,389.0,0.0,50.4,-12.6,,,,,0.0,11.0,-1.2,56.9,0.0,-36.0,0.0,-0.02,1.0,,-12.0,21.0,0.0,30.25,712.0,,,326.0,,,,,0.0,0.0,,,,,,,,,,,,,,,,,,,0.0,20.0,0.0,0.0,30.4,3.2,,3.2,33.4,,,36.4,0.0,0.0,-0.6,1.1,0.4,,,,,21.0,21.0,21.0,21.0,21.0,22.0,21.0,21.0,,,-38.0,254.4,,33.4,-8.0,0.0,,,0.654,0.791,0.0,19.9,,,,,,2026-02-14-N890GF-SN35347-17.4.0.23677-2ND_TAXI-USER_LOG_DATA.csv,,,,,,,69.8,68.0,,,,,69.8,69.8,69.8,69.8,69.8,71.6,69.8,69.8,,,67.82,0.0,69.8,1.0,0.9742120343839542,0.002361111111111111,2.108333333333333,267.8,True,2026-02-07 23:30:08 - Flight 21,
31.06,1.0,8.0,2026-02-07 23:30:31,37.08158,-121.59955,389.0,0.0,50.4,-12.6,,,,,0.0,11.0,-1.2,56.9,0.0,-37.0,0.0,-0.02,1.0,,-23.0,21.0,0.0,30.25,712.0,,,326.0,,,,,0.0,0.0,,,,,,,,,,,,,,,,,,,0.0,20.0,0.0,0.0,30.4,3.2,,3.2,34.1,,,36.4,0.0,0.0,-0.6,1.1,0.4,,,,,21.0,21.0,21.0,21.0,21.0,22.0,21.0,21.0,,,-38.0,254.4,,34.1,-8.0,0.0,,,0.653,0.791,0.0,19.9,,,,,,2026-02-14-N890GF-SN35347-17.4.0.23677-2ND_TAXI-USER_LOG_DATA.csv,,,,,,,69.8,68.0,,,,,69.8,69.8,69.8,69.8,69.8,71.6,69.8,69.8,,,67.82,0.0,69.8,1.0,0.9742120343839542,0.0032500000000000003,2.108333333333333,267.8,True,2026-02-07 23:30:08 - Flight 21,
32.06,1.0,9.0,2026-02-07 23:30:32,37.0816,-121.59954,401.0,0.0,50.4,-12.6,,,,,0.0,11.0,-1.3,56.9,0.0,-37.0,0.0,-0.02,1.0,,-23.0,21.0,0.0,30.25,711.0,,,326.0,,,,,0.0,0.0,,,,,,,,,,,,,,,,,,,0.0,20.0,0.0,0.0,30.4,3.2,,3.2,33.1,,,36.4,0.0,0.0,-0.7,1.1,0.4,,,,,21.0,22.0,21.0,21.0,21.0,22.0,21.0,21.0,,,-38.0,254.4,,33.1,-8.0,0.0,,,0.653,0.791,0.0,19.9,,,,,,2026-02-14-N890GF-SN35347-17.4.0.23677-2ND_TAXI-USER_LOG_DATA.csv,,,,,,,69.8,68.0,,,,,69.8,71.6,69.8,69.8,69.8,71.6,69.8,69.8,,,67.82,0.0,69.8,1.0,0.9742120343839542,0.0041388888888888925,2.108333333333333,267.8,True,2026-02-07 23:30:08 - Flight 21,
33.06,1.0,9.0,2026-02-07 23:30:33,37.0816,-121.59954,400.0,0.0,50.4,-12.6,,,,,0.0,11.0,-1.3,56.9,0.0,-37.0,0.0,-0.02,1.0,,20.0,21.0,0.0,30.25,712.0,,,326.0,,,,,0.0,0.0,,,,,,,,,,,,,,,,,,,0.0,20.0,0.0,0.0,30.4,0.0,,0.0,32.8,,,36.4,0.0,0.0,-0.7,1.1,0.4,,,,,21.0,22.0,21.0,21.0,21.0,22.0,21.0,21.0,,,-37.0,254.4,,32.8,-8.0,0.0,,,0.653,0.791,0.0,19.9,,,,,,2026-02-14-N890GF-SN35347-17.4.0.23677-2ND_TAXI-USER_LOG_DATA.csv,,,,,,,69.8,68.0,,,,,69.8,71.6,69.8,69.8,69.8,71.6,69.8,69.8,,,67.82,0.0,69.8,1.0,0.9742120343839542,0.004583333333333337,2.108333333333333,267.8,True,2026-02-07 23:30:08 - Flight 21,
34.06,1.0,9.0,2026-02-07 23:30:34,37.0816,-121.59954,398.0,0.0,50.4,-12.6,,,,,0.0,11.0,-1.3,56.8,0.0,-37.0,0.0,-0.02,1.0,,46.0,21.0,0.0,30.25,712.0,,,326.0,,,,,0.0,0.0,,,,,,,,,,,,,,,,,,,0.0,20.0,0.0,0.0,30.4,0.0,,0.0,32.6,,,36.4,0.0,0.0,-0.8,1.1,0.4,,,,,21.0,21.0,21.0,21.0,21.0,22.0,21.0,21.0,,,-38.0,254.4,,32.6,-8.0,0.0,,,0.653,0.791,0.0,19.9,,,,,,2026-02-14-N890GF-SN35347-17.4.0.23677-2ND_TAXI-USER_LOG_DATA.csv,,,,,,,69.8,68.0,,,,,69.8,69.8,69.8,69.8,69.8,71.6,69.8,69.8,,,67.82,0.0,69.8,1.0,0.9742120343839542,0.004583333333333337,2.108333333333333,267.8,True,2026-02-07 23:30:08 - Flight 21,
35.06,1.0,8.0,2026-02-07 23:30:35,37.08158,-121.59956,387.0,0.0,50.4,-12.6,,,,,0.0,11.0,-1.4,56.8,0.0,-37.0,-0.0,-0.02,1.0,,42.0,21.0,0.0,30.25,712.0,,,326.0,,,,,0.0,0.0,,,,,,,,,,,,,,,,,,,0.0,20.0,0.0,0.0,30.4,0.0,,0.0,32.4,,,36.4,0.0,0.0,-0.8,1.1,0.4,,,,,21.0,21.0,21.0,21.0,21.0,22.0,21.0,21.0,,,-37.0,254.4,,32.4,-8.0,0.0,,,0.653,0.791,0.0,19.9,,,,,,2026-02-14-N890GF-SN35347-17.4.0.23677-2ND_TAXI-USER_LOG_DATA.csv,,,,,,,69.8,68.0,,,,,69.8,69.8,69.8,69.8,69.8,71.6,69.8,69.8,,,67.82,0.0,69.8,1.0,0.9742120343839542,0.004583333333333337,2.108333333333333,267.8,True,2026-02-07 23:30:08 - Flight 21,
36.06,1.0,8.0,2026-02-07 23:30:36,37.08158,-121.59956,385.0,0.0,50.4,-12.6,,,,,0.0,11.1,-1.3,56.7,0.0,-37.0,0.0,-0.02,1.0,,12.0,21.0,0.0,30.25,720.0,,,326.0,,,,,0.0,0.0,,,,,,,,,,,,,,,,,,,0.0,20.0,0.0,0.0,30.4,0.0,,0.0,32.2,,,36.4,0.0,0.0,-0.8,1.1,0.4,,,,,21.0,22.0,21.0,21.0,21.0,22.0,21.0,21.0,,,-38.0,254.4,,32.2,-8.0,0.0,,,0.653,0.791,0.0,19.9,,,,,,2026-02-14-N890GF-SN35347-17.4.0.23677-2ND_TAXI-USER_LOG_DATA.csv,,,,,,,69.8,68.0,,,,,69.8,71.6,69.8,69.8,69.8,71.6,69.8,69.8,,,67.82,0.0,69.8,1.0,0.9742120343839542,0.004583333333333337,2.108333333333333,267.8,True,2026-02-07 23:30:08 - Flight 21,
37.06,1.0,8.0,2026-02-07 23:30:37,37.08157,-121.59956,383.0,0.0,50.4,-12.6,,,,,0.0,11.0,-1.3,56.8,0.0,-37.0,-0.0,-0.02,1.0,,-34.0,21.0,0.0,30.25,720.0,,,326.0,,,,,0.0,0.0,,,,,,,,,,,,,,,,,,,0.0,20.0,0.0,0.0,30.4,0.0,,0.0,32.1,,,36.4,0.0,0.0,-0.8,1.1,0.4,,,,,21.0,21.0,21.0,21.0,21.0,22.0,21.0,21.0,,,-38.0,254.4,,32.1,-8.0,0.0,,,0.653,0.791,0.0,19.9,,,,,,2026-02-14-N890GF-SN35347-17.4.0.23677-2ND_TAXI-USER_LOG_DATA.csv,,,,,,,69.8,68.0,,,,,69.8,69.8,69.8,69.8,69.8,71.6,69.8,69.8,,,67.82,0.0,69.8,1.0,0.9742120343839542,0.004583333333333337,2.108333333333333,267.8,True,2026-02-07 23:30:08 - Flight 21,
38.06,1.0,8.0,2026-02-07 23:30:38,37.08157,-121.59956,382.0,0.0,50.4,-12.6,,,,,0.0,11.0,-1.3,56.8,0.0,-39.0,0.0,-0.02,1.0,,-61.0,21.0,0.0,30.25,718.0,,,326.0,,,,,0.0,0.0,,,,,,,,,,,,,,,,,,,0.0,20.0,0.0,0.0,30.4,0.0,,0.0,31.9,,,36.4,0.0,0.0,-0.8,1.1,0.4,,,,,21.0,22.0,21.0,21.0,21.0,22.0,21.0,21.0,,,-38.0,254.4,,31.9,-8.0,0.0,,,0.653,0.791,0.0,19.9,,,,,,2026-02-14-N890GF-SN35347-17.4.0.23677-2ND_TAXI-USER_LOG_DATA.csv,,,,,,,69.8,68.0,,,,,69.8,71.6,69.8,69.8,69.8,71.6,69.8,69.8,,,67.82,0.0,69.8,1.0,0.9742120343839542,0.004583333333333337,2.108333333333333,267.8,True,2026-02-07 23:30:08 - Flight 21,
39.06,1.0,8.0,2026-02-07 23:30:39,37.08157,-121.59956,381.0,0.0,50.4,-12.6,,,,,0.0,11.0,-1.3,56.8,0.0,-40.0,-0.0,-0.02,1.0,,-76.0,21.0,0.0,30.25,716.0,,,326.0,,,,,0.0,0.0,,,,,,,,,,,,,,,,,,,0.0,20.0,0.0,0.0,30.4,0.0,,0.0,31.8,,,36.4,0.0,0.0,-0.8,1.1,0.4,,,,,21.0,21.0,21.0,21.0,21.0,22.0,21.0,21.0,,,-37.0,254.4,,31.8,-8.0,0.0,,,0.653,0.791,0.0,19.9,,,,,,2026-02-14-N890GF-SN35347-17.4.0.23677-2ND_TAXI-USER_LOG_DATA.csv,,,,,,,69.8,68.0,,,,,69.8,69.8,69.8,69.8,69.8,71.6,69.8,69.8,,,67.82,0.0,69.8,1.0,0.9742120343839542,0.004583333333333337,2.108333333333333,267.8,True,2026-02-07 23:30:08 - Flight 21,
40.06,1.0,8.0,2026-02-07 23:30:40,37.08157,-121.59956,381.0,0.0,50.4,-12.6,,,,,0.0,11.0,-1.3,56.8,0.0,-41.0,-0.0,-0.02,1.0,,-72.0,21.0,0.0,30.25,716.0,,,326.0,,,,,0.0,0.0,,,,,,,,,,,,,,,,,,,0.0,20.0,0.0,0.0,30.4,0.0,,0.0,31.7,,,36.4,0.0,0.0,-0.8,1.1,0.4,,,,,21.0,22.0,21.0,21.0,21.0,22.0,21.0,21.0,,,-38.0,254.4,,31.7,-8.0,0.0,,,0.653,0.791,0.0,19.9,,,,,,2026-02-14-N890GF-SN35347-17.4.0.23677-2ND_TAXI-USER_LOG_DATA.csv,,,,,,,69.8,68.0,,,,,69.8,71.6,69.8,69.8,69.8,71.6,69.8,69.8,,,67.82,0.0,69.8,1.0,0.9742120343839542,0.004583333333333337,2.108333333333333,267.8,True,2026-02-07 23:30:08 - Flight 21,
41.06,1.0,8.0,2026-02-07 23:30:41,37.08157,-121.59956,380.0,0.0,50.4,-12.6,,,,,0.0,11.0,-1.3,56.7,0.0,-42.0,-0.0,-0.02,1.0,,-36.0,21.0,0.0,30.25,716.0,,,326.0,,,,,0.0,0.0,,,,,,,,,,,,,,,,,,,0.0,20.0,0.0,0.0,30.4,0.0,,0.0,31.6,,,36.4,0.0,0.0,-0.8,1.1,0.4,,,,,21.0,22.0,21.0,21.0,21.0,22.0,21.0,21.0,,,-37.0,254.3,,31.6,-8.0,0.0,,,0.653,0.791,0.0,19.9,,,,,,2026-02-14-N890GF-SN35347-17.4.0.23677-2ND_TAXI-USER_LOG_DATA.csv,,,,,,,69.8,68.0,,,,,69.8,71.6,69.8,69.8,69.8,71.6,69.8,69.8,,,67.82,0.0,69.8,1.0,0.9742120343839542,0.004583333333333337,2.108333333333333,267.8,True,2026-02-07 23:30:08 - Flight 21,
42.06,1.0,8.0,2026-02-07 23:30:42,37.08157,-121.59956,379.0,0.0,50.4,-12.6,,,,,0.0,11.0,-1.4,56.7,0.0,-42.0,-0.0,-0.02,1.0,,-19.0,21.0,0.0,30.25,714.0,,,326.0,,,,,0.0,0.0,,,,,,,,,,,,,,,,,,,0.0,20.0,0.0,0.0,30.4,0.0,,0.0,31.4,,,36.4,0.0,0.0,-0.8,1.1,0.4,,,,,21.0,22.0,21.0,21.0,21.0,22.0,21.0,21.0,,,-37.0,235.2,,31.4,-8.0,0.0,,,0.653,0.791,0.0,19.9,,,,,,2026-02-14-N890GF-SN35347-17.4.0.23677-2ND_TAXI-USER_LOG_DATA.csv,,,,,,,69.8,68.0,,,,,69.8,71.6,69.8,69.8,69.8,71.6,69.8,69.8,,,67.82,0.0,69.8,1.0,0.9742120343839542,0.004583333333333337,2.108333333333333,267.8,True,2026-02-07 23:30:08 - Flight 21,
43.06,1.0,8.0,2026-02-07 23:30:43,37.08157,-121.59956,379.0,0.0,50.4,-12.6,,,,,0.0,11.0,-1.4,56.7,0.0,-42.0,-0.0,-0.02,1.0,,-21.0,21.0,0.0,30.25,714.0,,,326.0,,,,,0.0,0.0,,,,,,,,,,,,,,,,,,,0.0,20.0,0.0,0.0,30.4,0.0,,0.0,31.3,,,36.4,0.0,0.0,-0.8,1.1,0.4,,,,,21.0,22.0,21.0,21.0,21.0,22.0,21.0,21.0,,,-37.0,183.0,,31.3,-8.0,0.0,,,0.653,0.791,0.0,19.9,,,,,,2026-02-14-N890GF-SN35347-17.4.0.23677-2ND_TAXI-USER_LOG_DATA.csv,,,,,,,69.8,68.0,,,,,69.8,71.6,69.8,69.8,69.8,71.6,69.8,69.8,,,67.82,0.0,69.8,1.0,0.9742120343839542,0.004583333333333337,2.108333333333333,267.8,True,2026-02-07 23:30:08 - Flight 21,
44.06,1.0,8.0,2026-02-07 23:30:44,37.08157,-121.59956,380.0,0.0,50.4,-12.6,,,,,0.0,11.0,-1.4,56.7,0.0,-43.0,-0.0,-0.02,1.0,,-33.0,21.0,0.0,30.25,714.0,,,326.0,,,,,0.0,0.0,,,,,,,,,,,,,,,,,,,0.0,20.0,0.0,0.0,30.4,0.0,,0.0,31.2,,,36.4,0.0,0.0,-0.8,1.1,0.4,,,,,21.0,22.0,21.0,21.0,21.0,22.0,21.0,21.0,,,-37.0,142.5,,31.2,-8.0,0.0,,,0.653,0.791,0.0,19.9,,,,,,2026-02-14-N890GF-SN35347-17.4.0.23677-2ND_TAXI-USER_LOG_DATA.csv,,,,,,,69.8,68.0,,,,,69.8,71.6,69.8,69.8,69.8,71.6,69.8,69.8,,,67.82,0.0,69.8,1.0,0.9742120343839542,0.004583333333333337,2.108333333333333,267.8,True,2026-02-07 23:30:08 - Flight 21,
45.06,1.0,8.0,2026-02-07 23:30:45,37.08157,-121.59956,380.0,0.0,50.4,-12.6,,,,,0.0,11.0,-1.3,56.8,0.0,-45.0,0.0,-0.02,1.0,,-77.0,21.0,0.0,30.25,711.0,,,326.0,,,,,0.0,0.0,,,,,,,,,,,,,,,,,,,0.0,20.0,0.0,0.0,30.4,0.0,,0.0,31.0,,,36.4,0.0,0.0,-0.8,1.1,0.4,,,,,21.0,22.0,21.0,21.0,21.0,22.0,21.0,21.0,,,-37.0,111.0,,31.0,-8.0,0.0,,,0.653,0.791,0.0,19.9,,,,,,2026-02-14-N890GF-SN35347-17.4.0.23677-2ND_TAXI-USER_LOG_DATA.csv,,,,,,,69.8,68.0,,,,,69.8,71.6,69.8,69.8,69.8,71.6,69.8,69.8,,,67.82,0.0,69.8,1.0,0.9742120343839542,0.004583333333333337,2.108333333333333,267.8,True,2026-02-07 23:30:08 - Flight 21,
46.06,1.0,8.0,2026-02-07 23:30:46,37.08157,-121.59956,380.0,0.1,50.4,-12.6,,,,,0.0,11.0,-1.3,56.8,0.0,-46.0,-0.0,-0.02,1.0,,-77.0,21.0,0.0,30.25,711.0,,,326.0,,,,,0.0,0.0,,,,,,,,,,,,,,,,,,,0.0,20.0,0.0,0.0,30.4,0.0,,0.0,31.0,,,36.4,0.0,0.0,-0.8,1.1,0.4,,,,,21.0,22.0,21.0,21.0,21.0,22.0,21.0,21.0,,,-37.0,86.5,,31.0,-8.0,0.0,,,0.653,0.791,0.0,19.9,,,,,,2026-02-14-N890GF-SN35347-17.4.0.23677-2ND_TAXI-USER_LOG_DATA.csv,,,,,,,69.8,68.0,,,,,69.8,71.6,69.8,69.8,69.8,71.6,69.8,69.8,,,67.82,0.0,69.8,1.0,0.9742120343839542,0.004583333333333337,2.1926666666666663,267.8,True,2026-02-07 23:30:08 - Flight 21,
47.06,1.0,8.0,2026-02-07 23:30:47,37.08158,-121.59956,380.0,0.0,50.4,-12.6,,,,,0.0,11.0,-1.3,56.8,0.0,-49.0,-0.0,-0.02,1.0,,-102.0,21.0,0.0,30.25,711.0,,,326.0,,,,,0.0,0.0,,,,,,,,,,,,,,,,,,,0.0,20.0,0.0,0.0,30.4,0.0,,0.0,30.8,,,36.4,0.0,0.0,-0.8,1.1,0.4,,,,,21.0,22.0,21.0,21.0,21.0,22.0,21.0,21.0,,,-37.0,67.4,,30.8,-8.0,0.0,,,0.653,0.791,0.0,19.9,,,,,,2026-02-14-N890GF-SN35347-17.4.0.23677-2ND_TAXI-USER_LOG_DATA.csv,,,,,,,69.8,68.0,,,,,69.8,71.6,69.8,69.8,69.8,71.6,69.8,69.8,,,67.82,0.0,69.8,1.0,0.9742120343839542,0.004583333333333337,2.2769999999999997,267.8,True,2026-02-07 23:30:08 - Flight 21,
48.06,1.0,8.0,2026-02-07 23:30:48,37.08157,-121.59956,380.0,0.0,50.4,-12.6,,,,,0.0,11.0,-1.3,56.7,0.0,-50.0,-0.0,-0.02,1.0,,-89.0,21.0,0.0,30.25,705.0,,,326.0,,,,,0.0,0.0,,,,,,,,,,,,,,,,,,,0.0,17.0,138.0,138.0,30.2,0.0,,0.0,31.0,,,36.4,0.0,0.0,-0.8,1.1,0.4,,,,,18.0,18.0,18.0,18.0,19.0,18.0,18.0,18.0,,,-24.0,52.6,,31.0,-8.0,0.0,,,0.653,0.792,0.0,17.2,,,,,,2026-02-14-N890GF-SN35347-17.4.0.23677-2ND_TAXI-USER_LOG_DATA.csv,,,,,,,69.8,62.6,,,,,64.4,64.4,64.4,64.4,66.2,64.4,64.4,64.4,,,62.959999999999994,138.0,64.85000000000001,0.9290830945558741,0.8968481375358167,0.004583333333333337,2.2769999999999997,267.8,True,2026-02-07 23:30:08 - Flight 21,
49.06,1.0,8.0,2026-02-07 23:30:49,37.08157,-121.59956,380.0,0.0,50.4,-12.6,,,,,0.0,11.0,-1.4,56.6,0.0,-52.0,-0.0,-0.02,1.1,,-88.0,21.0,0.0,30.25,705.0,,,326.0,,,,,0.0,0.0,,,,,,,,,,,,,,,,,,,0.0,18.0,372.0,372.0,29.5,0.0,,0.0,30.9,,,36.4,0.0,0.0,-0.6,1.1,0.4,,,,,19.0,22.0,19.0,19.0,20.0,22.0,20.0,20.0,,,-25.0,41.1,,30.9,-8.0,0.0,,,0.653,0.792,0.0,18.2,,,,,,2026-02-14-N890GF-SN35347-17.4.0.23677-2ND_TAXI-USER_LOG_DATA.csv,,,,,,,69.8,64.4,,,,,66.2,71.6,66.2,66.2,68.0,71.6,68.0,68.0,,,64.75999999999999,372.0,67.1,0.9613180515759312,0.9226361031518626,0.004583333333333337,2.2769999999999997,267.8,True,2026-02-07 23:30:08 - Flight 21,
50.06,1.0,8.0,2026-02-07 23:30:50,37.08157,-121.59956,380.0,0.0,50.4,-12.6,,,,,0.0,11.0,-1.3,56.7,0.0,-54.0,-0.0,-0.03,1.0,,-89.0,21.0,0.0,30.25,705.0,,,326.0,,,,,0.0,0.0,,,,,,,,,,,,,,,,,,,2.0,20.0,520.0,520.0,26.7,1.3,,1.3,25.4,,,36.4,0.0,0.0,-0.7,1.1,0.4,,,,,21.0,44.0,21.0,37.0,21.0,50.0,21.0,63.0,,,-25.0,32.2,,25.4,-8.0,0.0,,,0.654,0.792,2.2,19.9,,,3.0,L,,2026-02-14-N890GF-SN35347-17.4.0.23677-2ND_TAXI-USER_LOG_DATA.csv,,,,,,,69.8,68.0,,,,,69.8,111.2,69.8,98.6,69.8,122.0,69.8,145.4,,,67.82,520.0,69.8,1.0,0.9742120343839542,0.004763888888888892,2.2769999999999997,267.8,True,2026-02-07 23:30:08 - Flight 21,0.43333333333333335
51.06,1.0,8.0,2026-02-07 23:30:51,37.08157,-121.59956,379.0,0.0,50.4,-12.6,,,,,0.0,11.0,-1.3,56.7,0.0,-55.0,0.0,-0.02,1.0,,-84.0,21.0,0.0,30.25,699.0,,,326.0,,,,,0.0,0.0,,,,,,,,,,,,,,,,,,,5.0,20.0,650.0,650.0,24.6,1.9,,1.9,24.9,,,36.4,0.0,0.0,-0.7,1.1,0.4,,,,,21.0,74.0,21.0,55.0,21.0,88.0,21.0,102.0,,,-25.0,25.2,,24.9,-8.0,0.004,,,0.653,0.79,5.0,19.9,,,9.0,L,,2026-02-14-N890GF-SN35347-17.4.0.23677-2ND_TAXI-USER_LOG_DATA.csv,,,,,,,69.8,68.0,,,,,69.8,165.2,69.8,131.0,69.8,190.4,69.8,215.6,,,67.82,650.0,69.8,1.0,0.9742120343839542,0.0052083333333333365,2.2769999999999997,267.8,True,2026-02-07 23:30:08 - Flight 21,0.2111111111111111
52.06,1.0,8.0,2026-02-07 23:30:52,37.08157,-121.59956,379.0,0.1,50.4,-12.6,,,,,0.0,11.1,-1.3,56.8,0.0,-57.0,0.0,-0.03,1.0,,-84.0,21.0,0.0,30.25,699.0,,,326.0,,,,,0.0,0.0,,,,,,,,,,,,,,,,,,,9.0,20.0,761.0,761.0,23.1,2.4,,2.4,25.3,,,36.4,0.0,0.0,-0.8,1.1,0.4,,,,,21.0,96.0,21.0,75.0,21.0,127.0,22.0,142.0,,,-25.0,19.8,,25.3,-8.0,0.002,,,0.653,0.79,8.8,19.9,,,13.0,R,,2026-02-14-N890GF-SN35347-17.4.0.23677-2ND_TAXI-USER_LOG_DATA.csv,,,,,,,69.8,68.0,,,,,69.8,204.8,69.8,167.0,69.8,260.6,71.6,287.6,,,67.82,761.0,70.25,1.0064469914040115,0.9742120343839542,0.005805555555555559,2.361333333333333,267.8,True,2026-02-07 23:30:08 - Flight 21,0.1846153846153846
53.06,1.0,8.0,2026-02-07 23:30:53,37.08157,-121.59956,379.0,0.0,50.4,-12.6,,,,,0.0,11.0,-1.2,56.8,0.0,-57.0,0.0,-0.03,1.0,,-33.0,21.0,0.0,30.25,699.0,,,326.0,,,,,0.0,0.0,,,,,,,,,,,,,,,,,,,14.0,20.0,794.0,794.0,22.3,2.7,,2.7,25.5,,,36.4,0.0,0.0,-0.8,1.1,0.4,,,,,22.0,116.0,21.0,90.0,22.0,162.0,22.0,177.0,,,-25.0,15.6,,25.5,-8.0,0.002,,,0.654,0.79,14.0,19.9,,,13.0,R,,2026-02-14-N890GF-SN35347-17.4.0.23677-2ND_TAXI-USER_LOG_DATA.csv,,,,,,,69.8,68.0,,,,,71.6,240.8,69.8,194.0,71.6,323.6,71.6,350.6,,,67.82,794.0,71.15,1.0193409742120345,0.9742120343839542,0.006513888888888892,2.4456666666666664,267.8,True,2026-02-07 23:30:08 - Flight 21,0.2076923076923077
54.06,1.0,8.0,2026-02-07 23:30:54,37.08157,-121.59956,379.0,0.1,50.4,-12.6,,,,,0.0,11.0,-1.3,56.8,0.0,-57.0,-0.0,-0.03,1.0,,4.0,21.0,0.0,30.25,697.0,,,326.0,,,,,0.0,0.0,,,,,,,,,,,,,,,,,,,21.0,20.0,770.0,770.0,21.5,3.1,,3.1,25.7,,,36.4,0.0,0.0,-0.8,1.1,0.4,,,,,22.0,129.0,21.0,102.0,22.0,194.0,22.0,210.0,,,-25.0,12.4,,25.7,-8.0,0.002,,,0.656,0.79,21.0,19.9,,,,,,2026-02-14-N890GF-SN35347-17.4.0.23677-2ND_TAXI-USER_LOG_DATA.csv,,,,,,,69.8,68.0,,,,,71.6,264.2,69.8,215.6,71.6,381.2,71.6,410.0,,,67.82,770.0,71.15,1.0193409742120345,0.9742120343839542,0.007319444444444448,2.53,267.8,True,2026-02-07 23:30:08 - Flight 21,
55.06,1.0,8.0,2026-02-07 23:30:55,37.08157,-121.59956,378.0,0.0,50.4,-12.6,,,,,0.0,11.0,-1.2,56.8,0.0,-57.0,-0.0,-0.02,1.0,,12.0,21.0,0.0,30.25,698.0,,,326.0,,,,,0.0,0.0,,,,,,,,,,,,,,,,,,,30.0,20.0,774.0,774.0,21.4,3.3,,3.3,25.7,,,36.4,0.0,0.0,-0.8,1.1,0.4,,,,,22.0,146.0,22.0,117.0,22.0,221.0,23.0,240.0,,,-25.0,9.8,,25.7,-8.0,0.001,,,0.654,0.79,30.0,19.9,,,,,,2026-02-14-N890GF-SN35347-17.4.0.23677-2ND_TAXI-USER_LOG_DATA.csv,,,,,,,69.8,68.0,,,,,71.6,294.8,71.6,242.6,71.6,429.8,73.4,464.0,,,67.82,774.0,72.05,1.0322349570200573,0.9742120343839542,0.008208333333333337,2.614333333333333,267.8,True,2026-02-07 23:30:08 - Flight 21,
56.06,1.0,8.0,2026-02-07 23:30:56,37.08157,-121.59956,378.0,0.1,50.4,-12.6,,,,,0.0,11.0,-1.2,56.9,0.0,-57.0,-0.0,-0.02,0.9,,37.0,21.0,0.0,30.25,698.0,,,326.0,,,,,0.0,0.0,,,,,,,,,,,,,,,,,,,41.0,20.0,790.0,790.0,21.3,3.5,,3.5,25.7,,,36.4,0.0,0.0,-0.8,1.1,0.4,,,,,22.0,162.0,22.0,130.0,23.0,246.0,23.0,269.0,,,-25.0,7.8,,25.7,-8.0,0.002,,,0.657,0.79,40.8,19.9,,,,,,2026-02-14-N890GF-SN35347-17.4.0.23677-2ND_TAXI-USER_LOG_DATA.csv,,,,,,,69.8,68.0,,,,,71.6,323.6,71.6,266.0,73.4,474.8,73.4,516.2,,,67.82,790.0,72.5,1.0386819484240688,0.9742120343839542,0.00915277777777778,2.6986666666666665,267.8,True,2026-02-07 23:30:08 - Flight 21,
57.06,1.0,8.0,2026-02-07 23:30:57,37.08157,-121.59956,378.0,0.0,50.4,-12.6,,,,,0.0,11.0,-1.2,56.9,0.0,-57.0,-0.0,-0.02,1.0,,38.0,22.0,0.0,30.25,698.0,,,326.0,,,,,0.0,0.0,,,,,,,,,,,,,,,,,,,52.0,20.0,844.0,844.0,21.0,3.6,,3.6,25.8,,,36.4,0.0,0.0,-0.8,1.1,0.4,,,,,22.0,170.0,22.0,141.0,23.0,270.0,24.0,294.0,,,-25.0,6.3,,25.8,-8.0,0.002,,,0.658,0.79,51.5,19.9,,,,,,2026-02-14-N890GF-SN35347-17.4.0.23677-2ND_TAXI-USER_LOG_DATA.csv,,,,,,,71.6,68.0,,,,,71.6,338.0,71.6,285.8,73.4,518.0,75.2,561.2,,,67.82,844.0,72.95,1.0188547486033521,0.9497206703910616,0.010138888888888892,2.783,267.8,True,2026-02-07 23:30:08 - Flight 21,
58.06,1.0,8.0,2026-02-07 23:30:58,37.08157,-121.59956,377.0,0.0,50.4,-12.6,,,,,0.0,11.0,-1.3,56.8,0.0,-57.0,-0.0,-0.03,1.0,,21.0,22.0,0.0,30.25,707.0,,,326.0,,,,,0.0,0.0,,,,,,,,,,,,,,,,,,,60.0,20.0,843.0,843.0,20.7,3.7,,3.7,25.8,,,36.4,0.0,0.0,-0.8,1.1,0.4,,,,,23.0,184.0,22.0,152.0,24.0,294.0,24.0,317.0,,,-25.0,5.1,,25.8,-8.0,0.001,,,0.659,0.791,60.1,19.9,,,,,,2026-02-14-N890GF-SN35347-17.4.0.23677-2ND_TAXI-USER_LOG_DATA.csv,,,,,,,71.6,68.0,,,,,73.4,363.2,71.6,305.6,75.2,561.2,75.2,602.6,,,67.82,843.0,73.85,1.0314245810055866,0.9497206703910616,0.01115277777777778,2.783,267.8,True,2026-02-07 23:30:08 - Flight 21,
59.06,1.0,8.0,2026-02-07 23:30:59,37.08157,-121.59956,377.0,0.0,50.4,-12.6,,,,,0.0,11.0,-1.2,56.9,0.0,-57.0,-0.0,-0.03,1.0,,17.0,22.0,0.0,30.25,707.0,,,326.0,,,,,0.0,0.0,,,,,,,,,,,,,,,,,,,65.0,20.0,853.0,853.0,20.7,3.7,,3.7,25.7,,,36.4,0.0,0.0,-0.8,1.1,0.4,,,,,23.0,196.0,23.0,168.0,24.0,315.0,24.0,337.0,,,-25.0,4.2,,25.7,-8.0,0.0,,,0.66,0.791,64.8,19.9,,,,,,2026-02-14-N890GF-SN35347-17.4.0.23677-2ND_TAXI-USER_LOG_DATA.csv,,,,,,,71.6,68.0,,,,,73.4,384.8,73.4,334.4,75.2,599.0,75.2,638.6,,,67.82,853.0,74.30000000000001,1.0377094972067042,0.9497206703910616,0.012180555555555559,2.783,267.8,True,2026-02-07 23:30:08 - Flight 21,
60.06,1.0,8.0,2026-02-07 23:31:00,37.08157,-121.59956,376.0,0.0,50.4,-12.6,,,,,0.0,11.0,-1.2,56.9,0.0,-57.0,-0.0,-0.02,1.0,,-40.0,22.0,0.0,30.25,707.0,,,326.0,,,,,0.0,0.0,,,,,,,,,,,,,,,,,,,68.0,20.0,840.0,840.0,20.4,3.8,,3.8,25.8,,,36.4,0.0,0.0,-0.8,1.1,0.4,,,,,23.0,206.0,23.0,184.0,24.0,333.0,25.0,357.0,,,-25.0,3.5,,25.8,-8.0,0.001,,,0.659,0.79,67.5,19.8,,,,,,2026-02-14-N890GF-SN35347-17.4.0.23677-2ND_TAXI-USER_LOG_DATA.csv,,,,,,,71.6,68.0,,,,,73.4,402.8,73.4,363.2,75.2,631.4,77.0,674.6,,,67.64,840.0,74.75,1.0439944134078214,0.9497206703910616,0.013222222222222225,2.783,267.8,True,2026-02-07 23:30:08 - Flight 21,
61.06,1.0,8.0,2026-02-07 23:31:01,37.08157,-121.59956,376.0,0.0,50.4,-12.6,,,,,0.0,11.0,-1.1,56.9,0.0,-57.0,0.0,-0.02,1.0,,-38.0,22.0,0.0,30.25,707.0,,,326.0,,,,,0.0,0.0,,,,,,,,,,,,,,,,,,,69.0,20.0,882.0,882.0,20.1,3.8,,3.8,25.9,,,36.4,0.0,0.0,-0.8,1.1,0.4,,,,,23.0,219.0,23.0,198.0,25.0,351.0,25.0,373.0,,,-25.0,2.9,,25.9,-8.0,0.001,,,0.659,0.79,69.0,19.8,,,,,,2026-02-14-N890GF-SN35347-17.4.0.23677-2ND_TAXI-USER_LOG_DATA.csv,,,,,,,71.6,68.0,,,,,73.4,426.2,73.4,388.4,77.0,663.8,77.0,703.4,,,67.64,882.0,75.2,1.0502793296089388,0.9497206703910616,0.014277777777777782,2.783,267.8,True,2026-02-07 23:30:08 - Flight 21,
62.06,1.0,8.0,2026-02-07 23:31:02,37.08157,-121.59956,376.0,0.0,50.4,-12.6,,,,,0.0,11.0,-1.1,56.9,0.0,-57.0,0.0,-0.02,1.0,,-38.0,22.0,0.0,30.25,707.0,,,326.0,,,,,0.0,0.0,,,,,,,,,,,,,,,,,,,70.0,20.0,887.0,887.0,19.8,3.8,,3.8,25.9,,,36.4,0.0,0.0,-0.8,1.1,0.4,,,,,23.0,233.0,23.0,210.0,25.0,366.0,26.0,389.0,,,-25.0,2.5,,25.9,-8.0,0.001,,,0.658,0.79,69.9,19.8,,,,,,2026-02-14-N890GF-SN35347-17.4.0.23677-2ND_TAXI-USER_LOG_DATA.csv,,,,,,,71.6,68.0,,,,,73.4,451.4,73.4,410.0,77.0,690.8,78.8,732.2,,,67.64,887.0,75.65,1.056564245810056,0.9497206703910616,0.015333333333333336,2.783,267.8,True,2026-02-07 23:30:08 - Flight 21,
63.06,1.0,8.0,2026-02-07 23:31:03,37.08157,-121.59956,376.0,0.0,50.4,-12.6,,,,,0.0,11.0,-1.1,56.9,0.0,-57.0,-0.0,-0.02,1.0,,-11.0,22.0,0.0,30.25,707.0,,,326.0,,,,,0.0,0.0,,,,,,,,,,,,,,,,,,,71.0,20.0,905.0,905.0,19.2,3.6,,3.6,26.0,,,36.4,0.0,0.0,-0.8,1.1,0.4,,,,,24.0,242.0,24.0,222.0,25.0,381.0,26.0,402.0,,,-25.0,2.2,,26.0,-8.0,0.001,,,0.656,0.79,70.9,19.8,,,,,,2026-02-14-N890GF-SN35347-17.4.0.23677-2ND_TAXI-USER_LOG_DATA.csv,,,,,,,71.6,68.0,,,,,75.2,467.6,75.2,431.6,77.0,717.8,78.8,755.6,,,67.64,905.0,76.55,1.0691340782122905,0.9497206703910616,0.016361111111111114,2.783,267.8,True,2026-02-07 23:30:08 - Flight 21,
64.06,1.0,8.0,2026-02-07 23:31:04,37.08157,-121.59956,376.0,0.0,50.4,-12.6,,,,,0.0,11.0,-1.2,56.8,0.0,-57.0,-0.1,-0.02,1.0,,16.0,22.0,0.0,30.25,707.0,,,326.0,,,,,0.0,0.0,,,,,,,,,,,,,,,,,,,72.0,20.0,922.0,922.0,18.9,3.5,,3.5,26.0,,,36.4,0.0,0.0,-0.8,1.1,0.4,,,,,24.0,251.0,24.0,232.0,26.0,396.0,27.0,414.0,,,-25.0,1.9,,26.0,-8.0,0.001,,,0.654,0.79,71.6,19.8,,,,,,2026-02-14-N890GF-SN35347-17.4.0.23677-2ND_TAXI-USER_LOG_DATA.csv,,,,,,,71.6,68.0,,,,,75.2,483.8,75.2,449.6,78.8,744.8,80.6,777.2,,,67.64,922.0,77.44999999999999,1.081703910614525,0.9497206703910616,0.017347222222222226,2.783,267.8,True,2026-02-07 23:30:08 - Flight 21,
65.06,1.0,8.0,2026-02-07 23:31:05,37.08157,-121.59956,376.0,0.1,50.4,-12.6,,,,,0.0,11.0,-1.1,56.8,0.0,-57.0,-0.0,-0.02,0.9,,49.0,22.0,0.0,30.25,707.0,,,326.0,,,,,0.0,0.0,,,,,,,,,,,,,,,,,,,72.0,20.0,972.0,972.0,18.4,3.4,,3.4,26.1,,,36.4,0.0,0.0,-0.8,1.1,0.4,,,,,24.0,258.0,24.0,245.0,26.0,410.0,27.0,426.0,,,-25.0,1.7,,26.1,-8.0,0.001,,,0.654,0.79,72.3,19.8,,,,,,2026-02-14-N890GF-SN35347-17.4.0.23677-2ND_TAXI-USER_LOG_DATA.csv,,,,,,,71.6,68.0,,,,,75.2,496.4,75.2,473.0,78.8,770.0,80.6,798.8,,,67.64,972.0,77.44999999999999,1.081703910614525,0.9497206703910616,0.018305555555555558,2.867333333333333,267.8,True,2026-02-07 23:30:08 - Flight 21,
66.06,1.0,8.0,2026-02-07 23:31:06,37.08158,-121.59956,376.0,0.0,50.4,-12.6,,,,,0.0,11.0,-1.2,56.8,0.0,-57.0,-0.0,-0.02,1.0,,55.0,22.0,0.0,30.25,707.0,,,326.0,,,,,0.0,0.0,,,,,,,,,,,,,,,,,,,71.0,20.0,854.0,854.0,17.6,3.2,,3.2,26.0,,,36.4,0.0,0.0,-0.8,1.1,0.4,,,,,24.0,266.0,25.0,254.0,27.0,421.0,28.0,436.0,,,-25.0,1.5,,26.0,-8.0,0.001,,,0.654,0.79,71.3,19.8,,,,,,2026-02-14-N890GF-SN35347-17.4.0.23677-2ND_TAXI-USER_LOG_DATA.csv,,,,,,,71.6,68.0,,,,,75.2,510.8,77.0,489.2,80.6,789.8,82.4,816.8,,,67.64,854.0,78.8,1.100558659217877,0.9497206703910616,0.019222222222222224,2.951666666666666,267.8,True,2026-02-07 23:30:08 - Flight 21,
67.06,1.0,8.0,2026-02-07 23:31:07,37.08158,-121.59956,376.0,0.0,50.4,-12.6,,,,,0.0,11.0,-1.1,56.8,0.0,-57.0,-0.0,-0.02,1.0,,80.0,22.0,0.0,30.25,707.0,,,326.0,,,,,0.0,0.0,,,,,,,,,,,,,,,,,,,71.0,20.0,878.0,878.0,17.4,3.1,,3.1,26.1,,,36.4,0.0,0.0,-0.8,1.1,0.4,,,,,25.0,281.0,25.0,266.0,27.0,429.0,28.0,447.0,,,-25.0,1.4,,26.1,-8.0,0.001,,,0.657,0.79,70.6,19.8,,,,,,2026-02-14-N890GF-SN35347-17.4.0.23677-2ND_TAXI-USER_LOG_DATA.csv,,,,,,,71.6,68.0,,,,,77.0,537.8,77.0,510.8,80.6,804.2,82.4,836.6,,,67.64,878.0,79.25,1.1068435754189945,0.9497206703910616,0.020097222222222225,2.951666666666666,267.8,True,2026-02-07 23:30:08 - Flight 21,
68.06,1.0,9.0,2026-02-07 23:31:08,37.08145,-121.59962,315.0,0.0,50.4,-12.6,,,,,0.0,11.0,-1.2,56.8,0.0,-57.0,-0.0,-0.02,1.0,,58.0,22.0,0.0,30.25,707.0,,,326.0,,,,,0.0,0.0,,,,,,,,,,,,,,,,,,,70.0,20.0,886.0,886.0,17.1,3.0,,3.0,26.1,,,36.4,0.0,0.0,-0.8,1.1,0.4,,,,,25.0,285.0,25.0,279.0,27.0,437.0,29.0,455.0,,,-25.0,1.3,,26.1,-8.0,0.001,,,0.657,0.79,70.5,19.8,,,,,,2026-02-14-N890GF-SN35347-17.4.0.23677-2ND_TAXI-USER_LOG_DATA.csv,,,,,,,71.6,68.0,,,,,77.0,545.0,77.0,534.2,80.6,818.6,84.2,851.0,,,67.64,886.0,79.7,1.1131284916201118,0.9497206703910616,0.020944444444444446,2.951666666666666,267.8,True,2026-02-07 23:30:08 - Flight 21,
69.06,1.0,9.0,2026-02-07 23:31:09,37.08146,-121.59961,317.0,0.0,50.4,-12.6,,,,,0.0,11.0,-1.3,56.8,0.0,-57.0,-0.0,-0.03,1.0,,65.0,22.0,0.0,30.25,707.0,,,326.0,,,,,0.0,0.0,,,,,,,,,,,,,,,,,,,70.0,20.0,884.0,884.0,17.0,2.9,,2.9,26.1,,,36.4,0.0,0.0,-0.8,1.1,0.4,,,,,25.0,295.0,26.0,297.0,28.0,445.0,29.0,462.0,,,-25.0,1.3,,26.1,-8.0,0.001,,,0.656,0.791,70.3,19.8,,,,,,2026-02-14-N890GF-SN35347-17.4.0.23677-2ND_TAXI-USER_LOG_DATA.csv,,,,,,,71.6,68.0,,,,,77.0,563.0,78.8,566.6,82.4,833.0,84.2,863.6,,,67.64,884.0,80.60000000000001,1.1256983240223466,0.9497206703910616,0.02176388888888889,2.951666666666666,267.8,True,2026-02-07 23:30:08 - Flight 21,
70.06,1.0,9.0,2026-02-07 23:31:10,37.08146,-121.59961,319.0,0.1,50.4,-12.6,,,,,0.0,11.0,-1.2,56.8,0.0,-57.0,-0.0,-0.02,1.0,,57.0,22.0,0.0,30.25,708.0,,,326.0,,,,,0.0,0.0,,,,,,,,,,,,,,,,,,,70.0,20.0,885.0,885.0,16.9,2.8,,2.8,26.1,,,36.4,0.0,0.0,-0.8,1.1,0.4,,,,,26.0,300.0,26.0,317.0,28.0,452.0,30.0,469.0,,,-25.0,1.2,,26.1,-8.0,0.001,,,0.656,0.79,70.4,19.8,,,,,,2026-02-14-N890GF-SN35347-17.4.0.23677-2ND_TAXI-USER_LOG_DATA.csv,,,,,,,71.6,68.0,,,,,78.8,572.0,78.8,602.6,82.4,845.6,86.0,876.2,,,67.64,885.0,81.5,1.1382681564245811,0.9497206703910616,0.022555555555555558,3.0359999999999996,267.8,True,2026-02-07 23:30:08 - Flight 21,
71.06,1.0,9.0,2026-02-07 23:31:11,37.08146,-121.59961,321.0,0.0,50.4,-12.6,,,,,0.0,11.0,-1.3,56.8,0.0,-57.0,0.0,-0.02,1.0,,45.0,22.0,0.0,30.25,708.0,,,326.0,,,,,0.0,0.0,,,,,,,,,,,,,,,,,,,70.0,20.0,895.0,895.0,16.8,2.7,,2.7,26.1,,,36.4,0.0,0.0,-0.8,1.1,0.4,,,,,26.0,310.0,27.0,336.0,29.0,458.0,31.0,475.0,,,-25.0,1.1,,26.1,-8.0,0.001,,,0.656,0.791,70.5,19.8,,,,,,2026-02-14-N890GF-SN35347-17.4.0.23677-2ND_TAXI-USER_LOG_DATA.csv,,,,,,,71.6,68.0,,,,,78.8,590.0,80.6,636.8,84.2,856.4,87.8,887.0,,,67.64,895.0,82.85,1.157122905027933,0.9497206703910616,0.023319444444444448,3.120333333333333,267.8,True,2026-02-07 23:30:08 - Flight 21,
72.06,1.0,9.0,2026-02-07 23:31:12,37.08146,-121.59961,320.0,0.1,50.4,-12.6,,,,,0.0,11.0,-1.2,56.8,0.0,-57.0,-0.0,-0.02,1.0,,41.0,22.0,0.0,30.25,708.0,,,326.0,,,,,0.0,0.0,,,,,,,,,,,,,,,,,,,71.0,20.0,903.0,903.0,16.6,2.7,,2.7,26.1,,,36.4,0.0,0.0,-0.8,1.1,0.4,,,,,26.0,318.0,27.0,351.0,29.0,465.0,31.0,481.0,,,-25.0,1.1,,26.1,-8.0,0.001,,,0.654,0.79,70.6,19.8,,,,,,2026-02-14-N890GF-SN35347-17.4.0.23677-2ND_TAXI-USER_LOG_DATA.csv,,,,,,,71.6,68.0,,,,,78.8,604.4,80.6,663.8,84.2,869.0,87.8,897.8,,,67.64,903.0,82.85,1.157122905027933,0.9497206703910616,0.02406944444444445,3.2046666666666663,267.8,True,2026-02-07 23:30:08 - Flight 21,
73.06,1.0,9.0,2026-02-07 23:31:13,37.08147,-121.5996,317.0,0.0,50.4,-12.6,,,,,0.0,11.0,-1.2,56.9,0.0,-56.0,0.0,-0.02,1.0,,59.0,22.0,0.0,30.25,709.0,,,326.0,,,,,0.0,0.0,,,,,,,,,,,,,,,,,,,71.0,20.0,917.0,917.0,16.4,2.6,,2.6,26.2,,,36.4,0.0,0.0,-0.8,1.1,0.4,,,,,27.0,324.0,28.0,370.0,30.0,470.0,31.0,486.0,,,-25.0,1.1,,26.2,-8.0,0.001,,,0.654,0.79,70.9,19.8,,,,,,2026-02-14-N890GF-SN35347-17.4.0.23677-2ND_TAXI-USER_LOG_DATA.csv,,,,,,,71.6,68.0,,,,,80.6,615.2,82.4,698.0,86.0,878.0,87.8,906.8,,,67.64,917.0,84.20000000000002,1.1759776536312851,0.9497206703910616,0.02480555555555556,3.2889999999999997,267.8,True,2026-02-07 23:30:08 - Flight 21,
74.06,1.0,9.0,2026-02-07 23:31:14,37.08147,-121.5996,319.0,0.1,50.4,-12.6,,,,,0.0,11.0,-1.2,56.8,0.0,-55.0,0.0,-0.03,1.0,,55.0,22.0,0.0,30.25,709.0,,,326.0,,,,,0.0,0.0,,,,,,,,,,,,,,,,,,,71.0,20.0,918.0,918.0,16.4,2.6,,2.6,26.2,,,36.4,0.0,0.0,-0.8,1.1,0.4,,,,,27.0,333.0,28.0,387.0,30.0,474.0,32.0,490.0,,,-25.0,1.0,,26.2,-8.0,0.001,,,0.657,0.79,71.1,19.8,,,,,,2026-02-14-N890GF-SN35347-17.4.0.23677-2ND_TAXI-USER_LOG_DATA.csv,,,,,,,71.6,68.0,,,,,80.6,631.4,82.4,728.6,86.0,885.2,89.6,914.0,,,67.64,918.0,84.65,1.1822625698324023,0.9497206703910616,0.02552777777777778,3.373333333333333,267.8,True,2026-02-07 23:30:08 - Flight 21,
75.06,1.0,9.0,2026-02-07 23:31:15,37.08147,-121.59959,323.0,0.1,50.4,-12.6,,,,,0.0,11.0,-1.2,56.8,0.0,-54.0,-0.0,-0.02,1.0,,58.0,22.0,0.0,30.25,710.0,,,326.0,,,,,0.0,0.0,,,,,,,,,,,,,,,,,,,71.0,20.0,911.0,911.0,16.3,2.6,,2.6,26.2,,,36.4,0.0,0.0,-0.8,1.1,0.4,,,,,28.0,338.0,29.0,402.0,31.0,480.0,32.0,493.0,,,-25.0,1.0,,26.2,-8.0,0.001,,,0.656,0.79,71.1,19.9,,,,,,2026-02-14-N890GF-SN35347-17.4.0.23677-2ND_TAXI-USER_LOG_DATA.csv,,,,,,,71.6,68.0,,,,,82.4,640.4,84.2,755.6,87.8,896.0,89.6,919.4,,,67.82,911.0,86.0,1.2011173184357542,0.9497206703910616,0.026250000000000002,3.542,267.8,True,2026-02-07 23:30:08 - Flight 21,
76.06,1.0,9.0,2026-02-07 23:31:16,37.08147,-121.59959,325.0,0.0,50.4,-12.6,,,,,0.0,11.0,-1.2,56.8,0.0,-53.0,-0.0,-0.02,1.0,,55.0,22.0,0.0,30.25,712.0,,,326.0,,,,,0.0,0.0,,,,,,,,,,,,,,,,,,,71.0,20.0,925.0,925.0,16.1,2.6,,2.6,26.2,,,36.4,0.0,0.0,-0.8,1.1,0.4,,,,,28.0,341.0,29.0,416.0,31.0,483.0,33.0,496.0,,,-25.0,1.0,,26.2,-8.0,0.001,,,0.654,0.79,71.3,19.9,,,,,,2026-02-14-N890GF-SN35347-17.4.0.23677-2ND_TAXI-USER_LOG_DATA.csv,,,,,,,71.6,68.0,,,,,82.4,645.8,84.2,780.8,87.8,901.4,91.4,924.8,,,67.82,925.0,86.44999999999999,1.2074022346368714,0.9497206703910616,0.026972222222222227,3.626333333333333,267.8,True,2026-02-07 23:30:08 - Flight 21,
77.06,1.0,9.0,2026-02-07 23:31:17,37.08148,-121.59959,327.0,0.0,50.4,-12.6,,,,,0.0,11.0,-1.2,56.9,0.0,-52.0,0.0,-0.02,1.0,,68.0,22.0,0.0,30.25,714.0,,,326.0,,,,,0.0,0.0,,,,,,,,,,,,,,,,,,,71.0,20.0,919.0,919.0,16.0,2.6,,2.6,26.2,,,36.4,0.0,0.0,-0.8,1.1,0.4,,,,,29.0,346.0,30.0,429.0,31.0,488.0,33.0,497.0,,,-25.0,1.0,,26.2,-8.0,0.001,,,0.654,0.79,71.4,19.9,,,,,,2026-02-14-N890GF-SN35347-17.4.0.23677-2ND_TAXI-USER_LOG_DATA.csv,,,,,,,71.6,68.0,,,,,84.2,654.8,86.0,804.2,87.8,910.4,91.4,926.6,,,67.82,919.0,87.35,1.219972067039106,0.9497206703910616,0.02769444444444445,3.626333333333333,267.8,True,2026-02-07 23:30:08 - Flight 21,
78.06,1.0,9.0,2026-02-07 23:31:18,37.08148,-121.59959,328.0,0.1,50.4,-12.6,,,,,0.0,11.0,-1.2,56.9,0.0,-52.0,-0.0,-0.02,1.0,,58.0,22.0,0.0,30.25,714.0,,,326.0,,,,,0.0,0.0,,,,,,,,,,,,,,,,,,,71.0,20.0,923.0,923.0,15.9,2.6,,2.6,26.2,,,36.4,0.0,0.0,-0.8,1.1,0.4,,,,,29.0,360.0,30.0,439.0,32.0,490.0,34.0,500.0,,,-25.0,1.0,,26.2,-8.0,0.001,,,0.654,0.79,71.3,19.9,,,,,,2026-02-14-N890GF-SN35347-17.4.0.23677-2ND_TAXI-USER_LOG_DATA.csv,,,,,,,71.6,68.0,,,,,84.2,680.0,86.0,822.2,89.6,914.0,93.2,932.0,,,67.82,923.0,88.25,1.2325418994413408,0.9497206703910616,0.02841666666666667,3.7106666666666666,267.8,True,2026-02-07 23:30:08 - Flight 21,
79.06,1.0,9.0,2026-02-07 23:31:19,37.08149,-121.59959,330.0,0.0,50.4,-12.6,,,,,0.0,11.0,-1.2,56.9,0.0,-51.0,-0.0,-0.02,1.0,,16.0,22.0,0.0,30.25,715.0,,,326.0,,,,,0.0,0.0,,,,,,,,,,,,,,,,,,,72.0,20.0,953.0,953.0,15.7,2.6,,2.6,26.3,,,36.4,0.0,0.0,-0.8,1.1,0.4,,,,,30.0,361.0,31.0,449.0,32.0,492.0,35.0,502.0,,,-25.0,1.0,,26.3,-8.0,0.001,,,0.654,0.79,72.0,19.9,,,,,,2026-02-14-N890GF-SN35347-17.4.0.23677-2ND_TAXI-USER_LOG_DATA.csv,,,,,,,71.6,68.0,,,,,86.0,681.8,87.8,840.2,89.6,917.6,95.0,935.6,,,67.82,953.0,89.6,1.2513966480446927,0.9497206703910616,0.02913888888888889,3.7949999999999995,267.8,True,2026-02-07 23:30:08 - Flight 21,
80.06,1.0,9.0,2026-02-07 23:31:20,37.08149,-121.59959,332.0,0.0,50.4,-12.6,,,,,0.0,11.0,-1.2,56.9,0.0,-51.0,-0.0,-0.02,1.0,,26.0,22.0,0.0,30.25,715.0,,,326.0,,,,,0.0,0.0,,,,,,,,,,,,,,,,,,,72.0,20.0,942.0,942.0,15.5,2.6,,2.6,26.2,,,36.4,0.0,0.0,-0.8,1.1,0.4,,,,,30.0,368.0,31.0,457.0,33.0,495.0,35.0,505.0,,,-25.0,1.0,,26.2,-8.0,0.001,,,0.654,0.79,72.1,19.9,,,,,,2026-02-14-N890GF-SN35347-17.4.0.23677-2ND_TAXI-USER_LOG_DATA.csv,,,,,,,71.6,68.0,,,,,86.0,694.4,87.8,854.6,91.4,923.0,95.0,941.0,,,67.82,942.0,90.05,1.2576815642458101,0.9497206703910616,0.029861111111111116,3.7949999999999995,267.8,True,2026-02-07 23:30:08 - Flight 21,
81.06,1.0,9.0,2026-02-07 23:31:21,37.08149,-121.59959,333.0,0.0,50.4,-12.6,,,,,0.0,11.0,-1.2,56.9,0.0,-51.0,0.0,-0.02,1.0,,-9.0,22.0,0.0,30.25,715.0,,,326.0,,,,,0.0,0.0,,,,,,,,,,,,,,,,,,,73.0,20.0,971.0,971.0,15.3,2.5,,2.5,26.4,,,36.4,0.0,0.0,-0.8,1.1,0.4,,,,,30.0,375.0,31.0,465.0,33.0,498.0,36.0,506.0,,,-25.0,1.0,,26.4,-8.0,0.001,,,0.654,0.79,72.5,19.9,,,,,,2026-02-14-N890GF-SN35347-17.4.0.23677-2ND_TAXI-USER_LOG_DATA.csv,,,,,,,71.6,68.0,,,,,86.0,707.0,87.8,869.0,91.4,928.4,96.8,942.8,,,67.82,971.0,90.5,1.2639664804469275,0.9497206703910616,0.030569444444444448,3.7949999999999995,267.8,True,2026-02-07 23:30:08 - Flight 21,
82.06,1.0,9.0,2026-02-07 23:31:22,37.08156,-121.59955,368.0,0.1,50.4,-12.6,,,,,0.0,11.0,-1.3,56.9,0.0,-51.0,-0.0,-0.02,1.0,,-25.0,22.0,0.0,30.25,725.0,,,326.0,,,,,0.0,0.0,,,,,,,,,,,,,,,,,,,73.0,20.0,1001.0,1001.0,14.8,2.5,,2.5,26.3,,,36.4,0.0,0.0,-0.8,1.1,0.4,,,,,31.0,384.0,32.0,471.0,34.0,501.0,36.0,509.0,,,-25.0,1.0,,26.3,-8.0,0.001,,,0.653,0.79,73.3,19.9,,,,,,2026-02-14-N890GF-SN35347-17.4.0.23677-2ND_TAXI-USER_LOG_DATA.csv,,,,,,,71.6,68.0,,,,,87.8,723.2,89.6,879.8,93.2,933.8,96.8,948.2,,,67.82,1001.0,91.85000000000001,1.2828212290502796,0.9497206703910616,0.03126388888888889,3.879333333333333,267.8,True,2026-02-07 23:30:08 - Flight 21,
83.06,1.0,9.0,2026-02-07 23:31:23,37.08156,-121.59955,369.0,0.0,50.4,-12.6,,,,,0.0,11.0,-1.3,56.9,0.0,-51.0,-0.0,-0.02,1.0,,-4.0,22.0,0.0,30.25,725.0,,,326.0,,,,,0.0,0.0,,,,,,,,,,,,,,,,,,,74.0,20.0,1020.0,1020.0,14.4,2.4,,2.4,26.4,,,36.4,0.0,0.0,-0.8,1.1,0.4,,,,,31.0,402.0,32.0,477.0,34.0,503.0,37.0,510.0,,,-25.0,1.0,,26.4,-8.0,0.001,,,0.654,0.791,73.9,19.9,,,,,,2026-02-14-N890GF-SN35347-17.4.0.23677-2ND_TAXI-USER_LOG_DATA.csv,,,,,,,71.6,68.0,,,,,87.8,755.6,89.6,890.6,93.2,937.4,98.6,950.0,,,67.82,1020.0,92.3,1.2891061452513968,0.9497206703910616,0.03194444444444445,3.9636666666666662,267.8,True,2026-02-07 23:30:08 - Flight 21,
84.06,1.0,9.0,2026-02-07 23:31:24,37.08157,-121.59955,369.0,0.0,50.4,-12.6,,,,,0.0,11.0,-1.3,56.9,0.0,-51.0,-0.0,-0.02,1.0,,-15.0,22.0,0.0,30.25,725.0,,,326.0,,,,,0.0,0.0,,,,,,,,,,,,,,,,,,,74.0,20.0,1017.0,1017.0,14.2,2.4,,2.4,26.4,,,36.4,0.0,0.0,-0.8,1.1,0.4,,,,,31.0,415.0,33.0,483.0,35.0,505.0,37.0,514.0,,,-25.0,1.0,,26.4,-8.0,0.001,,,0.653,0.791,74.4,19.9,,,,,,2026-02-14-N890GF-SN35347-17.4.0.23677-2ND_TAXI-USER_LOG_DATA.csv,,,,,,,71.6,68.0,,,,,87.8,779.0,91.4,901.4,95.0,941.0,98.6,957.2,,,67.82,1017.0,93.2,1.3016759776536315,0.9497206703910616,0.03261111111111112,3.9636666666666662,267.8,True,2026-02-07 23:30:08 - Flight 21,
85.06,1.0,9.0,2026-02-07 23:31:25,37.08157,-121.59955,370.0,0.0,50.4,-12.6,,,,,0.0,10.9,-1.2,56.9,0.0,-51.0,0.0,-0.03,1.0,,-39.0,22.0,0.0,30.25,725.0,,,326.0,,,,,0.0,0.0,,,,,,,,,,,,,,,,,,,74.0,20.0,1012.0,1012.0,14.1,2.4,,2.4,26.4,,,36.4,0.0,0.0,-0.8,1.1,0.4,,,,,32.0,426.0,34.0,488.0,35.0,508.0,38.0,516.0,,,-25.0,1.0,,26.4,-8.0,0.001,,,0.653,0.79,74.5,19.9,,,,,,2026-02-14-N890GF-SN35347-17.4.0.23677-2ND_TAXI-USER_LOG_DATA.csv,,,,,,,71.6,68.0,,,,,89.6,798.8,93.2,910.4,95.0,946.4,100.4,960.8,,,67.82,1012.0,94.55000000000001,1.3205307262569834,0.9497206703910616,0.03327777777777778,3.9636666666666662,267.8,True,2026-02-07 23:30:08 - Flight 21,
86.06,1.0,9.0,2026-02-07 23:31:26,37.08157,-121.59954,372.0,0.1,50.4,-12.6,,,,,0.0,11.0,-1.1,56.9,0.0,-51.0,0.0,-0.02,1.0,,-34.0,22.0,0.0,30.25,726.0,,,326.0,,,,,0.0,0.0,,,,,,,,,,,,,,,,,,,74.0,20.0,1010.0,1010.0,14.0,2.3,,2.3,26.4,,,36.4,0.0,0.0,-0.8,1.1,0.4,,,,,32.0,440.0,34.0,493.0,36.0,510.0,39.0,518.0,,,-25.0,1.0,,26.4,-8.0,0.001,,,0.653,0.79,74.1,20.0,,,,,,2026-02-14-N890GF-SN35347-17.4.0.23677-2ND_TAXI-USER_LOG_DATA.csv,,,,,,,71.6,68.0,,,,,89.6,824.0,93.2,919.4,96.8,950.0,102.2,964.4,,,68.0,1010.0,95.44999999999999,1.3331005586592177,0.9497206703910616,0.03393055555555556,4.048,267.8,True,2026-02-07 23:30:08 - Flight 21,
87.06,1.0,9.0,2026-02-07 23:31:27,37.08157,-121.59954,373.0,0.0,50.4,-12.6,,,,,0.0,11.0,-1.2,56.9,0.0,-51.0,-0.0,-0.02,1.0,,-41.0,22.0,0.0,30.25,726.0,,,326.0,,,,,0.0,0.0,,,,,,,,,,,,,,,,,,,74.0,20.0,1013.0,1013.0,14.0,2.3,,2.3,26.4,,,36.4,0.0,0.0,-0.8,1.1,0.4,,,,,33.0,453.0,35.0,497.0,36.0,511.0,39.0,519.0,,,-25.0,0.0,,26.4,-8.0,0.001,,,0.654,0.79,74.0,20.0,,,,,,2026-02-14-N890GF-SN35347-17.4.0.23677-2ND_TAXI-USER_LOG_DATA.csv,,,,,,,71.6,68.0,,,,,91.4,847.4,95.0,926.6,96.8,951.8,102.2,966.2,,,68.0,1013.0,96.35,1.3456703910614525,0.9497206703910616,0.03456944444444445,4.132333333333333,267.8,True,2026-02-07 23:30:08 - Flight 21,
88.06,1.0,9.0,2026-02-07 23:31:28,37.08157,-121.59954,374.0,0.0,50.4,-12.6,,,,,0.0,10.9,-1.2,57.0,0.0,-51.0,0.0,-0.02,1.0,,-42.0,22.0,0.0,30.25,726.0,,,326.0,,,,,0.0,0.0,,,,,,,,,,,,,,,,,,,74.0,20.0,1026.0,1026.0,13.9,2.3,,2.3,26.4,,,36.4,0.0,0.0,-0.8,1.1,0.4,,,,,33.0,463.0,35.0,501.0,37.0,513.0,40.0,523.0,,,-25.0,0.0,,26.4,-8.0,0.001,,,0.654,0.79,74.3,20.0,,,,,,2026-02-14-N890GF-SN35347-17.4.0.23677-2ND_TAXI-USER_LOG_DATA.csv,,,,,,,71.6,68.0,,,,,91.4,865.4,95.0,933.8,98.6,955.4,104.0,973.4,,,68.0,1026.0,97.25,1.3582402234636872,0.9497206703910616,0.035208333333333335,4.132333333333333,267.8,True,2026-02-07 23:30:08 - Flight 21,
89.06,1.0,9.0,2026-02-07 23:31:29,37.08157,-121.59954,375.0,0.0,50.4,-12.6,,,,,0.0,10.9,-1.2,57.0,0.0,-51.0,0.0,-0.02,1.0,,-67.0,22.0,0.0,30.25,726.0,,,326.0,,,,,0.0,0.0,,,,,,,,,,,,,,,,,,,74.0,20.0,1029.0,1029.0,13.8,2.3,,2.3,26.4,,,36.4,0.0,0.0,-0.8,1.1,0.4,,,,,34.0,474.0,36.0,505.0,37.0,515.0,40.0,525.0,,,-25.0,0.0,,26.4,-8.0,0.001,,,0.653,0.79,74.4,20.0,,,,,,2026-02-14-N890GF-SN35347-17.4.0.23677-2ND_TAXI-USER_LOG_DATA.csv,,,,,,,71.6,68.0,,,,,93.2,885.2,96.8,941.0,98.6,959.0,104.0,977.0,,,68.0,1029.0,98.14999999999999,1.3708100558659218,0.9497206703910616,0.035847222222222225,4.132333333333333,267.8,True,2026-02-07 23:30:08 - Flight 21,
90.06,1.0,9.0,2026-02-07 23:31:30,37.08157,-121.59954,376.0,0.0,50.4,-12.6,,,,,0.0,10.9,-1.2,56.9,0.0,-51.0,-0.0,-0.02,1.0,,-45.0,22.0,0.0,30.25,726.0,,,326.0,,,,,0.0,0.0,,,,,,,,,,,,,,,,,,,75.0,20.0,1037.0,1037.0,13.6,2.3,,2.3,26.4,,,36.4,0.0,0.0,-0.8,1.1,0.4,,,,,34.0,482.0,37.0,509.0,38.0,517.0,41.0,527.0,,,-25.0,0.0,,26.4,-8.0,0.001,,,0.653,0.79,74.7,20.0,,,,,,2026-02-14-N890GF-SN35347-17.4.0.23677-2ND_TAXI-USER_LOG_DATA.csv,,,,,,,71.6,68.0,,,,,93.2,899.6,98.6,948.2,100.4,962.6,105.8,980.6,,,68.0,1037.0,99.49999999999999,1.3896648044692737,0.9497206703910616,0.036486111111111115,4.132333333333333,267.8,True,2026-02-07 23:30:08 - Flight 21,
91.06,2.0,9.0,2026-02-07 23:31:31,37.08157,-121.59956,385.0,0.1,50.4,-12.6,,,,,0.0,10.9,-1.2,57.0,0.0,-51.0,-0.0,-0.02,1.0,,-20.0,22.0,0.0,30.25,726.0,,,326.0,,,,,0.0,0.0,,,,,,,,,,,,,,,,,,,75.0,20.0,1022.0,1022.0,13.5,2.2,,2.2,26.5,,,36.4,0.0,0.0,-0.8,1.1,0.4,,,,,35.0,490.0,37.0,512.0,39.0,519.0,41.0,529.0,,,-25.0,0.0,,26.5,-8.0,0.001,,,0.653,0.79,74.7,20.0,,,,,,2026-02-14-N890GF-SN35347-17.4.0.23677-2ND_TAXI-USER_LOG_DATA.csv,,,,,,,71.6,68.0,,,,,95.0,914.0,98.6,953.6,102.2,966.2,105.8,984.2,,,68.0,1022.0,100.4,1.4022346368715086,0.9497206703910616,0.037111111111111116,4.216666666666667,267.8,True,2026-02-07 23:30:08 - Flight 21,
92.06,2.0,9.0,2026-02-07 23:31:32,37.08157,-121.59956,386.0,0.0,50.4,-12.6,,,,,0.0,11.0,-1.2,57.0,0.0,-51.0,-0.0,-0.02,1.0,,-32.0,22.0,0.0,30.25,735.0,,,326.0,,,,,0.0,0.0,,,,,,,,,,,,,,,,,,,75.0,20.0,1074.0,1074.0,13.5,2.2,,2.2,26.7,,,36.4,0.0,0.0,-0.8,1.1,0.4,,,,,35.0,496.0,38.0,514.0,39.0,520.0,42.0,533.0,,,-25.0,0.0,,26.7,-8.0,0.001,,,0.654,0.79,74.7,20.0,,,,,,2026-02-14-N890GF-SN35347-17.4.0.23677-2ND_TAXI-USER_LOG_DATA.csv,,,,,,,71.6,68.0,,,,,95.0,924.8,100.4,957.2,102.2,968.0,107.6,991.4,,,68.0,1074.0,101.30000000000001,1.4148044692737434,0.9497206703910616,0.037722222222222226,4.300999999999999,267.8,True,2026-02-07 23:30:08 - Flight 21,
93.06,2.0,9.0,2026-02-07 23:31:33,37.08157,-121.59956,387.0,0.0,50.4,-12.6,,,,,0.0,10.9,-1.2,56.9,0.0,-52.0,-0.0,-0.02,1.0,,-35.0,22.0,0.0,30.25,733.0,,,326.0,,,,,0.0,0.0,,,,,,,,,,,,,,,,,,,76.0,20.0,1086.0,1086.0,12.9,2.0,,2.0,26.6,,,36.4,0.0,0.0,-0.8,1.1,0.4,,,,,36.0,501.0,38.0,520.0,40.0,526.0,43.0,538.0,,,-25.0,0.0,,26.6,-8.0,0.001,,,0.653,0.79,75.8,20.1,,,,,,2026-02-14-N890GF-SN35347-17.4.0.23677-2ND_TAXI-USER_LOG_DATA.csv,,,,,,,71.6,68.0,,,,,96.8,933.8,100.4,968.0,104.0,978.8,109.4,1000.4,,,68.18,1086.0,102.65,1.4336592178770953,0.9497206703910616,0.03830555555555556,4.300999999999999,267.8,True,2026-02-07 23:30:08 - Flight 21,
94.06,2.0,9.0,2026-02-07 23:31:34,37.08157,-121.59956,389.0,0.0,50.4,-12.6,,,,,0.0,10.9,-1.2,56.8,0.0,-52.0,-0.0,-0.02,1.0,,2.0,22.0,0.0,30.25,733.0,,,326.0,,,,,0.0,0.0,,,,,,,,,,,,,,,,,,,76.0,20.0,1072.0,1072.0,12.8,1.9,,1.9,26.6,,,36.3,0.0,0.0,-0.8,1.1,0.4,,,,,36.0,505.0,39.0,527.0,40.0,536.0,43.0,547.0,,,-25.0,0.0,,26.6,-8.0,0.001,,,0.654,0.79,76.0,20.1,,,,,,2026-02-14-N890GF-SN35347-17.4.0.23677-2ND_TAXI-USER_LOG_DATA.csv,,,,,,,71.6,68.0,,,,,96.8,941.0,102.2,980.6,104.0,996.8,109.4,1016.6,,,68.18,1072.0,103.10000000000001,1.4399441340782124,0.9497206703910616,0.03884722222222223,4.300999999999999,267.8,True,2026-02-07 23:30:08 - Flight 21,
95.06,2.0,9.0,2026-02-07 23:31:35,37.08157,-121.59955,390.0,0.0,50.4,-12.6,,,,,0.0,11.0,-1.3,56.9,0.0,-52.0,-0.0,-0.02,1.0,,10.0,22.0,0.0,30.25,733.0,,,326.0,,,,,0.0,0.0,,,,,,,,,,,,,,,,,,,74.0,20.0,778.0,778.0,11.7,1.8,,1.8,26.5,,,36.3,0.0,0.0,-0.8,1.1,0.4,,,,,37.0,504.0,40.0,533.0,41.0,541.0,44.0,551.0,,,-25.0,0.0,,26.5,-8.0,0.001,,,0.654,0.79,74.0,20.1,,,,,,2026-02-14-N890GF-SN35347-17.4.0.23677-2ND_TAXI-USER_LOG_DATA.csv,,,,,,,71.6,68.0,,,,,98.6,939.2,104.0,991.4,105.8,1005.8,111.2,1023.8,,,68.18,778.0,104.9,1.4650837988826817,0.9497206703910616,0.03936111111111112,4.300999999999999,267.8,True,2026-02-07 23:30:08 - Flight 21,
96.06,2.0,9.0,2026-02-07 23:31:36,37.08157,-121.59955,391.0,0.0,50.4,-12.6,,,,,0.0,11.0,-1.2,56.9,0.0,-52.0,0.0,-0.02,1.0,,-36.0,22.0,0.0,30.25,733.0,,,326.0,,,,,0.0,0.0,,,,,,,,,,,,,,,,,,,68.0,20.0,749.0,749.0,13.7,1.6,,1.6,26.3,,,36.3,0.0,0.0,-0.8,1.1,0.4,,,,,37.0,493.0,40.0,531.0,41.0,535.0,45.0,548.0,,,-25.0,0.0,,26.3,-8.0,0.001,,,0.654,0.79,68.0,20.1,,,,,,2026-02-14-N890GF-SN35347-17.4.0.23677-2ND_TAXI-USER_LOG_DATA.csv,,,,,,,71.6,68.0,,,,,98.6,919.4,104.0,987.8,105.8,995.0,113.0,1018.4,,,68.18,749.0,105.35,1.4713687150837989,0.9497206703910616,0.03983333333333334,4.300999999999999,267.8,True,2026-02-07 23:30:08 - Flight 21,
97.06,2.0,9.0,2026-02-07 23:31:37,37.08157,-121.59955,392.0,0.0,50.4,-12.6,,,,,0.0,11.0,-1.2,56.9,0.0,-52.0,-0.0,-0.02,1.0,,-22.0,22.0,0.0,30.25,733.0,,,326.0,,,,,0.0,0.0,,,,,,,,,,,,,,,,,,,66.0,20.0,746.0,746.0,13.9,1.5,,1.5,26.3,,,36.3,0.0,0.0,-0.8,1.1,0.4,,,,,38.0,496.0,41.0,530.0,42.0,532.0,45.0,546.0,,,-25.0,0.0,,26.3,-8.0,0.001,,,0.654,0.79,66.2,20.1,,,,,,2026-02-14-N890GF-SN35347-17.4.0.23677-2ND_TAXI-USER_LOG_DATA.csv,,,,,,,71.6,68.0,,,,,100.4,924.8,105.8,986.0,107.6,989.6,113.0,1014.8,,,68.18,746.0,106.69999999999999,1.4902234636871508,0.9497206703910616,0.04026388888888889,4.300999999999999,267.8,True,2026-02-07 23:30:08 - Flight 21,
98.06,2.0,9.0,2026-02-07 23:31:38,37.08157,-121.59955,393.0,0.0,50.4,-12.6,,,,,0.0,11.0,-1.2,56.9,0.0,-53.0,-0.0,-0.02,1.0,,-32.0,22.0,0.0,30.25,733.0,,,326.0,,,,,0.0,0.0,,,,,,,,,,,,,,,,,,,65.0,20.0,723.0,723.0,14.1,1.4,,1.4,26.3,,,36.3,0.0,0.0,-0.8,1.1,0.4,,,,,38.0,496.0,41.0,529.0,42.0,530.0,45.0,544.0,,,-25.0,0.0,,26.3,-8.0,0.001,,,0.654,0.79,65.2,20.1,,,,,,2026-02-14-N890GF-SN35347-17.4.0.23677-2ND_TAXI-USER_LOG_DATA.csv,,,,,,,71.6,68.0,,,,,100.4,924.8,105.8,984.2,107.6,986.0,113.0,1011.2,,,68.18,723.0,106.69999999999999,1.4902234636871508,0.9497206703910616,0.04066666666666667,4.300999999999999,267.8,True,2026-02-07 23:30:08 - Flight 21,
99.06,2.0,9.0,2026-02-07 23:31:39,37.08157,-121.59955,392.0,0.0,50.4,-12.6,,,,,0.0,11.0,-1.2,56.9,0.0,-53.0,0.0,-0.02,1.0,,6.0,22.0,0.0,30.25,732.0,,,326.0,,,,,0.0,0.0,,,,,,,,,,,,,,,,,,,65.0,20.0,753.0,753.0,14.3,1.3,,1.3,26.3,,,36.3,0.0,0.0,-0.8,1.1,0.4,,,,,39.0,498.0,42.0,527.0,43.0,527.0,46.0,542.0,,,-25.0,0.0,,26.3,-8.0,0.001,,,0.654,0.79,64.9,20.1,,,,,,2026-02-14-N890GF-SN35347-17.4.0.23677-2ND_TAXI-USER_LOG_DATA.csv,,,,,,,71.6,68.0,,,,,102.2,928.4,107.6,980.6,109.4,980.6,114.8,1007.6,,,68.18,753.0,108.49999999999999,1.51536312849162,0.9497206703910616,0.04104166666666667,4.300999999999999,267.8,True,2026-02-07 23:30:08 - Flight 21,
100.06,2.0,9.0,2026-02-07 23:31:40,37.08157,-121.59955,391.0,0.0,50.4,-12.6,,,,,0.0,11.0,-1.2,57.0,0.0,-53.0,0.0,-0.02,1.0,,14.0,22.0,0.0,30.25,732.0,,,326.0,,,,,0.0,0.0,,,,,,,,,,,,,,,,,,,65.0,20.0,741.0,741.0,14.1,1.2,,1.2,26.3,,,36.3,0.0,0.0,-0.8,1.1,0.4,,,,,39.0,499.0,42.0,527.0,43.0,525.0,46.0,540.0,,,-25.0,0.0,,26.3,-8.0,0.001,,,0.654,0.79,65.1,20.1,,,,,,2026-02-14-N890GF-SN35347-17.4.0.23677-2ND_TAXI-USER_LOG_DATA.csv,,,,,,,71.6,68.0,,,,,102.2,930.2,107.6,980.6,109.4,977.0,114.8,1004.0,,,68.18,741.0,108.49999999999999,1.51536312849162,0.9497206703910616,0.04138888888888889,4.300999999999999,267.8,True,2026-02-07 23:30:08 - Flight 21,
