Session Time,GPS Fix Quality,Number of Satellites,GPS Date & Time,Latitude (deg),Longitude (deg),GPS Altitude (feet),Ground Speed (knots),Ground Track (deg),Mag Var (deg),Cross Track Error (NM),Destination Waypoint ID,Range to Destination (NM),Bearing to Destination (deg),System Time,Pitch (deg),Roll (deg),Magnetic Heading (deg),Indicated Airspeed (knots),Pressure Altitude (ft),Turn Rate (deg/s),Lateral Accel (g),Vertical Accel(g),Angle of Attack (%),Vertical Speed (ft/min),OAT (deg C),True Airspeed (knots),Barometer Setting (inHg),Density Altitude (ft),Wind Direction (deg),Wind Speed (knots),Heading Bug (deg),Altitude Bug (ft),Airspeed Bug (knots),Vertical Speed Bug (ft/min),Course (deg),CDI Source Type,CDI Source Port,CDI Scale (NM),CDI Deflection (%),Glideslope (%),AP Engaged,AP Roll Mode,AP Roll Force,AP Roll Position (steps),AP Roll Slip (bool),AP Pitch Force,AP Pitch Position (steps),AP Pitch Slip (bool),AP Yaw Force,AP Yaw Position,AP Yaw Slip (bool),Transponder Status,Transponder Reply (bool),Transponder Identing (bool),Transponder Code (octal),Oil Pressure (PSI),Oil Temp (deg C),RPM L,RPM R,Manifold Pressure (inHg),Fuel Flow 1 (gal/hr),Fuel Flow 2 (gal/hr),Total Fuel Flow (gal/hr),Fuel Pressure (PSI),Fuel Level L (gal),Fuel Level R (gal),Fuel Remaining (gal),Volts 1,Volts 2,Amps,Hobbs Time,Tach Time,Thermocouple 1 (deg C),Thermocouple 2 (deg C),Thermocouple 3 (deg C),Thermocouple 4 (deg C),CHT 4 (deg C),EGT 4 (deg C),CHT 3 (deg C),EGT 3 (deg C),CHT 2 (deg C),EGT 2 (deg C),CHT 1 (deg C),EGT 1 (deg C),Thermocouple 13 (deg C),Thermocouple 14 (deg C),ELEV POSITION (%),CO PPM PRESSURE (PSI),GP Input 3,FUEL PRESSURE (PSI),AILERN POSITION (%),CANOPY CONTACT (V),GP Input 7,GP Input 8,LEFT LEVEL (Sensor V),RIGHT LEVEL (Sensor V),OIL PRESSURE (PSI),OIL TEMPERATURE (deg C),GP Input 13,Contacts,Percent Power,EGT Leaning State,Unnamed: 103,source_file,Unnamed: 0,press_alt,ias,hdg,gps_gs,gps_trk,OAT (deg F),Oil Temp (deg F),Thermocouple 1 (deg F),Thermocouple 2 (deg F),Thermocouple 3 (deg F),Thermocouple 4 (deg F),CHT 4 (deg F),EGT 4 (deg F),CHT 3 (deg F),EGT 3 (deg F),CHT 2 (deg F),EGT 2 (deg F),CHT 1 (deg F),EGT 1 (deg F),Thermocouple 13 (deg F),Thermocouple 14 (deg F),OIL TEMPERATURE (deg F),RPM,AVG_CHT,CHT_OAT_Ratio,OIL_OAT_Ratio,Fuel Flow Integral,Distance Traveled,Max CHT,Engine Run,Flight ID,efficiency
4.06,1.0,6.0,2026-03-14 21:04:08,37.08154,-121.59969,423.0,0.0,36.1,-12.6,,,,,0.0,10.7,-1.1,24.2,0.0,163.0,0.1,-0.02,1.0,,-90.0,25.0,0.0,30.03,1355.0,,,330.0,,125.0,-1000.0,,0.0,0.0,,,,,,,,,,,,,,,,,,,,,0.0,0.0,,0.0,,0.0,,,,24.6,0.0,0.0,-0.7,6.2,4.7,,,,,18.0,19.0,18.0,19.0,18.0,19.0,18.0,19.0,,,13.0,254.4,,0.0,-11.0,4.998,,,1.302,0.85,0.0,17.0,,,,,,2026-03-14-N890GF-SN35347-17.4.0.23677-_2-USER_LOG_DATA.csv,,,,,,,77.0,,,,,,64.4,66.2,64.4,66.2,64.4,66.2,64.4,66.2,,,62.6,0.0,64.4,0.8363636363636364,,0.0,0.0,401.0,True,2026-03-14 21:04:08 - Flight 4,
5.06,1.0,6.0,2026-03-14 21:04:08,37.08155,-121.59969,377.0,0.0,36.1,-12.6,,,,,0.0,10.7,-1.0,24.1,0.0,163.0,0.1,-0.02,1.0,,-71.0,25.0,0.0,30.03,1355.0,,,330.0,,,,,0.0,0.0,,,,,,,,,,,,,,,,,,,0.0,17.0,0.0,0.0,30.2,0.0,,0.0,0.0,,,24.6,0.0,0.0,-0.7,6.2,4.7,,,,,18.0,19.0,18.0,19.0,18.0,19.0,18.0,19.0,,,14.0,254.4,,0.0,-11.0,4.998,,,1.302,0.85,0.0,17.0,,,,,,2026-03-14-N890GF-SN35347-17.4.0.23677-_2-USER_LOG_DATA.csv,,,,,,,77.0,62.6,,,,,64.4,66.2,64.4,66.2,64.4,66.2,64.4,66.2,,,62.6,0.0,64.4,0.8363636363636364,0.812987012987013,0.0,0.0,401.0,True,2026-03-14 21:04:08 - Flight 4,
6.06,1.0,6.0,2026-03-14 21:04:09,37.08154,-121.59969,378.0,0.0,36.1,-12.6,,,,,0.0,10.7,-1.0,24.2,0.0,162.0,0.1,-0.02,1.0,,-45.0,25.0,0.0,30.03,1355.0,,,330.0,,,,,0.0,0.0,,,,,,,,,,,,,,,,,,,0.0,17.0,0.0,0.0,30.2,0.0,,0.0,0.0,,,24.6,0.0,0.0,-0.7,6.2,4.7,,,,,18.0,19.0,18.0,19.0,18.0,19.0,18.0,19.0,,,14.0,254.4,,0.0,-11.0,4.998,,,1.302,0.85,0.0,17.0,,,,,,2026-03-14-N890GF-SN35347-17.4.0.23677-_2-USER_LOG_DATA.csv,,,,,,,77.0,62.6,,,,,64.4,66.2,64.4,66.2,64.4,66.2,64.4,66.2,,,62.6,0.0,64.4,0.8363636363636364,0.812987012987013,0.0,0.0,401.0,True,2026-03-14 21:04:08 - Flight 4,
7.06,1.0,6.0,2026-03-14 21:04:10,37.08154,-121.59969,378.0,0.0,36.1,-12.6,,,,,0.0,10.7,-1.0,24.2,0.0,162.0,0.1,-0.02,1.0,,-32.0,25.0,0.0,30.03,1352.0,,,330.0,,,,,0.0,0.0,,,,,,,,,,,,,,,,,,,0.0,17.0,0.0,0.0,30.2,0.0,,0.0,0.0,,,24.6,0.0,0.0,-0.7,6.2,4.7,,,,,18.0,19.0,18.0,19.0,18.0,19.0,18.0,20.0,,,14.0,254.4,,0.0,-11.0,4.998,,,1.302,0.85,0.0,16.9,,,,,,2026-03-14-N890GF-SN35347-17.4.0.23677-_2-USER_LOG_DATA.csv,,,,,,,77.0,62.6,,,,,64.4,66.2,64.4,66.2,64.4,66.2,64.4,68.0,,,62.42,0.0,64.4,0.8363636363636364,0.812987012987013,0.0,0.0,401.0,True,2026-03-14 21:04:08 - Flight 4,
8.06,1.0,6.0,2026-03-14 21:04:11,37.08154,-121.59969,378.0,0.0,36.1,-12.6,,,,,0.0,10.7,-1.1,24.1,0.0,162.0,0.1,-0.02,1.0,,-35.0,25.0,0.0,30.03,1352.0,,,330.0,,,,,0.0,0.0,,,,,,,,,,,,,,,,,,,0.0,17.0,0.0,0.0,30.2,0.0,,0.0,0.0,,,24.6,0.0,0.0,-0.7,6.2,4.7,,,,,18.0,19.0,18.0,19.0,18.0,19.0,18.0,20.0,,,14.0,254.4,,0.0,-10.0,4.998,,,1.302,0.85,0.0,16.9,,,,,,2026-03-14-N890GF-SN35347-17.4.0.23677-_2-USER_LOG_DATA.csv,,,,,,,77.0,62.6,,,,,64.4,66.2,64.4,66.2,64.4,66.2,64.4,68.0,,,62.42,0.0,64.4,0.8363636363636364,0.812987012987013,0.0,0.0,401.0,True,2026-03-14 21:04:08 - Flight 4,
9.06,1.0,8.0,2026-03-14 21:04:12,37.08161,-121.59965,397.0,0.1,36.1,-12.6,,,,,0.0,10.7,-1.1,24.1,0.0,160.0,0.0,-0.02,1.0,,-41.0,25.0,0.0,30.03,1352.0,,,330.0,,,,,0.0,0.0,,,,,,,,,,,,,,,,,,,0.0,17.0,0.0,0.0,30.2,0.0,,0.0,0.0,,,24.6,0.0,0.0,-0.7,6.2,4.7,,,,,18.0,19.0,18.0,19.0,18.0,19.0,18.0,20.0,,,14.0,254.4,,0.0,-11.0,4.998,,,1.302,0.85,0.0,16.9,,,,,,2026-03-14-N890GF-SN35347-17.4.0.23677-_2-USER_LOG_DATA.csv,,,,,,,77.0,62.6,,,,,64.4,66.2,64.4,66.2,64.4,66.2,64.4,68.0,,,62.42,0.0,64.4,0.8363636363636364,0.812987012987013,0.0,0.08433333333333333,401.0,True,2026-03-14 21:04:08 - Flight 4,
10.06,1.0,8.0,2026-03-14 21:04:13,37.08161,-121.59965,396.0,0.1,36.1,-12.6,,,,,0.0,10.7,-1.1,24.1,0.0,160.0,0.1,-0.02,1.0,,-26.0,25.0,0.0,30.03,1360.0,,,330.0,,,,,0.0,0.0,,,,,,,,,,,,,,,,,,,0.0,17.0,0.0,0.0,30.2,0.0,,0.0,0.0,,,24.6,0.0,0.0,-0.7,6.2,4.7,,,,,18.0,19.0,18.0,19.0,18.0,19.0,18.0,20.0,,,14.0,254.4,,0.0,-11.0,4.998,,,1.302,0.85,0.0,16.9,,,,,,2026-03-14-N890GF-SN35347-17.4.0.23677-_2-USER_LOG_DATA.csv,,,,,,,77.0,62.6,,,,,64.4,66.2,64.4,66.2,64.4,66.2,64.4,68.0,,,62.42,0.0,64.4,0.8363636363636364,0.812987012987013,0.0,0.253,401.0,True,2026-03-14 21:04:08 - Flight 4,
11.06,1.0,8.0,2026-03-14 21:04:14,37.08161,-121.59966,395.0,0.0,36.1,-12.6,,,,,0.0,10.7,-1.1,24.1,0.0,160.0,0.1,-0.02,1.0,,-32.0,25.0,0.0,30.03,1360.0,,,330.0,,,,,0.0,0.0,,,,,,,,,,,,,,,,,,,0.0,17.0,0.0,0.0,30.2,0.0,,0.0,0.0,,,24.6,0.0,0.0,-0.7,6.2,4.7,,,,,18.0,19.0,18.0,19.0,18.0,19.0,18.0,20.0,,,14.0,254.4,,0.0,-11.0,4.998,,,1.302,0.85,0.0,16.9,,,,,,2026-03-14-N890GF-SN35347-17.4.0.23677-_2-USER_LOG_DATA.csv,,,,,,,77.0,62.6,,,,,64.4,66.2,64.4,66.2,64.4,66.2,64.4,68.0,,,62.42,0.0,64.4,0.8363636363636364,0.812987012987013,0.0,0.3373333333333333,401.0,True,2026-03-14 21:04:08 - Flight 4,
12.06,1.0,8.0,2026-03-14 21:04:15,37.08166,-121.59958,394.0,0.0,36.1,-12.6,,,,,0.0,10.7,-1.1,24.1,0.0,159.0,0.1,-0.02,1.0,,-41.0,25.0,0.0,30.03,1360.0,,,330.0,,,,,0.0,0.0,,,,,,,,,,,,,,,,,,,0.0,17.0,0.0,0.0,30.2,0.0,,0.0,0.0,,,24.6,0.0,0.0,-0.7,6.2,4.7,,,,,18.0,19.0,18.0,19.0,18.0,19.0,18.0,20.0,,,14.0,254.4,,0.0,-11.0,4.998,,,1.304,0.844,0.0,16.9,,,,,,2026-03-14-N890GF-SN35347-17.4.0.23677-_2-USER_LOG_DATA.csv,,,,,,,77.0,62.6,,,,,64.4,66.2,64.4,66.2,64.4,66.2,64.4,68.0,,,62.42,0.0,64.4,0.8363636363636364,0.812987012987013,0.0,0.3373333333333333,401.0,True,2026-03-14 21:04:08 - Flight 4,
13.06,1.0,9.0,2026-03-14 21:04:16,37.08165,-121.59958,360.0,0.0,36.1,-12.6,,,,,0.0,10.7,-1.1,24.1,0.0,157.0,0.1,-0.02,1.0,,-69.0,25.0,0.0,30.03,1358.0,,,330.0,,,,,0.0,0.0,,,,,,,,,,,,,,,,,,,0.0,17.0,0.0,0.0,30.2,0.0,,0.0,0.0,,,24.6,0.0,0.0,-0.7,6.2,4.7,,,,,18.0,19.0,18.0,19.0,18.0,19.0,18.0,20.0,,,14.0,254.4,,0.0,-11.0,4.998,,,1.302,0.84,0.0,16.9,,,,,,2026-03-14-N890GF-SN35347-17.4.0.23677-_2-USER_LOG_DATA.csv,,,,,,,77.0,62.6,,,,,64.4,66.2,64.4,66.2,64.4,66.2,64.4,68.0,,,62.42,0.0,64.4,0.8363636363636364,0.812987012987013,0.0,0.3373333333333333,401.0,True,2026-03-14 21:04:08 - Flight 4,
14.06,1.0,9.0,2026-03-14 21:04:17,37.08165,-121.59959,359.0,0.0,36.1,-12.6,,,,,0.0,10.7,-1.0,24.1,0.0,156.0,0.1,-0.02,1.0,,-68.0,25.0,0.0,30.03,1358.0,,,330.0,,,,,0.0,0.0,,,,,,,,,,,,,,,,,,,0.0,17.0,0.0,0.0,30.2,0.0,,0.0,0.0,,,24.6,0.0,0.0,-0.7,6.2,4.7,,,,,18.0,19.0,18.0,19.0,18.0,19.0,19.0,20.0,,,14.0,254.4,,0.0,-11.0,4.998,,,1.302,0.84,0.0,16.9,,,,,,2026-03-14-N890GF-SN35347-17.4.0.23677-_2-USER_LOG_DATA.csv,,,,,,,77.0,62.6,,,,,64.4,66.2,64.4,66.2,64.4,66.2,66.2,68.0,,,62.42,0.0,64.85000000000001,0.8422077922077923,0.812987012987013,0.0,0.3373333333333333,401.0,True,2026-03-14 21:04:08 - Flight 4,
15.06,1.0,9.0,2026-03-14 21:04:18,37.08165,-121.59959,357.0,0.0,36.1,-12.6,,,,,0.0,10.7,-1.1,24.1,0.0,154.0,0.1,-0.02,1.0,,-86.0,25.0,0.0,30.03,1358.0,,,330.0,,,,,0.0,0.0,,,,,,,,,,,,,,,,,,,0.0,17.0,0.0,0.0,30.2,0.0,,0.0,0.0,,,24.6,0.0,0.0,-0.7,6.2,4.7,,,,,18.0,19.0,18.0,19.0,18.0,19.0,19.0,20.0,,,14.0,254.4,,0.0,-11.0,4.998,,,1.302,0.841,0.0,16.9,,,,,,2026-03-14-N890GF-SN35347-17.4.0.23677-_2-USER_LOG_DATA.csv,,,,,,,77.0,62.6,,,,,64.4,66.2,64.4,66.2,64.4,66.2,66.2,68.0,,,62.42,0.0,64.85000000000001,0.8422077922077923,0.812987012987013,0.0,0.3373333333333333,401.0,True,2026-03-14 21:04:08 - Flight 4,
16.06,1.0,9.0,2026-03-14 21:04:19,37.08165,-121.59959,356.0,0.0,36.1,-12.6,,,,,0.0,10.8,-1.1,24.0,0.0,153.0,0.1,-0.02,1.0,,-75.0,25.0,0.0,30.03,1363.0,,,330.0,,,,,0.0,0.0,,,,,,,,,,,,,,,,,,,0.0,17.0,0.0,0.0,30.2,0.0,,0.0,0.0,,,24.6,0.0,0.0,-0.7,6.2,4.7,,,,,18.0,19.0,18.0,19.0,18.0,19.0,19.0,20.0,,,14.0,254.4,,0.0,-11.0,4.998,,,1.304,0.841,0.0,16.9,,,,,,2026-03-14-N890GF-SN35347-17.4.0.23677-_2-USER_LOG_DATA.csv,,,,,,,77.0,62.6,,,,,64.4,66.2,64.4,66.2,64.4,66.2,66.2,68.0,,,62.42,0.0,64.85000000000001,0.8422077922077923,0.812987012987013,0.0,0.3373333333333333,401.0,True,2026-03-14 21:04:08 - Flight 4,
17.06,1.0,9.0,2026-03-14 21:04:20,37.08165,-121.59959,354.0,0.0,36.1,-12.6,,,,,0.0,10.8,-1.1,24.0,0.0,151.0,0.0,-0.01,1.0,,-100.0,25.0,0.0,30.03,1363.0,,,330.0,,,,,0.0,0.0,,,,,,,,,,,,,,,,,,,0.0,17.0,0.0,0.0,30.2,0.0,,0.0,0.0,,,24.6,0.0,0.0,-0.7,6.2,4.7,,,,,18.0,19.0,18.0,19.0,18.0,19.0,19.0,20.0,,,14.0,254.4,,0.0,-11.0,4.998,,,1.302,0.841,0.0,16.9,,,,,,2026-03-14-N890GF-SN35347-17.4.0.23677-_2-USER_LOG_DATA.csv,,,,,,,77.0,62.6,,,,,64.4,66.2,64.4,66.2,64.4,66.2,66.2,68.0,,,62.42,0.0,64.85000000000001,0.8422077922077923,0.812987012987013,0.0,0.3373333333333333,401.0,True,2026-03-14 21:04:08 - Flight 4,
18.06,1.0,9.0,2026-03-14 21:04:21,37.08165,-121.59959,353.0,0.0,36.1,-12.6,,,,,0.0,10.8,-1.1,24.0,0.0,148.0,0.0,-0.02,1.0,,-131.0,25.0,0.0,30.03,1363.0,,,330.0,,,,,0.0,0.0,,,,,,,,,,,,,,,,,,,0.0,17.0,0.0,0.0,30.2,0.0,,0.0,0.0,,,24.6,0.0,0.0,-0.7,6.2,4.7,,,,,18.0,19.0,18.0,19.0,18.0,19.0,19.0,19.0,,,14.0,254.4,,0.0,-11.0,4.998,,,1.302,0.84,0.0,16.9,,,,,,2026-03-14-N890GF-SN35347-17.4.0.23677-_2-USER_LOG_DATA.csv,,,,,,,77.0,62.6,,,,,64.4,66.2,64.4,66.2,64.4,66.2,66.2,66.2,,,62.42,0.0,64.85000000000001,0.8422077922077923,0.812987012987013,0.0,0.3373333333333333,401.0,True,2026-03-14 21:04:08 - Flight 4,
19.06,1.0,9.0,2026-03-14 21:04:22,37.08165,-121.59959,352.0,0.0,36.1,-12.6,,,,,0.0,10.8,-1.1,23.9,0.0,146.0,0.0,-0.02,1.0,,-115.0,25.0,0.0,30.03,1362.0,,,330.0,,,,,0.0,0.0,,,,,,,,,,,,,,,,,,,0.0,17.0,0.0,0.0,30.2,0.0,,0.0,0.0,,,24.6,0.0,0.0,-0.7,6.2,4.7,,,,,18.0,19.0,18.0,19.0,18.0,19.0,19.0,20.0,,,14.0,254.4,,0.0,-11.0,4.998,,,1.302,0.84,0.0,16.9,,,,,,2026-03-14-N890GF-SN35347-17.4.0.23677-_2-USER_LOG_DATA.csv,,,,,,,77.0,62.6,,,,,64.4,66.2,64.4,66.2,64.4,66.2,66.2,68.0,,,62.42,0.0,64.85000000000001,0.8422077922077923,0.812987012987013,0.0,0.3373333333333333,401.0,True,2026-03-14 21:04:08 - Flight 4,
20.06,1.0,9.0,2026-03-14 21:04:23,37.08165,-121.59959,351.0,0.0,36.1,-12.6,,,,,0.0,10.8,-1.1,23.9,0.0,145.0,0.1,-0.02,1.0,,-99.0,25.0,0.0,30.03,1361.0,,,330.0,,,,,0.0,0.0,,,,,,,,,,,,,,,,,,,0.0,17.0,0.0,0.0,30.2,0.0,,0.0,0.0,,,24.6,0.0,0.0,-0.8,6.2,4.7,,,,,18.0,19.0,18.0,19.0,18.0,19.0,19.0,19.0,,,14.0,254.4,,0.0,-11.0,4.998,,,1.304,0.841,0.0,16.9,,,,,,2026-03-14-N890GF-SN35347-17.4.0.23677-_2-USER_LOG_DATA.csv,,,,,,,77.0,62.6,,,,,64.4,66.2,64.4,66.2,64.4,66.2,66.2,66.2,,,62.42,0.0,64.85000000000001,0.8422077922077923,0.812987012987013,0.0,0.3373333333333333,401.0,True,2026-03-14 21:04:08 - Flight 4,
21.06,1.0,9.0,2026-03-14 21:04:24,37.08165,-121.59959,351.0,0.0,36.1,-12.6,,,,,0.0,10.8,-1.1,23.9,0.0,144.0,0.0,-0.02,1.0,,-100.0,25.0,0.0,30.03,1359.0,,,330.0,,,,,0.0,0.0,,,,,,,,,,,,,,,,,,,0.0,17.0,0.0,0.0,30.2,0.0,,0.0,0.0,,,24.6,0.0,0.0,-0.8,6.2,4.7,,,,,18.0,19.0,18.0,19.0,18.0,19.0,19.0,20.0,,,14.0,254.4,,0.0,-10.0,4.998,,,1.304,0.841,0.0,16.9,,,,,,2026-03-14-N890GF-SN35347-17.4.0.23677-_2-USER_LOG_DATA.csv,,,,,,,77.0,62.6,,,,,64.4,66.2,64.4,66.2,64.4,66.2,66.2,68.0,,,62.42,0.0,64.85000000000001,0.8422077922077923,0.812987012987013,0.0,0.3373333333333333,401.0,True,2026-03-14 21:04:08 - Flight 4,
22.06,1.0,9.0,2026-03-14 21:04:25,37.08165,-121.59959,350.0,0.0,36.1,-12.6,,,,,0.0,10.8,-1.1,24.0,0.0,142.0,0.1,-0.02,1.0,,-87.0,25.0,0.0,30.03,1357.0,,,330.0,,,,,0.0,0.0,,,,,,,,,,,,,,,,,,,0.0,17.0,0.0,0.0,30.2,0.0,,0.0,0.0,,,24.6,0.0,0.0,-0.8,6.2,4.7,,,,,18.0,19.0,18.0,19.0,18.0,19.0,19.0,19.0,,,14.0,254.4,,0.0,-10.0,4.998,,,1.302,0.841,0.0,16.9,,,,,,2026-03-14-N890GF-SN35347-17.4.0.23677-_2-USER_LOG_DATA.csv,,,,,,,77.0,62.6,,,,,64.4,66.2,64.4,66.2,64.4,66.2,66.2,66.2,,,62.42,0.0,64.85000000000001,0.8422077922077923,0.812987012987013,0.0,0.3373333333333333,401.0,True,2026-03-14 21:04:08 - Flight 4,
23.06,1.0,9.0,2026-03-14 21:04:26,37.08165,-121.59959,349.0,0.0,36.1,-12.6,,,,,0.0,10.8,-1.1,24.0,0.0,140.0,0.1,-0.02,1.0,,-89.0,25.0,0.0,30.03,1355.0,,,330.0,,,,,0.0,0.0,,,,,,,,,,,,,,,,,,,0.0,17.0,0.0,0.0,30.2,0.0,,0.0,0.0,,,24.6,0.0,0.0,-0.8,6.2,4.7,,,,,18.0,19.0,18.0,19.0,18.0,19.0,19.0,19.0,,,14.0,254.4,,0.0,-10.0,4.998,,,1.302,0.841,0.0,16.9,,,,,,2026-03-14-N890GF-SN35347-17.4.0.23677-_2-USER_LOG_DATA.csv,,,,,,,77.0,62.6,,,,,64.4,66.2,64.4,66.2,64.4,66.2,66.2,66.2,,,62.42,0.0,64.85000000000001,0.8422077922077923,0.812987012987013,0.0,0.3373333333333333,401.0,True,2026-03-14 21:04:08 - Flight 4,
24.06,1.0,9.0,2026-03-14 21:04:27,37.08165,-121.59959,349.0,0.1,36.1,-12.6,,,,,0.0,10.8,-1.0,24.0,0.0,139.0,0.1,-0.02,1.0,,-55.0,25.0,0.0,30.03,1354.0,,,330.0,,,,,0.0,0.0,,,,,,,,,,,,,,,,,,,0.0,17.0,0.0,0.0,30.2,0.0,,0.0,0.0,,,24.6,0.0,0.0,-0.8,6.2,4.7,,,,,18.0,19.0,18.0,19.0,18.0,19.0,19.0,19.0,,,14.0,254.4,,0.0,-10.0,4.998,,,1.302,0.841,0.0,16.9,,,,,,2026-03-14-N890GF-SN35347-17.4.0.23677-_2-USER_LOG_DATA.csv,,,,,,,77.0,62.6,,,,,64.4,66.2,64.4,66.2,64.4,66.2,66.2,66.2,,,62.42,0.0,64.85000000000001,0.8422077922077923,0.812987012987013,0.0,0.42166666666666663,401.0,True,2026-03-14 21:04:08 - Flight 4,
25.06,1.0,9.0,2026-03-14 21:04:28,37.08164,-121.59959,348.0,0.0,36.1,-12.6,,,,,0.0,10.8,-1.0,24.0,0.0,139.0,0.1,-0.02,1.0,,-40.0,25.0,0.0,30.03,1354.0,,,330.0,,,,,0.0,0.0,,,,,,,,,,,,,,,,,,,0.0,17.0,0.0,0.0,30.2,0.0,,0.0,8.4,,,24.6,0.0,0.0,-0.7,6.2,4.7,,,,,18.0,19.0,18.0,19.0,18.0,19.0,19.0,19.0,,,14.0,254.4,,8.4,-11.0,4.998,,,1.302,0.842,0.0,16.9,,,,,,2026-03-14-N890GF-SN35347-17.4.0.23677-_2-USER_LOG_DATA.csv,,,,,,,77.0,62.6,,,,,64.4,66.2,64.4,66.2,64.4,66.2,66.2,66.2,,,62.42,0.0,64.85000000000001,0.8422077922077923,0.812987012987013,0.0,0.506,401.0,True,2026-03-14 21:04:08 - Flight 4,
26.06,1.0,9.0,2026-03-14 21:04:29,37.08164,-121.59958,347.0,0.0,36.1,-12.6,,,,,0.0,10.8,-1.0,24.0,0.0,139.0,0.1,-0.02,1.0,,-66.0,25.0,0.0,30.03,1354.0,,,330.0,,,,,0.0,0.0,,,,,,,,,,,,,,,,,,,0.0,17.0,0.0,0.0,30.2,0.0,,0.0,30.2,,,24.6,0.0,0.0,-0.7,6.2,4.7,,,,,18.0,19.0,18.0,19.0,18.0,19.0,19.0,19.0,,,14.0,254.4,,30.2,-11.0,4.998,,,1.302,0.841,0.0,16.9,,,,,,2026-03-14-N890GF-SN35347-17.4.0.23677-_2-USER_LOG_DATA.csv,,,,,,,77.0,62.6,,,,,64.4,66.2,64.4,66.2,64.4,66.2,66.2,66.2,,,62.42,0.0,64.85000000000001,0.8422077922077923,0.812987012987013,0.0,0.506,401.0,True,2026-03-14 21:04:08 - Flight 4,
27.06,1.0,9.0,2026-03-14 21:04:30,37.08164,-121.59958,346.0,0.0,36.1,-12.6,,,,,0.0,10.8,-1.0,24.1,0.0,137.0,0.1,-0.02,1.0,,-58.0,25.0,0.0,30.03,1353.0,,,330.0,,,,,0.0,0.0,,,,,,,,,,,,,,,,,,,0.0,17.0,0.0,0.0,30.2,0.0,,0.0,32.0,,,24.6,0.0,0.0,-0.6,6.2,4.7,,,,,18.0,19.0,18.0,19.0,18.0,19.0,19.0,19.0,,,14.0,254.4,,32.0,-11.0,4.998,,,1.304,0.842,0.0,16.9,,,,,,2026-03-14-N890GF-SN35347-17.4.0.23677-_2-USER_LOG_DATA.csv,,,,,,,77.0,62.6,,,,,64.4,66.2,64.4,66.2,64.4,66.2,66.2,66.2,,,62.42,0.0,64.85000000000001,0.8422077922077923,0.812987012987013,0.0,0.506,401.0,True,2026-03-14 21:04:08 - Flight 4,
28.06,1.0,9.0,2026-03-14 21:04:31,37.08164,-121.59958,345.0,0.1,36.1,-12.6,,,,,0.0,10.8,-1.0,24.1,0.0,135.0,0.1,-0.02,1.0,,-78.0,25.0,0.0,30.03,1353.0,,,330.0,,,,,0.0,0.0,,,,,,,,,,,,,,,,,,,0.0,17.0,0.0,0.0,30.2,0.0,,0.0,32.3,,,24.6,0.0,0.0,-0.6,6.2,4.7,,,,,18.0,19.0,18.0,19.0,18.0,19.0,19.0,19.0,,,14.0,254.4,,32.3,-11.0,4.998,,,1.302,0.842,0.0,16.9,,,,,,2026-03-14-N890GF-SN35347-17.4.0.23677-_2-USER_LOG_DATA.csv,,,,,,,77.0,62.6,,,,,64.4,66.2,64.4,66.2,64.4,66.2,66.2,66.2,,,62.42,0.0,64.85000000000001,0.8422077922077923,0.812987012987013,0.0,0.5903333333333333,401.0,True,2026-03-14 21:04:08 - Flight 4,
29.06,1.0,9.0,2026-03-14 21:04:32,37.08164,-121.59958,345.0,0.0,36.1,-12.6,,,,,0.0,10.8,-1.0,24.0,0.0,134.0,0.0,-0.02,1.0,,-69.0,25.0,0.0,30.03,1353.0,,,330.0,,,,,0.0,0.0,,,,,,,,,,,,,,,,,,,0.0,17.0,0.0,0.0,30.2,0.9,,0.9,32.0,,,24.6,0.0,0.0,-0.6,6.2,4.7,,,,,18.0,19.0,18.0,20.0,18.0,19.0,19.0,20.0,,,14.0,254.4,,32.0,-11.0,4.998,,,1.302,0.842,0.0,16.9,,,,,,2026-03-14-N890GF-SN35347-17.4.0.23677-_2-USER_LOG_DATA.csv,,,,,,,77.0,62.6,,,,,64.4,66.2,64.4,68.0,64.4,66.2,66.2,68.0,,,62.42,0.0,64.85000000000001,0.8422077922077923,0.812987012987013,0.000125,0.6746666666666666,401.0,True,2026-03-14 21:04:08 - Flight 4,
30.06,1.0,9.0,2026-03-14 21:04:33,37.08164,-121.59958,344.0,0.0,36.1,-12.6,,,,,0.0,10.8,-1.1,24.0,0.0,134.0,0.0,-0.02,1.0,,-28.0,25.0,0.0,30.03,1348.0,,,330.0,,,,,0.0,0.0,,,,,,,,,,,,,,,,,,,0.0,17.0,0.0,0.0,30.2,1.6,,1.6,32.0,,,24.6,0.0,0.0,-0.6,6.2,4.7,,,,,18.0,19.0,18.0,19.0,18.0,19.0,19.0,20.0,,,14.0,254.4,,32.0,-10.0,4.998,,,1.304,0.842,0.0,16.9,,,,,,2026-03-14-N890GF-SN35347-17.4.0.23677-_2-USER_LOG_DATA.csv,,,,,,,77.0,62.6,,,,,64.4,66.2,64.4,66.2,64.4,66.2,66.2,68.0,,,62.42,0.0,64.85000000000001,0.8422077922077923,0.812987012987013,0.00047222222222222224,0.6746666666666666,401.0,True,2026-03-14 21:04:08 - Flight 4,
31.06,1.0,9.0,2026-03-14 21:04:34,37.08164,-121.59957,343.0,0.0,36.1,-12.6,,,,,0.0,10.7,-1.1,24.0,0.0,134.0,0.0,-0.02,1.0,,-18.0,25.0,0.0,30.03,1348.0,,,330.0,,,,,0.0,0.0,,,,,,,,,,,,,,,,,,,0.0,17.0,0.0,0.0,30.2,2.2,,2.2,32.1,,,24.6,0.0,0.0,-0.6,6.2,4.7,,,,,18.0,19.0,18.0,20.0,18.0,19.0,19.0,20.0,,,14.0,254.4,,32.1,-10.0,4.998,,,1.304,0.842,0.0,16.9,,,,,,2026-03-14-N890GF-SN35347-17.4.0.23677-_2-USER_LOG_DATA.csv,,,,,,,77.0,62.6,,,,,64.4,66.2,64.4,68.0,64.4,66.2,66.2,68.0,,,62.42,0.0,64.85000000000001,0.8422077922077923,0.812987012987013,0.001,0.6746666666666666,401.0,True,2026-03-14 21:04:08 - Flight 4,
32.06,1.0,9.0,2026-03-14 21:04:35,37.08164,-121.59957,343.0,0.0,36.1,-12.6,,,,,0.0,10.7,-1.1,24.0,0.0,134.0,0.1,-0.02,1.0,,5.0,25.0,0.0,30.03,1348.0,,,330.0,,,,,0.0,0.0,,,,,,,,,,,,,,,,,,,0.0,17.0,0.0,0.0,30.2,2.6,,2.6,32.2,,,24.6,0.0,0.0,-0.6,6.2,4.7,,,,,18.0,19.0,18.0,20.0,18.0,19.0,19.0,20.0,,,14.0,254.4,,32.2,-10.0,4.998,,,1.304,0.842,0.0,16.9,,,,,,2026-03-14-N890GF-SN35347-17.4.0.23677-_2-USER_LOG_DATA.csv,,,,,,,77.0,62.6,,,,,64.4,66.2,64.4,68.0,64.4,66.2,66.2,68.0,,,62.42,0.0,64.85000000000001,0.8422077922077923,0.812987012987013,0.0016666666666666692,0.6746666666666666,401.0,True,2026-03-14 21:04:08 - Flight 4,
33.06,1.0,9.0,2026-03-14 21:04:36,37.08163,-121.59958,342.0,0.0,36.1,-12.6,,,,,0.0,10.8,-1.1,24.0,0.0,134.0,0.1,-0.02,1.0,,-9.0,25.0,0.0,30.03,1349.0,,,330.0,,,,,0.0,0.0,,,,,,,,,,,,,,,,,,,0.0,17.0,0.0,0.0,30.2,2.9,,2.9,32.1,,,24.6,0.0,0.0,-0.6,6.2,4.7,,,,,18.0,19.0,18.0,19.0,18.0,19.0,19.0,20.0,,,14.0,254.4,,32.1,-10.0,4.998,,,1.302,0.842,0.0,16.9,,,,,,2026-03-14-N890GF-SN35347-17.4.0.23677-_2-USER_LOG_DATA.csv,,,,,,,77.0,62.6,,,,,64.4,66.2,64.4,66.2,64.4,66.2,66.2,68.0,,,62.42,0.0,64.85000000000001,0.8422077922077923,0.812987012987013,0.002430555555555558,0.6746666666666666,401.0,True,2026-03-14 21:04:08 - Flight 4,
34.06,1.0,9.0,2026-03-14 21:04:37,37.08163,-121.59957,342.0,0.0,36.1,-12.6,,,,,0.0,10.8,-1.0,24.0,0.0,134.0,0.1,-0.02,1.0,,25.0,25.0,0.0,30.03,1349.0,,,330.0,,,,,0.0,0.0,,,,,,,,,,,,,,,,,,,0.0,17.0,0.0,0.0,30.2,2.9,,2.9,33.5,,,24.6,0.0,0.0,-0.6,6.2,4.7,,,,,18.0,19.0,18.0,19.0,18.0,19.0,19.0,20.0,,,14.0,254.4,,33.5,-10.0,4.998,,,1.302,0.842,0.0,16.9,,,,,,2026-03-14-N890GF-SN35347-17.4.0.23677-_2-USER_LOG_DATA.csv,,,,,,,77.0,62.6,,,,,64.4,66.2,64.4,66.2,64.4,66.2,66.2,68.0,,,62.42,0.0,64.85000000000001,0.8422077922077923,0.812987012987013,0.0032361111111111136,0.6746666666666666,401.0,True,2026-03-14 21:04:08 - Flight 4,
35.06,1.0,9.0,2026-03-14 21:04:38,37.08163,-121.59957,343.0,0.0,36.1,-12.6,,,,,0.0,10.8,-1.0,24.1,0.0,134.0,0.1,-0.02,1.0,,10.0,25.0,0.0,30.03,1349.0,,,330.0,,,,,0.0,0.0,,,,,,,,,,,,,,,,,,,0.0,17.0,0.0,0.0,30.2,2.5,,2.5,32.4,,,24.6,0.0,0.0,-0.7,6.2,4.7,,,,,18.0,19.0,18.0,19.0,18.0,19.0,19.0,20.0,,,14.0,254.4,,32.4,-10.0,4.998,,,1.302,0.842,0.0,16.9,,,,,,2026-03-14-N890GF-SN35347-17.4.0.23677-_2-USER_LOG_DATA.csv,,,,,,,77.0,62.6,,,,,64.4,66.2,64.4,66.2,64.4,66.2,66.2,68.0,,,62.42,0.0,64.85000000000001,0.8422077922077923,0.812987012987013,0.003986111111111114,0.6746666666666666,401.0,True,2026-03-14 21:04:08 - Flight 4,
36.06,1.0,9.0,2026-03-14 21:04:39,37.08163,-121.59957,342.0,0.0,36.1,-12.6,,,,,0.0,10.8,-1.0,24.1,0.0,134.0,0.1,-0.02,1.0,,-11.0,25.0,0.0,30.03,1358.0,,,330.0,,,,,0.0,0.0,,,,,,,,,,,,,,,,,,,0.0,17.0,0.0,0.0,30.2,2.5,,2.5,32.1,,,24.6,0.0,0.0,-0.7,6.2,4.7,,,,,18.0,19.0,18.0,19.0,18.0,19.0,19.0,20.0,,,13.0,254.4,,32.1,-10.0,4.998,,,1.302,0.842,0.0,16.9,,,,,,2026-03-14-N890GF-SN35347-17.4.0.23677-_2-USER_LOG_DATA.csv,,,,,,,77.0,62.6,,,,,64.4,66.2,64.4,66.2,64.4,66.2,66.2,68.0,,,62.42,0.0,64.85000000000001,0.8422077922077923,0.812987012987013,0.0046805555555555585,0.6746666666666666,401.0,True,2026-03-14 21:04:08 - Flight 4,
37.06,1.0,9.0,2026-03-14 21:04:40,37.08163,-121.59957,342.0,0.0,36.1,-12.6,,,,,0.0,10.8,-1.0,24.1,0.0,134.0,0.1,-0.02,1.0,,-27.0,25.0,0.0,30.03,1358.0,,,330.0,,,,,0.0,0.0,,,,,,,,,,,,,,,,,,,0.0,17.0,0.0,0.0,30.2,0.0,,0.0,31.9,,,24.6,0.0,0.0,-0.7,6.2,4.7,,,,,18.0,19.0,18.0,19.0,18.0,19.0,19.0,20.0,,,13.0,254.4,,31.9,-10.0,4.998,,,1.302,0.844,0.0,16.9,,,,,,2026-03-14-N890GF-SN35347-17.4.0.23677-_2-USER_LOG_DATA.csv,,,,,,,77.0,62.6,,,,,64.4,66.2,64.4,66.2,64.4,66.2,66.2,68.0,,,62.42,0.0,64.85000000000001,0.8422077922077923,0.812987012987013,0.00502777777777778,0.6746666666666666,401.0,True,2026-03-14 21:04:08 - Flight 4,
38.06,1.0,9.0,2026-03-14 21:04:41,37.08163,-121.59957,341.0,0.0,36.1,-12.6,,,,,0.0,10.8,-1.0,24.1,0.0,134.0,0.1,-0.02,1.0,,5.0,25.0,0.0,30.03,1358.0,,,330.0,,,,,0.0,0.0,,,,,,,,,,,,,,,,,,,0.0,17.0,0.0,0.0,30.2,0.0,,0.0,31.7,,,24.6,0.0,0.0,-0.8,6.2,4.7,,,,,18.0,19.0,18.0,19.0,18.0,19.0,19.0,20.0,,,13.0,254.4,,31.7,-10.0,4.998,,,1.302,0.844,0.0,16.9,,,,,,2026-03-14-N890GF-SN35347-17.4.0.23677-_2-USER_LOG_DATA.csv,,,,,,,77.0,62.6,,,,,64.4,66.2,64.4,66.2,64.4,66.2,66.2,68.0,,,62.42,0.0,64.85000000000001,0.8422077922077923,0.812987012987013,0.00502777777777778,0.6746666666666666,401.0,True,2026-03-14 21:04:08 - Flight 4,
39.06,1.0,9.0,2026-03-14 21:04:42,37.08163,-121.59957,341.0,0.0,36.1,-12.6,,,,,0.0,10.8,-1.1,24.0,0.0,134.0,0.0,-0.02,1.0,,8.0,25.0,0.0,30.03,1359.0,,,330.0,,,,,0.0,0.0,,,,,,,,,,,,,,,,,,,0.0,17.0,0.0,0.0,30.2,0.0,,0.0,31.6,,,24.6,0.0,0.0,-0.8,6.2,4.7,,,,,18.0,19.0,18.0,19.0,18.0,19.0,19.0,20.0,,,13.0,239.0,,31.6,-10.0,4.998,,,1.302,0.844,0.0,16.9,,,,,,2026-03-14-N890GF-SN35347-17.4.0.23677-_2-USER_LOG_DATA.csv,,,,,,,77.0,62.6,,,,,64.4,66.2,64.4,66.2,64.4,66.2,66.2,68.0,,,62.42,0.0,64.85000000000001,0.8422077922077923,0.812987012987013,0.00502777777777778,0.6746666666666666,401.0,True,2026-03-14 21:04:08 - Flight 4,
40.06,1.0,9.0,2026-03-14 21:04:43,37.08163,-121.59956,341.0,0.0,36.1,-12.6,,,,,0.0,10.8,-1.1,24.0,0.0,133.0,0.1,-0.02,1.0,,-28.0,25.0,0.0,30.03,1359.0,,,330.0,,,,,0.0,0.0,,,,,,,,,,,,,,,,,,,0.0,17.0,0.0,0.0,30.2,0.0,,0.0,31.4,,,24.6,0.0,0.0,-0.8,6.2,4.7,,,,,18.0,19.0,18.0,19.0,18.0,19.0,19.0,20.0,,,13.0,186.0,,31.4,-10.0,4.998,,,1.302,0.844,0.0,16.9,,,,,,2026-03-14-N890GF-SN35347-17.4.0.23677-_2-USER_LOG_DATA.csv,,,,,,,77.0,62.6,,,,,64.4,66.2,64.4,66.2,64.4,66.2,66.2,68.0,,,62.42,0.0,64.85000000000001,0.8422077922077923,0.812987012987013,0.00502777777777778,0.6746666666666666,401.0,True,2026-03-14 21:04:08 - Flight 4,
41.06,1.0,9.0,2026-03-14 21:04:44,37.08163,-121.59956,341.0,0.0,36.1,-12.6,,,,,0.0,10.8,-1.1,24.0,0.0,132.0,0.0,-0.02,1.0,,-2.0,25.0,0.0,30.03,1359.0,,,330.0,,,,,0.0,0.0,,,,,,,,,,,,,,,,,,,0.0,17.0,0.0,0.0,30.2,0.0,,0.0,31.3,,,24.6,0.0,0.0,-0.8,6.2,4.7,,,,,18.0,19.0,18.0,19.0,18.0,19.0,19.0,20.0,,,13.0,144.8,,31.3,-10.0,4.998,,,1.304,0.844,0.0,16.9,,,,,,2026-03-14-N890GF-SN35347-17.4.0.23677-_2-USER_LOG_DATA.csv,,,,,,,77.0,62.6,,,,,64.4,66.2,64.4,66.2,64.4,66.2,66.2,68.0,,,62.42,0.0,64.85000000000001,0.8422077922077923,0.812987012987013,0.00502777777777778,0.6746666666666666,401.0,True,2026-03-14 21:04:08 - Flight 4,
42.06,1.0,9.0,2026-03-14 21:04:45,37.08163,-121.59956,339.0,0.0,36.1,-12.6,,,,,0.0,10.8,-1.0,24.0,0.0,132.0,0.0,-0.02,1.0,,-23.0,25.0,0.0,30.03,1367.0,,,330.0,,,,,0.0,0.0,,,,,,,,,,,,,,,,,,,0.0,17.0,0.0,0.0,30.2,0.0,,0.0,31.1,,,24.6,0.0,0.0,-0.8,6.2,4.7,,,,,18.0,19.0,18.0,19.0,18.0,19.0,19.0,20.0,,,13.0,112.8,,31.1,-10.0,4.998,,,1.302,0.844,0.0,16.9,,,,,,2026-03-14-N890GF-SN35347-17.4.0.23677-_2-USER_LOG_DATA.csv,,,,,,,77.0,62.6,,,,,64.4,66.2,64.4,66.2,64.4,66.2,66.2,68.0,,,62.42,0.0,64.85000000000001,0.8422077922077923,0.812987012987013,0.00502777777777778,0.6746666666666666,401.0,True,2026-03-14 21:04:08 - Flight 4,
43.06,1.0,9.0,2026-03-14 21:04:46,37.08163,-121.59956,339.0,0.0,36.1,-12.6,,,,,0.0,10.8,-1.0,24.0,0.0,132.0,0.1,-0.02,1.0,,-35.0,25.0,0.0,30.03,1366.0,,,330.0,,,,,0.0,0.0,,,,,,,,,,,,,,,,,,,0.0,17.0,0.0,0.0,30.2,0.0,,0.0,31.0,,,24.6,0.0,0.0,-0.8,6.2,4.7,,,,,18.0,19.0,18.0,19.0,18.0,19.0,19.0,20.0,,,12.0,87.9,,31.0,-10.0,4.998,,,1.302,0.845,0.0,16.9,,,,,,2026-03-14-N890GF-SN35347-17.4.0.23677-_2-USER_LOG_DATA.csv,,,,,,,77.0,62.6,,,,,64.4,66.2,64.4,66.2,64.4,66.2,66.2,68.0,,,62.42,0.0,64.85000000000001,0.8422077922077923,0.812987012987013,0.00502777777777778,0.6746666666666666,401.0,True,2026-03-14 21:04:08 - Flight 4,
44.06,1.0,9.0,2026-03-14 21:04:47,37.08163,-121.59956,339.0,0.0,36.1,-12.6,,,,,0.0,10.8,-1.0,24.1,0.0,130.0,0.1,-0.02,1.0,,-47.0,25.0,0.0,30.03,1366.0,,,330.0,,,,,0.0,0.0,,,,,,,,,,,,,,,,,,,0.0,17.0,0.0,0.0,30.2,0.0,,0.0,30.8,,,24.6,0.0,0.0,-0.8,6.2,4.7,,,,,18.0,19.0,18.0,19.0,18.0,19.0,19.0,20.0,,,12.0,68.5,,30.8,-10.0,4.998,,,1.302,0.845,0.0,16.9,,,,,,2026-03-14-N890GF-SN35347-17.4.0.23677-_2-USER_LOG_DATA.csv,,,,,,,77.0,62.6,,,,,64.4,66.2,64.4,66.2,64.4,66.2,66.2,68.0,,,62.42,0.0,64.85000000000001,0.8422077922077923,0.812987012987013,0.00502777777777778,0.6746666666666666,401.0,True,2026-03-14 21:04:08 - Flight 4,
45.06,1.0,9.0,2026-03-14 21:04:48,37.08162,-121.59956,339.0,0.0,36.1,-12.6,,,,,0.0,10.8,-1.0,24.0,0.0,129.0,0.1,-0.02,1.0,,-78.0,25.0,0.0,30.03,1366.0,,,330.0,,,,,0.0,0.0,,,,,,,,,,,,,,,,,,,0.0,17.0,0.0,0.0,30.2,0.0,,0.0,30.7,,,24.6,0.0,0.0,-0.8,6.2,4.7,,,,,18.0,19.0,18.0,19.0,18.0,19.0,19.0,20.0,,,12.0,53.5,,30.7,-10.0,4.998,,,1.302,0.845,0.0,16.9,,,,,,2026-03-14-N890GF-SN35347-17.4.0.23677-_2-USER_LOG_DATA.csv,,,,,,,77.0,62.6,,,,,64.4,66.2,64.4,66.2,64.4,66.2,66.2,68.0,,,62.42,0.0,64.85000000000001,0.8422077922077923,0.812987012987013,0.00502777777777778,0.6746666666666666,401.0,True,2026-03-14 21:04:08 - Flight 4,
46.06,1.0,9.0,2026-03-14 21:04:49,37.08162,-121.59956,339.0,0.0,36.1,-12.6,,,,,0.0,10.8,-1.0,24.0,0.0,128.0,0.1,-0.02,1.0,,-67.0,25.0,0.0,30.03,1362.0,,,330.0,,,,,0.0,0.0,,,,,,,,,,,,,,,,,,,0.0,17.0,0.0,0.0,30.2,0.0,,0.0,30.6,,,24.6,0.0,0.0,-0.8,6.2,4.7,,,,,18.0,19.0,18.0,19.0,18.0,19.0,19.0,20.0,,,12.0,41.8,,30.6,-10.0,4.998,,,1.302,0.845,0.0,16.9,,,,,,2026-03-14-N890GF-SN35347-17.4.0.23677-_2-USER_LOG_DATA.csv,,,,,,,77.0,62.6,,,,,64.4,66.2,64.4,66.2,64.4,66.2,66.2,68.0,,,62.42,0.0,64.85000000000001,0.8422077922077923,0.812987012987013,0.00502777777777778,0.6746666666666666,401.0,True,2026-03-14 21:04:08 - Flight 4,
47.06,1.0,9.0,2026-03-14 21:04:50,37.08162,-121.59956,339.0,0.1,36.1,-12.6,,,,,0.0,10.8,-1.0,24.1,0.0,127.0,0.1,-0.02,1.0,,-49.0,25.0,0.0,30.03,1362.0,,,330.0,,,,,0.0,0.0,,,,,,,,,,,,,,,,,,,0.0,17.0,0.0,0.0,30.2,0.0,,0.0,30.4,,,24.6,0.0,0.0,-0.8,6.2,4.7,,,,,18.0,19.0,18.0,19.0,18.0,19.0,19.0,20.0,,,12.0,32.7,,30.4,-10.0,4.998,,,1.302,0.845,0.0,16.9,,,,,,2026-03-14-N890GF-SN35347-17.4.0.23677-_2-USER_LOG_DATA.csv,,,,,,,77.0,62.6,,,,,64.4,66.2,64.4,66.2,64.4,66.2,66.2,68.0,,,62.42,0.0,64.85000000000001,0.8422077922077923,0.812987012987013,0.00502777777777778,0.7589999999999999,401.0,True,2026-03-14 21:04:08 - Flight 4,
48.06,1.0,9.0,2026-03-14 21:04:51,37.08162,-121.59956,339.0,0.0,36.1,-12.6,,,,,0.0,10.8,-1.0,24.1,0.0,127.0,0.1,-0.02,1.0,,-33.0,25.0,0.0,30.03,1362.0,,,330.0,,,,,0.0,0.0,,,,,,,,,,,,,,,,,,,0.0,17.0,0.0,0.0,30.2,0.0,,0.0,30.3,,,24.6,0.0,0.0,-0.8,6.2,4.7,,,,,18.0,19.0,18.0,19.0,18.0,19.0,19.0,20.0,,,12.0,25.6,,30.3,-10.0,4.998,,,1.302,0.845,0.0,16.9,,,,,,2026-03-14-N890GF-SN35347-17.4.0.23677-_2-USER_LOG_DATA.csv,,,,,,,77.0,62.6,,,,,64.4,66.2,64.4,66.2,64.4,66.2,66.2,68.0,,,62.42,0.0,64.85000000000001,0.8422077922077923,0.812987012987013,0.00502777777777778,0.8433333333333333,401.0,True,2026-03-14 21:04:08 - Flight 4,
49.06,1.0,9.0,2026-03-14 21:04:52,37.08162,-121.59956,339.0,0.0,36.1,-12.6,,,,,0.0,10.8,-1.0,24.1,0.0,127.0,0.1,-0.02,1.0,,-8.0,25.0,0.0,30.03,1361.0,,,330.0,,,,,0.0,0.0,,,,,,,,,,,,,,,,,,,0.0,17.0,0.0,0.0,30.2,0.0,,0.0,30.2,,,24.6,0.0,0.0,-0.8,6.2,4.7,,,,,18.0,19.0,18.0,19.0,18.0,19.0,19.0,20.0,,,12.0,20.1,,30.2,-10.0,4.998,,,1.302,0.845,0.0,16.9,,,,,,2026-03-14-N890GF-SN35347-17.4.0.23677-_2-USER_LOG_DATA.csv,,,,,,,77.0,62.6,,,,,64.4,66.2,64.4,66.2,64.4,66.2,66.2,68.0,,,62.42,0.0,64.85000000000001,0.8422077922077923,0.812987012987013,0.00502777777777778,0.8433333333333333,401.0,True,2026-03-14 21:04:08 - Flight 4,
50.06,1.0,9.0,2026-03-14 21:04:53,37.08162,-121.59956,339.0,0.0,36.1,-12.6,,,,,0.0,10.8,-1.0,24.0,0.0,127.0,0.1,-0.02,1.0,,-6.0,25.0,0.0,30.03,1361.0,,,330.0,,,,,0.0,0.0,,,,,,,,,,,,,,,,,,,0.0,17.0,0.0,0.0,30.2,0.0,,0.0,30.0,,,24.6,0.0,0.0,-0.8,6.2,4.7,,,,,18.0,20.0,18.0,20.0,18.0,20.0,19.0,20.0,,,12.0,15.9,,30.0,-10.0,4.998,,,1.302,0.845,0.0,16.9,,,,,,2026-03-14-N890GF-SN35347-17.4.0.23677-_2-USER_LOG_DATA.csv,,,,,,,77.0,62.6,,,,,64.4,68.0,64.4,68.0,64.4,68.0,66.2,68.0,,,62.42,0.0,64.85000000000001,0.8422077922077923,0.812987012987013,0.00502777777777778,0.8433333333333333,401.0,True,2026-03-14 21:04:08 - Flight 4,
51.06,1.0,9.0,2026-03-14 21:04:54,37.08162,-121.59956,339.0,0.0,36.1,-12.6,,,,,0.0,10.8,-1.0,24.0,0.0,127.0,0.0,-0.02,1.0,,-2.0,25.0,0.0,30.03,1361.0,,,330.0,,,,,0.0,0.0,,,,,,,,,,,,,,,,,,,0.0,17.0,0.0,0.0,30.2,0.0,,0.0,29.9,,,24.6,0.0,0.0,-0.8,6.2,4.7,,,,,18.0,20.0,18.0,20.0,18.0,20.0,19.0,20.0,,,11.0,12.5,,29.9,-10.0,4.998,,,1.302,0.845,0.0,16.9,,,,,,2026-03-14-N890GF-SN35347-17.4.0.23677-_2-USER_LOG_DATA.csv,,,,,,,77.0,62.6,,,,,64.4,68.0,64.4,68.0,64.4,68.0,66.2,68.0,,,62.42,0.0,64.85000000000001,0.8422077922077923,0.812987012987013,0.00502777777777778,0.8433333333333333,401.0,True,2026-03-14 21:04:08 - Flight 4,
52.06,1.0,9.0,2026-03-14 21:04:55,37.08162,-121.59956,339.0,0.0,36.1,-12.6,,,,,0.0,10.7,-1.0,24.0,0.0,126.0,0.1,-0.02,1.0,,-38.0,25.0,0.0,30.03,1361.0,,,330.0,,,,,0.0,0.0,,,,,,,,,,,,,,,,,,,0.0,17.0,0.0,0.0,30.2,0.0,,0.0,29.8,,,24.6,0.0,0.0,-0.8,6.2,4.7,,,,,18.0,20.0,18.0,20.0,18.0,20.0,19.0,20.0,,,11.0,10.0,,29.8,-10.0,4.998,,,1.304,0.845,0.0,16.9,,,,,,2026-03-14-N890GF-SN35347-17.4.0.23677-_2-USER_LOG_DATA.csv,,,,,,,77.0,62.6,,,,,64.4,68.0,64.4,68.0,64.4,68.0,66.2,68.0,,,62.42,0.0,64.85000000000001,0.8422077922077923,0.812987012987013,0.00502777777777778,0.8433333333333333,401.0,True,2026-03-14 21:04:08 - Flight 4,
53.06,1.0,9.0,2026-03-14 21:04:56,37.08162,-121.59956,339.0,0.0,36.1,-12.6,,,,,0.0,10.8,-1.1,24.0,0.0,125.0,0.1,-0.02,1.0,,-31.0,25.0,0.0,30.03,1370.0,,,330.0,,,,,0.0,0.0,,,,,,,,,,,,,,,,,,,0.0,17.0,0.0,0.0,30.2,0.0,,0.0,29.7,,,24.6,0.0,0.0,-0.8,6.2,4.7,,,,,18.0,20.0,18.0,20.0,18.0,20.0,19.0,20.0,,,11.0,8.0,,29.7,-10.0,4.998,,,1.302,0.845,0.0,16.9,,,,,,2026-03-14-N890GF-SN35347-17.4.0.23677-_2-USER_LOG_DATA.csv,,,,,,,77.0,62.6,,,,,64.4,68.0,64.4,68.0,64.4,68.0,66.2,68.0,,,62.42,0.0,64.85000000000001,0.8422077922077923,0.812987012987013,0.00502777777777778,0.8433333333333333,401.0,True,2026-03-14 21:04:08 - Flight 4,
54.06,1.0,9.0,2026-03-14 21:04:57,37.08162,-121.59956,340.0,0.0,36.1,-12.6,,,,,0.0,10.8,-1.1,24.0,0.0,125.0,0.0,-0.02,1.0,,-23.0,25.0,0.0,30.03,1370.0,,,330.0,,,,,0.0,0.0,,,,,,,,,,,,,,,,,,,0.0,17.0,0.0,0.0,30.2,0.0,,0.0,29.6,,,24.6,0.0,0.0,-0.8,6.2,4.7,,,,,18.0,20.0,18.0,20.0,18.0,20.0,19.0,20.0,,,11.0,6.4,,29.6,-10.0,4.998,,,1.304,0.845,0.0,16.9,,,,,,2026-03-14-N890GF-SN35347-17.4.0.23677-_2-USER_LOG_DATA.csv,,,,,,,77.0,62.6,,,,,64.4,68.0,64.4,68.0,64.4,68.0,66.2,68.0,,,62.42,0.0,64.85000000000001,0.8422077922077923,0.812987012987013,0.00502777777777778,0.8433333333333333,401.0,True,2026-03-14 21:04:08 - Flight 4,
55.06,1.0,9.0,2026-03-14 21:04:58,37.08162,-121.59956,340.0,0.0,36.1,-12.6,,,,,0.0,10.7,-1.0,24.0,0.0,125.0,0.0,-0.02,1.0,,6.0,25.0,0.0,30.03,1370.0,,,330.0,,,,,0.0,0.0,,,,,,,,,,,,,,,,,,,0.0,17.0,0.0,0.0,30.2,0.0,,0.0,29.5,,,24.6,0.0,0.0,-0.8,6.2,4.7,,,,,18.0,20.0,18.0,20.0,18.0,20.0,19.0,20.0,,,12.0,5.2,,29.5,-10.0,4.998,,,1.302,0.846,0.0,16.9,,,,,,2026-03-14-N890GF-SN35347-17.4.0.23677-_2-USER_LOG_DATA.csv,,,,,,,77.0,62.6,,,,,64.4,68.0,64.4,68.0,64.4,68.0,66.2,68.0,,,62.42,0.0,64.85000000000001,0.8422077922077923,0.812987012987013,0.00502777777777778,0.8433333333333333,401.0,True,2026-03-14 21:04:08 - Flight 4,
56.06,1.0,9.0,2026-03-14 21:04:59,37.08162,-121.59956,340.0,0.0,36.1,-12.6,,,,,0.0,10.7,-1.0,24.0,0.0,125.0,0.1,-0.02,1.0,,28.0,25.0,0.0,30.03,1369.0,,,330.0,,,,,0.0,0.0,,,,,,,,,,,,,,,,,,,0.0,17.0,0.0,0.0,30.2,0.0,,0.0,29.4,,,24.6,0.0,0.0,-0.8,6.2,4.7,,,,,18.0,20.0,18.0,20.0,18.0,20.0,19.0,20.0,,,12.0,4.2,,29.4,-10.0,4.998,,,1.304,0.846,0.0,16.9,,,,,,2026-03-14-N890GF-SN35347-17.4.0.23677-_2-USER_LOG_DATA.csv,,,,,,,77.0,62.6,,,,,64.4,68.0,64.4,68.0,64.4,68.0,66.2,68.0,,,62.42,0.0,64.85000000000001,0.8422077922077923,0.812987012987013,0.00502777777777778,0.8433333333333333,401.0,True,2026-03-14 21:04:08 - Flight 4,
57.06,1.0,9.0,2026-03-14 21:05:00,37.08162,-121.59956,340.0,0.0,36.1,-12.6,,,,,0.0,10.7,-1.0,24.0,0.0,125.0,0.0,-0.02,1.0,,58.0,25.0,0.0,30.03,1369.0,,,330.0,,,,,0.0,0.0,,,,,,,,,,,,,,,,,,,0.0,17.0,0.0,0.0,30.2,0.0,,0.0,29.3,,,24.6,0.0,0.0,-0.8,6.2,4.7,,,,,18.0,20.0,18.0,20.0,18.0,20.0,19.0,20.0,,,12.0,3.5,,29.3,-10.0,4.998,,,1.302,0.846,0.0,16.9,,,,,,2026-03-14-N890GF-SN35347-17.4.0.23677-_2-USER_LOG_DATA.csv,,,,,,,77.0,62.6,,,,,64.4,68.0,64.4,68.0,64.4,68.0,66.2,68.0,,,62.42,0.0,64.85000000000001,0.8422077922077923,0.812987012987013,0.00502777777777778,0.8433333333333333,401.0,True,2026-03-14 21:04:08 - Flight 4,
58.06,1.0,9.0,2026-03-14 21:05:01,37.08162,-121.59956,340.0,0.0,36.1,-12.6,,,,,0.0,10.7,-1.0,24.0,0.0,125.0,0.1,-0.02,1.0,,71.0,25.0,0.0,30.03,1369.0,,,330.0,,,,,0.0,0.0,,,,,,,,,,,,,,,,,,,0.0,17.0,0.0,0.0,30.2,0.0,,0.0,29.2,,,24.6,0.0,0.0,-0.8,6.2,4.7,,,,,18.0,20.0,18.0,20.0,18.0,20.0,19.0,20.0,,,12.0,2.9,,29.2,-10.0,4.998,,,1.304,0.846,0.0,16.9,,,,,,2026-03-14-N890GF-SN35347-17.4.0.23677-_2-USER_LOG_DATA.csv,,,,,,,77.0,62.6,,,,,64.4,68.0,64.4,68.0,64.4,68.0,66.2,68.0,,,62.42,0.0,64.85000000000001,0.8422077922077923,0.812987012987013,0.00502777777777778,0.8433333333333333,401.0,True,2026-03-14 21:04:08 - Flight 4,
59.06,1.0,9.0,2026-03-14 21:05:02,37.08162,-121.59956,341.0,0.0,36.1,-12.6,,,,,0.0,10.7,-1.0,24.0,0.0,125.0,0.1,-0.02,1.0,,64.0,25.0,0.0,30.03,1370.0,,,330.0,,,,,0.0,0.0,,,,,,,,,,,,,,,,,,,0.0,17.0,0.0,0.0,30.2,0.0,,0.0,29.1,,,24.6,0.0,0.0,-0.8,6.2,4.7,,,,,18.0,20.0,18.0,20.0,18.0,20.0,19.0,20.0,,,12.0,2.5,,29.1,-10.0,4.998,,,1.302,0.846,0.0,16.9,,,,,,2026-03-14-N890GF-SN35347-17.4.0.23677-_2-USER_LOG_DATA.csv,,,,,,,77.0,62.6,,,,,64.4,68.0,64.4,68.0,64.4,68.0,66.2,68.0,,,62.42,0.0,64.85000000000001,0.8422077922077923,0.812987012987013,0.00502777777777778,0.8433333333333333,401.0,True,2026-03-14 21:04:08 - Flight 4,
60.06,1.0,9.0,2026-03-14 21:05:03,37.08162,-121.59956,341.0,0.0,36.1,-12.6,,,,,0.0,10.7,-1.0,24.1,0.0,125.0,0.1,-0.01,1.0,,55.0,25.0,0.0,30.03,1370.0,,,330.0,,,,,0.0,0.0,,,,,,,,,,,,,,,,,,,0.0,13.0,88.0,88.0,30.1,0.0,,0.0,29.2,,,24.6,0.0,0.0,-0.8,6.2,4.7,,,,,14.0,15.0,15.0,15.0,15.0,15.0,15.0,15.0,,,12.0,2.2,,29.2,-10.0,4.998,,,1.302,0.845,0.0,12.8,,,,,,2026-03-14-N890GF-SN35347-17.4.0.23677-_2-USER_LOG_DATA.csv,,,,,,,77.0,55.4,,,,,57.2,59.0,59.0,59.0,59.0,59.0,59.0,59.0,,,55.04,88.0,58.55,0.7603896103896104,0.7194805194805195,0.00502777777777778,0.8433333333333333,401.0,True,2026-03-14 21:04:08 - Flight 4,
61.06,1.0,9.0,2026-03-14 21:05:04,37.08162,-121.59956,341.0,0.1,36.1,-12.6,,,,,0.0,10.7,-0.9,24.2,0.0,125.0,0.1,-0.01,0.9,,20.0,25.0,0.0,30.03,1370.0,,,330.0,,,,,0.0,0.0,,,,,,,,,,,,,,,,,,,1.0,16.0,625.0,625.0,24.9,0.7,,0.7,24.1,,,24.6,0.0,0.0,-0.7,6.2,4.7,,,,,17.0,33.0,17.0,28.0,18.0,39.0,18.0,34.0,,,13.0,1.9,,24.1,-12.0,4.998,,,1.302,0.846,1.3,15.8,,,,,,2026-03-14-N890GF-SN35347-17.4.0.23677-_2-USER_LOG_DATA.csv,,,,,,,77.0,60.8,,,,,62.6,91.4,62.6,82.4,64.4,102.2,64.4,93.2,,,60.440000000000005,625.0,63.5,0.8246753246753247,0.7896103896103895,0.005125000000000003,0.9276666666666666,401.0,True,2026-03-14 21:04:08 - Flight 4,
62.06,1.0,9.0,2026-03-14 21:05:05,37.08162,-121.59956,341.0,0.0,36.1,-12.6,,,,,0.0,10.6,-1.0,24.2,0.0,125.0,0.0,-0.01,1.0,,26.0,25.0,0.0,30.03,1379.0,,,330.0,,,,,0.0,0.0,,,,,,,,,,,,,,,,,,,4.0,17.0,721.0,721.0,21.6,1.3,,1.3,24.8,,,24.6,0.0,0.0,-0.7,6.2,4.7,,,,,18.0,82.0,18.0,60.0,19.0,87.0,19.0,80.0,,,14.0,1.7,,24.8,-12.0,4.998,,,1.304,0.846,3.6,16.9,,,,,,2026-03-14-N890GF-SN35347-17.4.0.23677-_2-USER_LOG_DATA.csv,,,,,,,77.0,62.6,,,,,64.4,179.6,64.4,140.0,66.2,188.6,66.2,176.0,,,62.42,721.0,65.30000000000001,0.8480519480519482,0.812987012987013,0.005402777777777781,1.012,401.0,True,2026-03-14 21:04:08 - Flight 4,
63.06,1.0,9.0,2026-03-14 21:05:06,37.08161,-121.59956,341.0,0.0,36.1,-12.6,,,,,0.0,10.7,-0.9,24.2,0.0,125.0,0.0,-0.02,1.0,,38.0,25.0,0.0,30.03,1379.0,,,330.0,,,,,0.0,0.0,,,,,,,,,,,,,,,,,,,7.0,17.0,753.0,753.0,20.2,1.8,,1.8,24.9,,,24.6,0.0,0.0,-0.7,6.2,4.7,,,,,18.0,127.0,18.0,86.0,19.0,133.0,19.0,124.0,,,14.0,1.6,,24.9,-11.0,4.998,,,1.302,0.846,6.8,16.9,,,,,,2026-03-14-N890GF-SN35347-17.4.0.23677-_2-USER_LOG_DATA.csv,,,,,,,77.0,62.6,,,,,64.4,260.6,64.4,186.8,66.2,271.4,66.2,255.2,,,62.42,753.0,65.30000000000001,0.8480519480519482,0.812987012987013,0.005833333333333336,1.012,401.0,True,2026-03-14 21:04:08 - Flight 4,
64.06,1.0,9.0,2026-03-14 21:05:07,37.08161,-121.59956,341.0,0.0,36.1,-12.6,,,,,0.0,10.7,-0.9,24.3,0.0,125.0,0.1,-0.01,1.0,,35.0,25.0,0.0,30.03,1379.0,,,330.0,,,,,0.0,0.0,,,,,,,,,,,,,,,,,,,11.0,17.0,816.0,816.0,19.3,2.2,,2.2,25.0,,,24.6,0.0,0.0,-0.7,6.2,4.7,,,,,18.0,166.0,18.0,115.0,19.0,173.0,20.0,162.0,,,14.0,1.4,,25.0,-11.0,4.998,,,1.302,0.847,11.2,16.9,,,,,,2026-03-14-N890GF-SN35347-17.4.0.23677-_2-USER_LOG_DATA.csv,,,,,,,77.0,62.6,,,,,64.4,330.8,64.4,239.0,66.2,343.4,68.0,323.6,,,62.42,816.0,65.75,0.8538961038961039,0.812987012987013,0.006388888888888892,1.012,401.0,True,2026-03-14 21:04:08 - Flight 4,
65.06,1.0,9.0,2026-03-14 21:05:08,37.0816,-121.59953,346.0,0.0,36.1,-12.6,,,,,0.0,10.7,-0.9,24.3,0.0,125.0,0.1,-0.01,1.0,,13.0,25.0,0.0,30.03,1379.0,,,330.0,,,,,0.0,0.0,,,,,,,,,,,,,,,,,,,17.0,17.0,848.0,848.0,18.2,2.7,,2.7,25.2,,,24.6,0.0,0.0,-0.7,6.2,4.7,,,,,19.0,202.0,19.0,137.0,20.0,207.0,20.0,197.0,,,14.0,1.3,,25.2,-11.0,4.998,,,1.302,0.846,17.0,16.9,,,,,,2026-03-14-N890GF-SN35347-17.4.0.23677-_2-USER_LOG_DATA.csv,,,,,,,77.0,62.6,,,,,66.2,395.6,66.2,278.6,68.0,404.6,68.0,386.6,,,62.42,848.0,67.1,0.8714285714285713,0.812987012987013,0.007069444444444448,1.012,401.0,True,2026-03-14 21:04:08 - Flight 4,
66.06,1.0,9.0,2026-03-14 21:05:09,37.0816,-121.59953,346.0,0.1,36.1,-12.6,,,,,0.0,10.7,-0.9,24.3,0.0,125.0,0.1,-0.02,0.9,,-1.0,25.0,0.0,30.03,1380.0,,,330.0,,,,,0.0,0.0,,,,,,,,,,,,,,,,,,,25.0,17.0,861.0,861.0,17.9,3.0,,3.0,25.2,,,24.6,0.0,0.0,-0.8,6.2,4.7,,,,,19.0,220.0,19.0,157.0,20.0,238.0,21.0,228.0,,,14.0,1.3,,25.2,-11.0,4.998,,,1.304,0.846,24.7,16.9,,,,,,2026-03-14-N890GF-SN35347-17.4.0.23677-_2-USER_LOG_DATA.csv,,,,,,,77.0,62.6,,,,,66.2,428.0,66.2,314.6,68.0,460.4,69.8,442.4,,,62.42,861.0,67.55,0.8772727272727272,0.812987012987013,0.007861111111111114,1.0963333333333334,401.0,True,2026-03-14 21:04:08 - Flight 4,
67.06,1.0,9.0,2026-03-14 21:05:10,37.0816,-121.59953,346.0,0.0,36.1,-12.6,,,,,0.0,10.7,-0.9,24.3,0.0,125.0,0.1,-0.01,1.0,,-28.0,25.0,0.0,30.03,1380.0,,,330.0,,,,,0.0,0.0,,,,,,,,,,,,,,,,,,,35.0,17.0,920.0,920.0,17.2,3.2,,3.2,25.6,,,24.6,0.0,0.0,-0.8,6.2,4.7,,,,,19.0,244.0,19.0,173.0,20.0,265.0,21.0,255.0,,,14.0,1.2,,25.6,-11.0,4.998,,,1.302,0.846,34.9,16.9,,,,,,2026-03-14-N890GF-SN35347-17.4.0.23677-_2-USER_LOG_DATA.csv,,,,,,,77.0,62.6,,,,,66.2,471.2,66.2,343.4,68.0,509.0,69.8,491.0,,,62.42,920.0,67.55,0.8772727272727272,0.812987012987013,0.008722222222222225,1.1806666666666665,401.0,True,2026-03-14 21:04:08 - Flight 4,
68.06,1.0,9.0,2026-03-14 21:05:11,37.0816,-121.59953,346.0,0.0,36.1,-12.6,,,,,0.0,10.7,-0.9,24.3,0.0,125.0,0.1,-0.01,1.0,,-63.0,25.0,0.0,30.03,1380.0,,,330.0,,,,,0.0,0.0,,,,,,,,,,,,,,,,,,,47.0,17.0,952.0,952.0,16.2,3.1,,3.1,25.6,,,24.6,0.0,0.0,-0.8,6.2,4.7,,,,,20.0,272.0,20.0,189.0,21.0,292.0,22.0,283.0,,,14.0,1.1,,25.6,-11.0,4.998,,,1.302,0.847,46.8,16.9,,,,,,2026-03-14-N890GF-SN35347-17.4.0.23677-_2-USER_LOG_DATA.csv,,,,,,,77.0,62.6,,,,,68.0,521.6,68.0,372.2,69.8,557.6,71.6,541.4,,,62.42,952.0,69.35,0.9006493506493506,0.812987012987013,0.009597222222222226,1.1806666666666665,401.0,True,2026-03-14 21:04:08 - Flight 4,
69.06,1.0,9.0,2026-03-14 21:05:12,37.08159,-121.59953,342.0,0.1,36.1,-12.6,,,,,0.0,10.7,-0.8,24.3,0.0,125.0,0.1,-0.02,0.9,,-68.0,25.0,0.0,30.03,1390.0,,,330.0,,,,,0.0,0.0,,,,,,,,,,,,,,,,,,,59.0,17.0,975.0,975.0,15.4,3.0,,3.0,25.6,,,24.6,0.0,0.0,-0.7,6.2,4.7,,,,,20.0,298.0,20.0,204.0,21.0,320.0,22.0,311.0,,,14.0,1.1,,25.6,-11.0,4.998,,,1.304,0.847,58.6,16.9,,,,,,2026-03-14-N890GF-SN35347-17.4.0.23677-_2-USER_LOG_DATA.csv,,,,,,,77.0,62.6,,,,,68.0,568.4,68.0,399.2,69.8,608.0,71.6,591.8,,,62.42,975.0,69.35,0.9006493506493506,0.812987012987013,0.010444444444444447,1.265,401.0,True,2026-03-14 21:04:08 - Flight 4,
70.06,1.0,9.0,2026-03-14 21:05:13,37.08159,-121.59953,342.0,0.0,36.1,-12.6,,,,,0.0,10.8,-0.9,24.3,0.0,125.0,0.1,-0.02,1.0,,-33.0,25.0,0.0,30.03,1390.0,,,330.0,,,,,0.0,0.0,,,,,,,,,,,,,,,,,,,67.0,17.0,954.0,954.0,14.8,2.9,,2.9,25.6,,,24.5,0.0,0.0,-0.8,6.2,4.7,,,,,20.0,320.0,20.0,226.0,21.0,343.0,23.0,337.0,,,14.0,1.1,,25.6,-11.0,4.998,,,1.302,0.847,67.3,16.9,,,,,,2026-03-14-N890GF-SN35347-17.4.0.23677-_2-USER_LOG_DATA.csv,,,,,,,77.0,62.6,,,,,68.0,608.0,68.0,438.8,69.8,649.4,73.4,638.6,,,62.42,954.0,69.8,0.9064935064935065,0.812987012987013,0.011263888888888891,1.3493333333333333,401.0,True,2026-03-14 21:04:08 - Flight 4,
71.06,1.0,9.0,2026-03-14 21:05:14,37.08159,-121.59953,342.0,0.0,36.1,-12.6,,,,,0.0,10.7,-0.8,24.3,0.0,125.0,0.1,-0.02,1.0,,-35.0,25.0,0.0,30.03,1390.0,,,330.0,,,,,0.0,0.0,,,,,,,,,,,,,,,,,,,72.0,17.0,928.0,928.0,14.7,2.7,,2.7,25.6,,,24.5,0.0,0.0,-0.8,6.2,4.7,,,,,21.0,339.0,21.0,253.0,22.0,362.0,23.0,359.0,,,14.0,1.0,,25.6,-11.0,4.998,,,1.302,0.847,72.2,16.9,,,,,,2026-03-14-N890GF-SN35347-17.4.0.23677-_2-USER_LOG_DATA.csv,,,,,,,77.0,62.6,,,,,69.8,642.2,69.8,487.4,71.6,683.6,73.4,678.2,,,62.42,928.0,71.15,0.9240259740259741,0.812987012987013,0.01204166666666667,1.3493333333333333,401.0,True,2026-03-14 21:04:08 - Flight 4,
72.06,1.0,9.0,2026-03-14 21:05:15,37.08159,-121.59954,345.0,0.0,36.1,-12.6,,,,,0.0,10.7,-0.9,24.4,0.0,125.0,0.1,-0.02,1.0,,-6.0,25.0,0.0,30.03,1390.0,,,330.0,,,,,0.0,0.0,,,,,,,,,,,,,,,,,,,75.0,17.0,933.0,933.0,14.6,2.6,,2.6,25.6,,,24.5,0.0,0.0,-0.7,6.2,4.7,,,,,21.0,356.0,21.0,281.0,23.0,379.0,24.0,379.0,,,14.0,1.0,,25.6,-11.0,4.998,,,1.302,0.847,74.5,16.9,,,,,,2026-03-14-N890GF-SN35347-17.4.0.23677-_2-USER_LOG_DATA.csv,,,,,,,77.0,62.6,,,,,69.8,672.8,69.8,537.8,73.4,714.2,75.2,714.2,,,62.42,933.0,72.05000000000001,0.9357142857142858,0.812987012987013,0.01277777777777778,1.3493333333333333,401.0,True,2026-03-14 21:04:08 - Flight 4,
73.06,1.0,9.0,2026-03-14 21:05:16,37.08158,-121.59954,345.0,0.1,36.1,-12.6,,,,,0.0,10.6,-0.9,24.3,0.0,125.0,0.1,-0.02,1.0,,-28.0,25.0,0.0,30.03,1390.0,,,330.0,,,,,0.0,0.0,,,,,,,5.0,,,0.0,,,,,,,,,75.0,18.0,890.0,890.0,14.7,2.5,,2.5,25.6,,,24.5,0.0,0.0,19.6,6.2,4.7,,,,,22.0,370.0,22.0,304.0,23.0,394.0,25.0,397.0,,,14.0,1.0,,25.6,-11.0,4.998,,,1.304,0.847,75.3,17.7,,,,,,2026-03-14-N890GF-SN35347-17.4.0.23677-_2-USER_LOG_DATA.csv,,,,,,,77.0,64.4,,,,,71.6,698.0,71.6,579.2,73.4,741.2,77.0,746.6,,,63.86,890.0,73.4,0.9532467532467533,0.8363636363636364,0.013486111111111114,1.4336666666666666,401.0,True,2026-03-14 21:04:08 - Flight 4,
74.06,1.0,9.0,2026-03-14 21:05:17,37.08158,-121.59954,346.0,0.0,36.1,-12.6,,,,,0.0,10.6,-0.9,24.2,0.0,125.0,0.1,-0.02,1.0,,-36.0,25.0,0.0,30.03,1390.0,,,330.0,,,,,0.0,0.0,,,,,,,5.0,,,0.0,,,,,,,,,76.0,18.0,891.0,891.0,14.9,2.4,,2.4,25.5,,,24.5,0.0,0.0,33.8,6.2,4.7,,,,,23.0,383.0,22.0,324.0,24.0,408.0,26.0,411.0,,,14.0,1.0,,25.5,-11.0,4.998,,,1.302,0.847,75.6,17.7,,,,,,2026-03-14-N890GF-SN35347-17.4.0.23677-_2-USER_LOG_DATA.csv,,,,,,,77.0,64.4,,,,,73.4,721.4,71.6,615.2,75.2,766.4,78.8,771.8,,,63.86,891.0,74.75,0.9707792207792207,0.8363636363636364,0.01416666666666667,1.518,401.0,True,2026-03-14 21:04:08 - Flight 4,
75.06,1.0,9.0,2026-03-14 21:05:18,37.08158,-121.59954,346.0,0.0,36.1,-12.6,,,,,0.0,10.6,-0.9,24.2,0.0,125.0,0.1,-0.02,1.0,,-39.0,25.0,0.0,30.03,1400.0,,,330.0,,,,,0.0,0.0,,,,,,,5.0,,,0.0,,,,,,,,,76.0,18.0,897.0,897.0,14.9,2.3,,2.3,25.6,,,24.5,0.0,0.0,42.1,6.2,4.7,,,,,23.0,395.0,23.0,340.0,24.0,420.0,26.0,424.0,,,14.0,1.0,,25.6,-11.0,4.998,,,1.302,0.847,75.7,17.7,,,,,,2026-03-14-N890GF-SN35347-17.4.0.23677-_2-USER_LOG_DATA.csv,,,,,,,77.0,64.4,,,,,73.4,743.0,73.4,644.0,75.2,788.0,78.8,795.2,,,63.86,897.0,75.2,0.9766233766233766,0.8363636363636364,0.014819444444444448,1.518,401.0,True,2026-03-14 21:04:08 - Flight 4,
76.06,1.0,9.0,2026-03-14 21:05:19,37.08158,-121.59954,346.0,0.1,36.1,-12.6,,,,,0.0,10.6,-0.8,24.2,0.0,125.0,0.1,-0.02,1.0,,-28.0,25.0,0.0,30.03,1400.0,,,330.0,,,,,0.0,0.0,,,,,,,5.0,,,0.0,,,,,3.0,0.0,0.0,1200.0,76.0,18.0,910.0,910.0,14.9,2.2,,2.2,25.6,,,24.5,0.0,0.0,46.3,6.2,4.7,,,,,23.0,406.0,23.0,355.0,24.0,430.0,27.0,436.0,,,14.0,1.0,,25.6,-11.0,4.998,,,1.304,0.847,76.0,17.6,,,,,,2026-03-14-N890GF-SN35347-17.4.0.23677-_2-USER_LOG_DATA.csv,,,,,,,77.0,64.4,,,,,73.4,762.8,73.4,671.0,75.2,806.0,80.6,816.8,,,63.68,910.0,75.65,0.9824675324675325,0.8363636363636364,0.015444444444444448,1.6023333333333332,401.0,True,2026-03-14 21:04:08 - Flight 4,
77.06,1.0,9.0,2026-03-14 21:05:20,37.08158,-121.59954,346.0,0.1,36.1,-12.6,,,,,0.0,10.7,-0.8,24.2,0.0,125.0,0.1,-0.02,1.0,,15.0,25.0,0.0,30.03,1400.0,,,330.0,,,,,0.0,0.0,,,,,,,5.0,,,1.0,,,,,3.0,0.0,0.0,1200.0,76.0,17.0,919.0,919.0,14.8,2.2,,2.2,25.6,,,24.5,0.0,0.0,43.8,6.2,4.7,,,,,24.0,416.0,24.0,368.0,25.0,440.0,27.0,447.0,,,14.0,1.0,,25.6,-11.0,4.998,,,1.302,0.846,76.1,17.5,,,,,,2026-03-14-N890GF-SN35347-17.4.0.23677-_2-USER_LOG_DATA.csv,,,,,,,77.0,62.6,,,,,75.2,780.8,75.2,694.4,77.0,824.0,80.6,836.6,,,63.5,919.0,77.0,1.0,0.812987012987013,0.01605555555555556,1.771,401.0,True,2026-03-14 21:04:08 - Flight 4,
78.06,1.0,9.0,2026-03-14 21:05:21,37.08158,-121.59954,346.0,0.0,36.1,-12.6,,,,,0.0,10.7,-1.0,24.2,0.0,125.0,0.1,-0.02,1.0,,-1.0,25.0,0.0,30.03,1399.0,,,330.0,,,,,0.0,0.0,,,,,,,5.0,,,0.0,,,,,1.0,0.0,0.0,1200.0,76.0,17.0,934.0,934.0,14.5,2.2,,2.2,25.6,,,24.5,0.0,0.0,39.1,6.2,4.7,,,,,24.0,425.0,24.0,380.0,25.0,450.0,28.0,458.0,,,14.0,1.0,,25.6,-11.0,4.998,,,1.302,0.847,76.3,17.4,,,,,,2026-03-14-N890GF-SN35347-17.4.0.23677-_2-USER_LOG_DATA.csv,,,,,,,77.0,62.6,,,,,75.2,797.0,75.2,716.0,77.0,842.0,82.4,856.4,,,63.32,934.0,77.45,1.005844155844156,0.812987012987013,0.01666666666666667,1.8553333333333333,401.0,True,2026-03-14 21:04:08 - Flight 4,
79.06,1.0,9.0,2026-03-14 21:05:22,37.08157,-121.59955,346.0,0.1,36.1,-12.6,,,,,0.0,10.7,-0.9,24.1,0.0,125.0,0.1,-0.02,1.0,,9.0,26.0,0.0,30.03,1400.0,,,330.0,,,,,0.0,0.0,,,,,,,5.0,,,0.0,,,,,1.0,0.0,0.0,1200.0,76.0,17.0,938.0,938.0,14.4,2.2,,2.2,25.6,,,24.5,0.0,0.0,33.9,6.2,4.7,,,,,25.0,433.0,25.0,392.0,26.0,459.0,28.0,469.0,,,14.0,1.0,,25.6,-11.0,4.998,,,1.304,0.846,76.4,17.3,,,,,,2026-03-14-N890GF-SN35347-17.4.0.23677-_2-USER_LOG_DATA.csv,,,,,,,78.8,62.6,,,,,77.0,811.4,77.0,737.6,78.8,858.2,82.4,876.2,,,63.14,938.0,78.8,1.0,0.7944162436548223,0.01727777777777778,1.9396666666666667,401.0,True,2026-03-14 21:04:08 - Flight 4,
80.06,1.0,8.0,2026-03-14 21:05:23,37.08157,-121.59955,339.0,0.1,36.1,-12.6,,,,,0.0,10.7,-1.0,24.1,0.0,125.0,0.1,-0.02,1.0,,38.0,26.0,0.0,30.03,1400.0,,,330.0,,,,,0.0,0.0,,,,,,,5.0,,,0.0,,,,,,,,,77.0,17.0,954.0,954.0,14.2,2.1,,2.1,25.6,,,24.5,0.0,0.0,29.0,6.2,4.7,,,,,25.0,441.0,25.0,404.0,26.0,469.0,29.0,478.0,,,14.0,1.0,,25.6,-11.0,4.998,,,1.304,0.846,76.5,17.3,,,,,,2026-03-14-N890GF-SN35347-17.4.0.23677-_2-USER_LOG_DATA.csv,,,,,,,78.8,62.6,,,,,77.0,825.8,77.0,759.2,78.8,876.2,84.2,892.4,,,63.14,954.0,79.25,1.0057106598984773,0.7944162436548223,0.017875000000000002,2.1083333333333334,401.0,True,2026-03-14 21:04:08 - Flight 4,
81.06,1.0,8.0,2026-03-14 21:05:24,37.08157,-121.59955,339.0,0.0,36.1,-12.6,,,,,0.0,10.7,-0.9,24.1,0.0,125.0,0.1,-0.02,1.0,,36.0,26.0,0.0,30.03,1400.0,,,330.0,,,,,0.0,0.0,,,,,,,5.0,,,0.0,,,,,,,,,77.0,17.0,955.0,955.0,14.2,2.1,,2.1,25.6,,,24.5,0.0,0.0,24.7,6.2,4.7,,,,,25.0,447.0,25.0,415.0,26.0,477.0,29.0,487.0,,,14.0,1.0,,25.6,-11.0,4.998,,,1.302,0.847,76.6,17.2,,,,,,2026-03-14-N890GF-SN35347-17.4.0.23677-_2-USER_LOG_DATA.csv,,,,,,,78.8,62.6,,,,,77.0,836.6,77.0,779.0,78.8,890.6,84.2,908.6,,,62.959999999999994,955.0,79.25,1.0057106598984773,0.7944162436548223,0.018458333333333337,2.1926666666666668,401.0,True,2026-03-14 21:04:08 - Flight 4,
82.06,1.0,8.0,2026-03-14 21:05:25,37.08157,-121.59956,339.0,0.0,36.1,-12.6,,,,,0.0,10.7,-0.9,24.2,0.0,125.0,0.1,-0.02,1.0,,19.0,26.0,0.0,30.03,1409.0,,,330.0,,,,,0.0,0.0,,,,,,,5.0,,,0.0,,,,,,,,,77.0,17.0,937.0,937.0,14.2,2.1,,2.1,25.6,,,24.5,0.0,0.0,21.2,6.2,4.7,,,,,25.0,454.0,26.0,425.0,27.0,489.0,30.0,497.0,,,14.0,1.0,,25.6,-11.0,4.998,,,1.302,0.845,76.5,17.2,,,,,,2026-03-14-N890GF-SN35347-17.4.0.23677-_2-USER_LOG_DATA.csv,,,,,,,78.8,62.6,,,,,77.0,849.2,78.8,797.0,80.6,912.2,86.0,926.6,,,62.959999999999994,937.0,80.6,1.0228426395939085,0.7944162436548223,0.01904166666666667,2.1926666666666668,401.0,True,2026-03-14 21:04:08 - Flight 4,
83.06,1.0,8.0,2026-03-14 21:05:26,37.08157,-121.59956,339.0,0.0,36.1,-12.6,,,,,0.0,10.7,-0.9,24.2,0.0,125.0,0.1,-0.02,1.0,,21.0,26.0,0.0,30.03,1409.0,,,330.0,,,,,0.0,0.0,,,,,,,5.0,,,1.0,,,,,,,,,77.0,17.0,959.0,959.0,14.2,2.1,,2.1,25.6,,,24.5,0.0,0.0,18.6,6.2,4.7,,,,,26.0,460.0,26.0,434.0,27.0,498.0,30.0,504.0,,,14.0,1.0,,25.6,-11.0,4.998,,,1.302,0.846,76.7,17.2,,,,,,2026-03-14-N890GF-SN35347-17.4.0.23677-_2-USER_LOG_DATA.csv,,,,,,,78.8,62.6,,,,,78.8,860.0,78.8,813.2,80.6,928.4,86.0,939.2,,,62.959999999999994,959.0,81.05,1.0285532994923858,0.7944162436548223,0.019625000000000004,2.1926666666666668,401.0,True,2026-03-14 21:04:08 - Flight 4,
84.06,1.0,8.0,2026-03-14 21:05:27,37.08157,-121.59956,339.0,0.0,36.1,-12.6,,,,,0.0,10.7,-0.9,24.2,0.0,125.0,0.1,-0.02,1.0,,28.0,26.0,0.0,30.03,1409.0,,,330.0,,,,,0.0,0.0,,,,,,,5.0,,,1.0,,,,,,,,,77.0,17.0,976.0,976.0,13.9,2.0,,2.0,25.7,,,24.5,0.0,0.0,16.4,6.2,4.7,,,,,27.0,465.0,27.0,441.0,28.0,505.0,31.0,512.0,,,15.0,0.0,,25.7,-11.0,4.998,,,1.302,0.846,76.9,17.1,,,,,,2026-03-14-N890GF-SN35347-17.4.0.23677-_2-USER_LOG_DATA.csv,,,,,,,78.8,62.6,,,,,80.6,869.0,80.6,825.8,82.4,941.0,87.8,953.6,,,62.78,976.0,82.85,1.0513959390862944,0.7944162436548223,0.02019444444444445,2.1926666666666668,401.0,True,2026-03-14 21:04:08 - Flight 4,
85.06,1.0,8.0,2026-03-14 21:05:28,37.08156,-121.59955,340.0,0.0,36.1,-12.6,,,,,0.0,10.7,-1.0,24.2,0.0,125.0,0.1,-0.02,1.0,,54.0,26.0,0.0,30.03,1410.0,,,330.0,,,,,0.0,0.0,,,,,,,5.0,,,1.0,,,,,,,,,77.0,17.0,935.0,935.0,13.8,2.0,,2.0,25.6,,,24.5,0.0,0.0,14.8,6.2,4.7,,,,,27.0,471.0,27.0,449.0,28.0,516.0,32.0,519.0,,,15.0,0.0,,25.6,-11.0,4.998,,,1.304,0.846,76.8,17.1,,,,,,2026-03-14-N890GF-SN35347-17.4.0.23677-_2-USER_LOG_DATA.csv,,,,,,,78.8,62.6,,,,,80.6,879.8,80.6,840.2,82.4,960.8,89.6,966.2,,,62.78,935.0,83.3,1.0571065989847717,0.7944162436548223,0.020750000000000005,2.1926666666666668,401.0,True,2026-03-14 21:04:08 - Flight 4,
86.06,2.0,8.0,2026-03-14 21:05:29,37.08156,-121.59955,338.0,0.0,36.1,-12.6,,,,,0.0,10.7,-1.0,24.2,0.0,125.0,0.1,-0.02,1.0,,51.0,26.0,0.0,30.03,1410.0,,,330.0,,,,,0.0,0.0,,,,,,,5.0,,,1.0,,,,,,,,,77.0,17.0,962.0,962.0,14.0,2.0,,2.0,25.6,,,24.5,0.0,0.0,13.4,6.2,4.7,,,,,27.0,475.0,28.0,457.0,29.0,527.0,32.0,526.0,,,14.0,0.0,,25.6,-11.0,4.998,,,1.302,0.846,76.8,17.1,,,,,,2026-03-14-N890GF-SN35347-17.4.0.23677-_2-USER_LOG_DATA.csv,,,,,,,78.8,62.6,,,,,80.6,887.0,82.4,854.6,84.2,980.6,89.6,978.8,,,62.78,962.0,84.20000000000002,1.068527918781726,0.7944162436548223,0.02130555555555556,2.1926666666666668,401.0,True,2026-03-14 21:04:08 - Flight 4,
87.06,2.0,8.0,2026-03-14 21:05:30,37.08156,-121.59955,338.0,0.0,36.1,-12.6,,,,,0.0,10.7,-0.9,24.2,0.0,125.0,0.1,-0.02,1.0,,39.0,26.0,0.0,30.03,1410.0,,,330.0,,,,,0.0,0.0,,,,,,,5.0,,,1.0,,,,,,,,,77.0,17.0,962.0,962.0,13.9,2.0,,2.0,25.6,,,24.5,0.0,0.0,12.3,6.2,4.7,,,,,28.0,481.0,28.0,463.0,29.0,532.0,32.0,534.0,,,14.0,0.0,,25.6,-11.0,4.998,,,1.304,0.846,76.9,17.1,,,,,,2026-03-14-N890GF-SN35347-17.4.0.23677-_2-USER_LOG_DATA.csv,,,,,,,78.8,62.6,,,,,82.4,897.8,82.4,865.4,84.2,989.6,89.6,993.2,,,62.78,962.0,84.65,1.0742385786802031,0.7944162436548223,0.021861111111111116,2.1926666666666668,401.0,True,2026-03-14 21:04:08 - Flight 4,
88.06,2.0,8.0,2026-03-14 21:05:31,37.08156,-121.59955,339.0,0.0,36.1,-12.6,,,,,0.0,10.7,-0.9,24.3,0.0,125.0,0.1,-0.02,1.0,,50.0,26.0,0.0,30.03,1420.0,,,330.0,,,,,0.0,0.0,,,,,,,5.0,,,1.0,,,,,,,,,77.0,17.0,973.0,973.0,13.8,2.0,,2.0,25.7,,,24.5,0.0,0.0,11.1,6.2,4.7,,,,,28.0,486.0,29.0,470.0,30.0,539.0,33.0,539.0,,,14.0,0.0,,25.7,-11.0,4.998,,,1.302,0.846,77.0,17.1,,,,,,2026-03-14-N890GF-SN35347-17.4.0.23677-_2-USER_LOG_DATA.csv,,,,,,,78.8,62.6,,,,,82.4,906.8,84.2,878.0,86.0,1002.2,91.4,1002.2,,,62.78,973.0,86.0,1.0913705583756346,0.7944162436548223,0.02241666666666667,2.1926666666666668,401.0,True,2026-03-14 21:04:08 - Flight 4,
89.06,2.0,9.0,2026-03-14 21:05:32,37.08155,-121.59956,338.0,0.1,36.1,-12.6,,,,,0.0,10.7,-0.9,24.2,0.0,125.0,0.0,-0.02,1.1,,26.0,26.0,0.0,30.03,1420.0,,,330.0,,,,,0.0,0.0,,,,,,,-3.0,,,99.0,,,,,,,,,77.0,17.0,994.0,994.0,13.6,2.0,,2.0,25.6,,,24.5,0.0,0.0,10.0,6.2,4.7,,,,,29.0,490.0,29.0,477.0,30.0,543.0,34.0,544.0,,,14.0,0.0,,25.6,-11.0,4.998,,,1.302,0.845,77.1,17.1,,,,,,2026-03-14-N890GF-SN35347-17.4.0.23677-_2-USER_LOG_DATA.csv,,,,,,,78.8,62.6,,,,,84.2,914.0,84.2,890.6,86.0,1009.4,93.2,1011.2,,,62.78,994.0,86.89999999999999,1.1027918781725887,0.7944162436548223,0.022972222222222227,2.2769999999999997,401.0,True,2026-03-14 21:04:08 - Flight 4,
90.06,2.0,9.0,2026-03-14 21:05:33,37.08155,-121.59956,337.0,0.1,36.1,-12.6,,,,,0.0,10.7,-0.8,24.3,0.0,125.0,0.1,-0.02,1.0,,51.0,26.0,0.0,30.03,1420.0,,,330.0,,,,,0.0,0.0,,,,,,,-41.0,,,71.0,,,,,,,,,77.0,17.0,997.0,997.0,13.5,2.0,,2.0,25.6,,,24.5,0.0,0.0,9.2,6.2,4.7,,,,,29.0,494.0,30.0,482.0,31.0,547.0,34.0,548.0,,,14.0,0.0,,25.6,-11.0,4.998,,,1.302,0.845,77.1,17.1,,,,,,2026-03-14-N890GF-SN35347-17.4.0.23677-_2-USER_LOG_DATA.csv,,,,,,,78.8,62.6,,,,,84.2,921.2,86.0,899.6,87.8,1016.6,93.2,1018.4,,,62.78,997.0,87.8,1.114213197969543,0.7944162436548223,0.023527777777777783,2.4456666666666664,401.0,True,2026-03-14 21:04:08 - Flight 4,
91.06,2.0,9.0,2026-03-14 21:05:34,37.08155,-121.59956,337.0,0.0,36.1,-12.6,,,,,0.0,10.7,-0.8,24.2,0.0,125.0,0.0,-0.02,1.0,,38.0,26.0,0.0,30.03,1420.0,,,330.0,,,,,0.0,0.0,,,,,,,-13.0,,,53.0,,,,,,,,,77.0,17.0,1008.0,1008.0,13.4,2.0,,2.0,25.7,,,24.5,0.0,0.0,8.5,6.2,4.7,,,,,30.0,498.0,30.0,489.0,31.0,551.0,35.0,553.0,,,14.0,0.0,,25.7,-11.0,4.998,,,1.304,0.845,77.2,17.1,,,,,,2026-03-14-N890GF-SN35347-17.4.0.23677-_2-USER_LOG_DATA.csv,,,,,,,78.8,62.6,,,,,86.0,928.4,86.0,912.2,87.8,1023.8,95.0,1027.4,,,62.78,1008.0,88.7,1.1256345177664975,0.7944162436548223,0.02408333333333334,2.53,401.0,True,2026-03-14 21:04:08 - Flight 4,
92.06,2.0,9.0,2026-03-14 21:05:35,37.08155,-121.59956,337.0,0.1,36.1,-12.6,,,,,0.0,10.7,-0.8,24.2,0.0,125.0,0.0,-0.02,0.9,,24.0,26.0,0.0,30.03,1420.0,,,330.0,,,,,0.0,0.0,,,,,,,-11.0,,,51.0,,,,,,,,,77.0,17.0,995.0,995.0,13.3,2.0,,2.0,25.7,,,24.5,0.0,0.0,8.4,6.2,4.7,,,,,30.0,501.0,31.0,494.0,32.0,554.0,35.0,558.0,,,14.0,0.0,,25.7,-11.0,4.998,,,1.302,0.845,77.2,17.1,,,,,,2026-03-14-N890GF-SN35347-17.4.0.23677-_2-USER_LOG_DATA.csv,,,,,,,78.8,62.6,,,,,86.0,933.8,87.8,921.2,89.6,1029.2,95.0,1036.4,,,62.78,995.0,89.6,1.1370558375634519,0.7944162436548223,0.02463888888888889,2.614333333333333,401.0,True,2026-03-14 21:04:08 - Flight 4,
93.06,2.0,9.0,2026-03-14 21:05:36,37.08155,-121.59956,337.0,0.1,36.1,-12.6,,,,,0.0,10.7,-0.8,24.3,0.0,125.0,0.1,-0.02,1.0,,-28.0,26.0,0.0,30.03,1420.0,,,330.0,,,,,0.0,0.0,,,,,,,-11.0,,,51.0,,,,,,,,,77.0,17.0,997.0,997.0,13.2,2.0,,2.0,25.6,,,24.5,0.0,0.0,7.8,6.2,4.7,,,,,31.0,505.0,31.0,499.0,32.0,557.0,36.0,563.0,,,14.0,0.0,,25.6,-11.0,4.998,,,1.302,0.845,77.2,17.1,,,,,,2026-03-14-N890GF-SN35347-17.4.0.23677-_2-USER_LOG_DATA.csv,,,,,,,78.8,62.6,,,,,87.8,941.0,87.8,930.2,89.6,1034.6,96.8,1045.4,,,62.78,997.0,90.5,1.1484771573604062,0.7944162436548223,0.025194444444444446,2.783,401.0,True,2026-03-14 21:04:08 - Flight 4,
94.06,2.0,9.0,2026-03-14 21:05:37,37.08154,-121.59956,337.0,0.0,36.1,-12.6,,,,,0.0,10.7,-0.8,24.3,0.0,125.0,0.1,-0.01,1.0,,-31.0,26.0,0.0,30.03,1420.0,,,330.0,,,,,0.0,0.0,,,,,,,-10.0,,,51.0,,,,,,,,,77.0,17.0,1005.0,1005.0,13.2,2.0,,2.0,25.6,,,24.5,0.0,0.0,7.3,6.2,4.7,,,,,31.0,507.0,32.0,504.0,33.0,561.0,37.0,566.0,,,14.0,0.0,,25.6,-11.0,4.998,,,1.302,0.842,77.2,17.1,,,,,,2026-03-14-N890GF-SN35347-17.4.0.23677-_2-USER_LOG_DATA.csv,,,,,,,78.8,62.6,,,,,87.8,944.6,89.6,939.2,91.4,1041.8,98.6,1050.8,,,62.78,1005.0,91.85000000000001,1.1656091370558377,0.7944162436548223,0.025750000000000002,2.8673333333333333,401.0,True,2026-03-14 21:04:08 - Flight 4,
95.06,2.0,9.0,2026-03-14 21:05:38,37.08154,-121.59956,339.0,0.0,36.1,-12.6,,,,,0.0,10.7,-0.9,24.3,0.0,125.0,0.1,-0.02,1.0,,37.0,26.0,0.0,30.03,1420.0,,,330.0,,,,,0.0,0.0,,,,,,,-9.0,,,50.0,,,,,,,,,77.0,17.0,1005.0,1005.0,13.1,2.0,,2.0,25.7,,,24.5,0.0,0.0,6.9,6.2,4.7,,,,,32.0,512.0,33.0,508.0,33.0,563.0,37.0,569.0,,,14.0,0.0,,25.7,-11.0,4.998,,,1.302,0.841,77.2,17.1,,,,,,2026-03-14-N890GF-SN35347-17.4.0.23677-_2-USER_LOG_DATA.csv,,,,,,,78.8,62.6,,,,,89.6,953.6,91.4,946.4,91.4,1045.4,98.6,1056.2,,,62.78,1005.0,92.75,1.1770304568527918,0.7944162436548223,0.026305555555555558,2.8673333333333333,401.0,True,2026-03-14 21:04:08 - Flight 4,
96.06,2.0,9.0,2026-03-14 21:05:39,37.08154,-121.59956,340.0,0.0,36.1,-12.6,,,,,0.0,10.7,-0.9,24.3,0.0,125.0,0.1,-0.02,1.0,,41.0,26.0,0.0,30.03,1430.0,,,330.0,,,,,0.0,0.0,,,,,,,-9.0,,,50.0,,,,,,,,,77.0,17.0,1006.0,1006.0,13.0,2.0,,2.0,25.6,,,24.5,0.0,0.0,6.7,6.2,4.7,,,,,32.0,516.0,33.0,512.0,34.0,566.0,38.0,572.0,,,15.0,0.0,,25.6,-11.0,4.998,,,1.302,0.841,77.3,17.2,,,,,,2026-03-14-N890GF-SN35347-17.4.0.23677-_2-USER_LOG_DATA.csv,,,,,,,78.8,62.6,,,,,89.6,960.8,91.4,953.6,93.2,1050.8,100.4,1061.6,,,62.959999999999994,1006.0,93.65,1.1884517766497462,0.7944162436548223,0.026861111111111113,2.8673333333333333,401.0,True,2026-03-14 21:04:08 - Flight 4,
