Session Time,GPS Fix Quality,Number of Satellites,GPS Date & Time,Latitude (deg),Longitude (deg),GPS Altitude (feet),Ground Speed (knots),Ground Track (deg),Mag Var (deg),Cross Track Error (NM),Destination Waypoint ID,Range to Destination (NM),Bearing to Destination (deg),System Time,Pitch (deg),Roll (deg),Magnetic Heading (deg),Indicated Airspeed (knots),Pressure Altitude (ft),Turn Rate (deg/s),Lateral Accel (g),Vertical Accel(g),Angle of Attack (%),Vertical Speed (ft/min),OAT (deg C),True Airspeed (knots),Barometer Setting (inHg),Density Altitude (ft),Wind Direction (deg),Wind Speed (knots),Heading Bug (deg),Altitude Bug (ft),Airspeed Bug (knots),Vertical Speed Bug (ft/min),Course (deg),CDI Source Type,CDI Source Port,CDI Scale (NM),CDI Deflection (%),Glideslope (%),AP Engaged,AP Roll Mode,AP Roll Force,AP Roll Position (steps),AP Roll Slip (bool),AP Pitch Force,AP Pitch Position (steps),AP Pitch Slip (bool),AP Yaw Force,AP Yaw Position,AP Yaw Slip (bool),Transponder Status,Transponder Reply (bool),Transponder Identing (bool),Transponder Code (octal),Oil Pressure (PSI),Oil Temp (deg C),RPM L,RPM R,Manifold Pressure (inHg),Fuel Flow 1 (gal/hr),Fuel Flow 2 (gal/hr),Total Fuel Flow (gal/hr),Fuel Pressure (PSI),Fuel Level L (gal),Fuel Level R (gal),Fuel Remaining (gal),Volts 1,Volts 2,Amps,Hobbs Time,Tach Time,Thermocouple 1 (deg C),Thermocouple 2 (deg C),Thermocouple 3 (deg C),Thermocouple 4 (deg C),CHT 4 (deg C),EGT 4 (deg C),CHT 3 (deg C),EGT 3 (deg C),CHT 2 (deg C),EGT 2 (deg C),CHT 1 (deg C),EGT 1 (deg C),Thermocouple 13 (deg C),Thermocouple 14 (deg C),ELEV POSITION (%),CO PPM PRESSURE (PSI),GP Input 3,FUEL PRESSURE (PSI),AILERN POSITION (%),CANOPY CONTACT (V),GP Input 7,GP Input 8,LEFT LEVEL (Sensor V),RIGHT LEVEL (Sensor V),OIL PRESSURE (PSI),OIL TEMPERATURE (deg C),GP Input 13,Contacts,Percent Power,EGT Leaning State,Unnamed: 103,source_file,Unnamed: 0,press_alt,ias,hdg,gps_gs,gps_trk,OAT (deg F),Oil Temp (deg F),Thermocouple 1 (deg F),Thermocouple 2 (deg F),Thermocouple 3 (deg F),Thermocouple 4 (deg F),CHT 4 (deg F),EGT 4 (deg F),CHT 3 (deg F),EGT 3 (deg F),CHT 2 (deg F),EGT 2 (deg F),CHT 1 (deg F),EGT 1 (deg F),Thermocouple 13 (deg F),Thermocouple 14 (deg F),OIL TEMPERATURE (deg F),RPM,AVG_CHT,CHT_OAT_Ratio,OIL_OAT_Ratio,Fuel Flow Integral,Distance Traveled,Max CHT,Engine Run,Flight ID,efficiency
5.06,0.0,0.0,2026-02-28 18:59:48,37.82929,-121.62609,,0.1,332.8,-17.4,,,,,0.0,10.3,-0.5,53.2,0.0,43.0,-0.0,-0.01,1.0,,-44.0,34.0,0.0,29.92,2287.0,,,334.0,,,,,0.0,0.0,,,,,,,,,,,,,,,,,,,0.0,80.0,0.0,0.0,30.3,0.0,,0.0,2.9,,,20.6,0.0,0.0,-0.4,3.5,2.2,,,,,94.0,58.0,95.0,62.0,95.0,64.0,94.0,63.0,,,13.0,254.1,,2.9,16.0,4.995,,,0.929,1.564,0.0,79.8,,,,,,2026-02-28-N890GF-SN35347-17.4.0.23677-USER_LOG_DATA.csv,,,,,,,93.2,176.0,,,,,201.2,136.4,203.0,143.6,203.0,147.2,201.2,145.4,,,175.64,0.0,202.10000000000002,2.168454935622318,1.888412017167382,0.0,0.0,417.2,True,2026-02-28 18:59:48 - Flight 15,
6.06,1.0,8.0,2026-02-28 18:59:49,37.82919,-121.62608,138.0,0.2,332.8,-12.8,,,,,0.0,10.3,-0.5,53.2,0.0,42.0,-0.0,-0.01,1.0,,-55.0,34.0,0.0,29.92,2283.0,,,334.0,,,,,0.0,0.0,,,,,,,,,,,,,,,,,,,0.0,80.0,0.0,0.0,30.3,0.0,,0.0,2.9,,,20.6,0.0,0.0,-0.4,3.5,2.2,,,,,94.0,58.0,95.0,62.0,94.0,64.0,94.0,63.0,,,13.0,254.1,,2.9,17.0,4.995,,,0.929,1.562,0.0,79.8,,,,,,2026-02-28-N890GF-SN35347-17.4.0.23677-USER_LOG_DATA.csv,,,,,,,93.2,176.0,,,,,201.2,136.4,203.0,143.6,201.2,147.2,201.2,145.4,,,175.64,0.0,201.64999999999998,2.1636266094420598,1.888412017167382,0.0,0.253,417.2,True,2026-02-28 18:59:48 - Flight 15,
7.06,1.0,8.0,2026-02-28 18:59:50,37.82919,-121.62608,109.0,0.0,332.8,-12.8,,,,,0.0,10.3,-0.5,53.3,0.0,42.0,0.0,-0.01,1.0,,-37.0,34.0,0.0,29.92,2283.0,,,334.0,,,,,0.0,0.0,,,,,,,,,,,,,,,,,,,0.0,80.0,0.0,0.0,30.3,0.0,,0.0,2.9,,,20.6,0.0,0.0,-0.4,3.5,2.2,,,,,94.0,58.0,95.0,62.0,95.0,64.0,94.0,63.0,,,13.0,254.1,,2.9,17.0,4.995,,,0.929,1.564,0.0,79.8,,,,,,2026-02-28-N890GF-SN35347-17.4.0.23677-USER_LOG_DATA.csv,,,,,,,93.2,176.0,,,,,201.2,136.4,203.0,143.6,203.0,147.2,201.2,145.4,,,175.64,0.0,202.10000000000002,2.168454935622318,1.888412017167382,0.0,0.42166666666666663,417.2,True,2026-02-28 18:59:48 - Flight 15,
8.06,1.0,8.0,2026-02-28 18:59:51,37.82919,-121.62608,107.0,0.0,332.8,-12.8,,,,,0.0,10.3,-0.5,53.3,0.0,41.0,0.0,-0.01,1.0,,-35.0,34.0,0.0,29.92,2282.0,,,334.0,,,,,0.0,0.0,,,,,,,,,,,,,,,,,,,0.0,80.0,0.0,0.0,30.3,0.0,,0.0,2.9,,,20.6,0.0,0.0,-0.4,3.5,2.2,,,,,94.0,58.0,95.0,62.0,94.0,64.0,94.0,63.0,,,13.0,254.1,,2.9,17.0,4.995,,,0.929,1.564,0.0,79.8,,,,,,2026-02-28-N890GF-SN35347-17.4.0.23677-USER_LOG_DATA.csv,,,,,,,93.2,176.0,,,,,201.2,136.4,203.0,143.6,201.2,147.2,201.2,145.4,,,175.64,0.0,201.64999999999998,2.1636266094420598,1.888412017167382,0.0,0.42166666666666663,417.2,True,2026-02-28 18:59:48 - Flight 15,
9.06,1.0,8.0,2026-02-28 18:59:52,37.82919,-121.62608,107.0,0.0,332.8,-12.8,,,,,0.0,10.3,-0.5,53.3,0.0,39.0,-0.0,-0.01,1.0,,-62.0,34.0,0.0,29.92,2280.0,,,334.0,,,,,0.0,0.0,,,,,,,,,,,,,,,,,,,0.0,80.0,0.0,0.0,30.3,0.0,,0.0,2.9,,,20.6,0.0,0.0,-0.4,3.5,2.2,,,,,94.0,58.0,95.0,62.0,95.0,64.0,94.0,63.0,,,13.0,254.1,,2.9,17.0,4.995,,,0.929,1.565,0.0,79.8,,,,,,2026-02-28-N890GF-SN35347-17.4.0.23677-USER_LOG_DATA.csv,,,,,,,93.2,176.0,,,,,201.2,136.4,203.0,143.6,203.0,147.2,201.2,145.4,,,175.64,0.0,202.10000000000002,2.168454935622318,1.888412017167382,0.0,0.42166666666666663,417.2,True,2026-02-28 18:59:48 - Flight 15,
10.06,1.0,8.0,2026-02-28 18:59:53,37.82919,-121.62608,106.0,0.0,332.8,-12.8,,,,,0.0,10.4,-0.5,53.3,0.0,39.0,-0.0,-0.01,1.0,,-34.0,34.0,0.0,29.92,2280.0,,,334.0,,,,,0.0,0.0,,,,,,,,,,,,,,,,,,,0.0,80.0,0.0,0.0,30.3,0.0,,0.0,2.9,,,20.6,0.0,0.0,-0.4,3.5,2.2,,,,,94.0,58.0,95.0,62.0,95.0,64.0,94.0,63.0,,,13.0,254.1,,2.9,16.0,4.995,,,0.929,1.565,0.0,79.8,,,,,,2026-02-28-N890GF-SN35347-17.4.0.23677-USER_LOG_DATA.csv,,,,,,,93.2,176.0,,,,,201.2,136.4,203.0,143.6,203.0,147.2,201.2,145.4,,,175.64,0.0,202.10000000000002,2.168454935622318,1.888412017167382,0.0,0.42166666666666663,417.2,True,2026-02-28 18:59:48 - Flight 15,
11.06,1.0,8.0,2026-02-28 18:59:54,37.82919,-121.62608,105.0,0.0,332.8,-12.8,,,,,0.0,10.4,-0.5,53.2,0.0,38.0,-0.0,-0.01,1.0,,-63.0,34.0,0.0,29.92,2278.0,,,334.0,,,,,0.0,0.0,,,,,,,,,,,,,,,,,,,0.0,80.0,0.0,0.0,30.3,0.0,,0.0,2.9,,,20.6,0.0,0.0,-0.4,3.5,2.2,,,,,94.0,58.0,95.0,62.0,95.0,64.0,94.0,63.0,,,13.0,254.0,,2.9,16.0,4.995,,,0.929,1.565,0.0,79.8,,,,,,2026-02-28-N890GF-SN35347-17.4.0.23677-USER_LOG_DATA.csv,,,,,,,93.2,176.0,,,,,201.2,136.4,203.0,143.6,203.0,147.2,201.2,145.4,,,175.64,0.0,202.10000000000002,2.168454935622318,1.888412017167382,0.0,0.42166666666666663,417.2,True,2026-02-28 18:59:48 - Flight 15,
12.06,1.0,8.0,2026-02-28 18:59:55,37.82919,-121.62608,105.0,0.0,332.8,-12.8,,,,,0.0,10.4,-0.5,53.2,0.0,37.0,-0.0,-0.01,1.0,,-48.0,34.0,0.0,29.92,2277.0,,,334.0,,,,,0.0,0.0,,,,,,,,,,,,,,,,,,,0.0,80.0,0.0,0.0,30.3,0.0,,0.0,2.9,,,20.6,0.0,0.0,-0.4,3.5,2.2,,,,,94.0,58.0,95.0,62.0,94.0,64.0,94.0,63.0,,,13.0,254.0,,2.9,14.0,4.995,,,0.929,1.565,0.0,79.8,,,,,,2026-02-28-N890GF-SN35347-17.4.0.23677-USER_LOG_DATA.csv,,,,,,,93.2,176.0,,,,,201.2,136.4,203.0,143.6,201.2,147.2,201.2,145.4,,,175.64,0.0,201.64999999999998,2.1636266094420598,1.888412017167382,0.0,0.42166666666666663,417.2,True,2026-02-28 18:59:48 - Flight 15,
13.06,1.0,8.0,2026-02-28 18:59:56,37.82919,-121.62608,104.0,0.0,332.8,-12.8,,,,,0.0,10.4,-0.5,53.2,0.0,37.0,0.0,-0.01,1.0,,-27.0,34.0,0.0,29.92,2277.0,,,334.0,,,,,0.0,0.0,,,,,,,,,,,,,,,,,,,0.0,80.0,0.0,0.0,30.3,0.0,,0.0,2.9,,,20.6,0.0,0.0,-0.4,3.5,2.2,,,,,94.0,58.0,95.0,62.0,94.0,64.0,94.0,63.0,,,13.0,254.0,,2.9,12.0,4.995,,,0.929,1.566,0.0,79.8,,,,,,2026-02-28-N890GF-SN35347-17.4.0.23677-USER_LOG_DATA.csv,,,,,,,93.2,176.0,,,,,201.2,136.4,203.0,143.6,201.2,147.2,201.2,145.4,,,175.64,0.0,201.64999999999998,2.1636266094420598,1.888412017167382,0.0,0.42166666666666663,417.2,True,2026-02-28 18:59:48 - Flight 15,
14.06,1.0,8.0,2026-02-28 18:59:57,37.82919,-121.62608,104.0,0.0,332.8,-12.8,,,,,0.0,10.5,-0.5,53.2,0.0,37.0,0.0,-0.01,1.0,,-49.0,34.0,0.0,29.92,2277.0,,,334.0,,,,,0.0,0.0,,,,,,,,,,,,,,,,,,,0.0,80.0,0.0,0.0,30.3,0.0,,0.0,2.9,,,20.6,0.0,0.0,-0.4,3.5,2.2,,,,,94.0,58.0,95.0,62.0,94.0,64.0,94.0,63.0,,,13.0,254.0,,2.9,6.0,4.995,,,0.929,1.566,0.0,79.8,,,,,,2026-02-28-N890GF-SN35347-17.4.0.23677-USER_LOG_DATA.csv,,,,,,,93.2,176.0,,,,,201.2,136.4,203.0,143.6,201.2,147.2,201.2,145.4,,,175.64,0.0,201.64999999999998,2.1636266094420598,1.888412017167382,0.0,0.42166666666666663,417.2,True,2026-02-28 18:59:48 - Flight 15,
15.06,1.0,8.0,2026-02-28 18:59:58,37.82919,-121.62608,104.0,0.0,332.8,-12.8,,,,,0.0,10.4,-0.5,53.1,0.0,36.0,0.0,-0.0,1.0,,-19.0,34.0,0.0,29.92,2276.0,,,334.0,,,,,0.0,0.0,,,,,,,,,,,,,,,,,,,0.0,80.0,0.0,0.0,30.3,0.0,,0.0,2.9,,,20.6,0.0,0.0,-0.4,3.5,2.2,,,,,94.0,58.0,95.0,62.0,95.0,64.0,94.0,63.0,,,13.0,254.0,,2.9,6.0,4.995,,,0.929,1.566,0.0,79.8,,,,,,2026-02-28-N890GF-SN35347-17.4.0.23677-USER_LOG_DATA.csv,,,,,,,93.2,176.0,,,,,201.2,136.4,203.0,143.6,203.0,147.2,201.2,145.4,,,175.64,0.0,202.10000000000002,2.168454935622318,1.888412017167382,0.0,0.42166666666666663,417.2,True,2026-02-28 18:59:48 - Flight 15,
16.06,1.0,8.0,2026-02-28 18:59:59,37.82919,-121.62608,104.0,0.0,332.8,-12.8,,,,,0.0,10.4,-0.5,53.1,0.0,36.0,0.0,-0.01,1.0,,-27.0,34.0,0.0,29.92,2276.0,,,334.0,,,,,0.0,0.0,,,,,,,,,,,,,,,,,,,0.0,80.0,0.0,0.0,30.3,0.1,,0.1,2.9,,,20.6,0.0,0.0,-0.4,3.5,2.2,,,,,94.0,58.0,95.0,62.0,95.0,64.0,94.0,63.0,,,13.0,254.0,,2.9,7.0,4.995,,,0.929,1.567,0.0,79.8,,,,,,2026-02-28-N890GF-SN35347-17.4.0.23677-USER_LOG_DATA.csv,,,,,,,93.2,176.0,,,,,201.2,136.4,203.0,143.6,203.0,147.2,201.2,145.4,,,175.64,0.0,202.10000000000002,2.168454935622318,1.888412017167382,1.3888888888888864e-05,0.42166666666666663,417.2,True,2026-02-28 18:59:48 - Flight 15,
17.06,1.0,8.0,2026-02-28 19:00:00,37.82919,-121.62608,104.0,0.1,332.8,-12.8,,,,,0.0,10.5,-0.5,53.1,0.0,35.0,-0.0,-0.01,1.0,,-33.0,34.0,0.0,29.92,2275.0,,,334.0,,,,,0.0,0.0,,,,,,,,,,,,,,,,,,,0.0,80.0,0.0,0.0,30.3,0.1,,0.1,2.9,,,20.6,0.0,0.0,-0.4,3.5,2.2,,,,,94.0,58.0,94.0,62.0,94.0,64.0,94.0,63.0,,,13.0,254.0,,2.9,7.0,4.995,,,0.929,1.567,0.0,79.8,,,,,,2026-02-28-N890GF-SN35347-17.4.0.23677-USER_LOG_DATA.csv,,,,,,,93.2,176.0,,,,,201.2,136.4,201.2,143.6,201.2,147.2,201.2,145.4,,,175.64,0.0,201.2,2.1587982832618025,1.888412017167382,4.1666666666666645e-05,0.506,417.2,True,2026-02-28 18:59:48 - Flight 15,
18.06,1.0,8.0,2026-02-28 19:00:01,37.82919,-121.62608,103.0,0.1,332.8,-12.8,,,,,0.0,10.4,-0.5,53.1,0.0,35.0,-0.0,-0.01,1.0,,-9.0,34.0,0.0,29.92,2275.0,,,334.0,,,,,0.0,0.0,,,,,,,,,,,,,,,,,,,0.0,80.0,0.0,0.0,30.3,0.1,,0.1,2.9,,,20.6,0.0,0.0,-0.4,3.5,2.2,,,,,94.0,58.0,95.0,62.0,94.0,64.0,94.0,63.0,,,13.0,254.0,,2.9,6.0,4.995,,,0.929,1.567,0.0,79.8,,,,,,2026-02-28-N890GF-SN35347-17.4.0.23677-USER_LOG_DATA.csv,,,,,,,93.2,176.0,,,,,201.2,136.4,203.0,143.6,201.2,147.2,201.2,145.4,,,175.64,0.0,201.64999999999998,2.1636266094420598,1.888412017167382,6.944444444444443e-05,0.6746666666666666,417.2,True,2026-02-28 18:59:48 - Flight 15,
19.06,1.0,8.0,2026-02-28 19:00:02,37.82919,-121.62608,103.0,0.1,332.8,-12.8,,,,,0.0,10.4,-0.4,53.1,0.0,35.0,0.0,-0.01,1.0,,-9.0,34.0,0.0,29.92,2275.0,,,334.0,,,,,0.0,0.0,,,,,,,,,,,,,,,,,,,0.0,80.0,0.0,0.0,30.3,0.1,,0.1,2.9,,,20.6,0.0,0.0,-0.4,3.5,2.2,,,,,94.0,58.0,94.0,62.0,94.0,64.0,94.0,63.0,,,13.0,254.0,,2.9,8.0,4.995,,,0.929,1.57,0.0,79.8,,,,,,2026-02-28-N890GF-SN35347-17.4.0.23677-USER_LOG_DATA.csv,,,,,,,93.2,176.0,,,,,201.2,136.4,201.2,143.6,201.2,147.2,201.2,145.4,,,175.64,0.0,201.2,2.1587982832618025,1.888412017167382,9.72222222222222e-05,0.8433333333333333,417.2,True,2026-02-28 18:59:48 - Flight 15,
20.06,1.0,8.0,2026-02-28 19:00:03,37.82919,-121.62608,103.0,0.0,332.8,-12.8,,,,,0.0,10.4,-0.5,53.1,0.0,34.0,-0.0,-0.01,1.0,,-44.0,34.0,0.0,29.92,2263.0,,,334.0,,,,,0.0,0.0,,,,,,,,,,,,,,,,,,,0.0,80.0,0.0,0.0,30.3,0.1,,0.1,2.9,,,20.6,0.0,0.0,-0.4,3.5,2.2,,,,,94.0,58.0,94.0,62.0,94.0,64.0,94.0,63.0,,,13.0,254.0,,2.9,8.0,4.995,,,0.929,1.571,0.0,79.8,,,,,,2026-02-28-N890GF-SN35347-17.4.0.23677-USER_LOG_DATA.csv,,,,,,,93.2,176.0,,,,,201.2,136.4,201.2,143.6,201.2,147.2,201.2,145.4,,,175.64,0.0,201.2,2.1587982832618025,1.888412017167382,0.00012499999999999998,0.9276666666666666,417.2,True,2026-02-28 18:59:48 - Flight 15,
21.06,1.0,8.0,2026-02-28 19:00:04,37.82919,-121.62608,103.0,0.1,332.8,-12.8,,,,,0.0,10.4,-0.5,53.1,0.0,34.0,-0.0,-0.01,1.0,,-30.0,34.0,0.0,29.92,2261.0,,,334.0,,,,,0.0,0.0,,,,,,,,,,,,,,,,,,,0.0,80.0,0.0,0.0,30.3,0.1,,0.1,2.9,,,20.6,0.0,0.0,-0.4,3.5,2.2,,,,,94.0,58.0,94.0,62.0,94.0,64.0,94.0,63.0,,,13.0,254.0,,2.9,8.0,4.995,,,0.929,1.576,0.0,79.7,,,,,,2026-02-28-N890GF-SN35347-17.4.0.23677-USER_LOG_DATA.csv,,,,,,,93.2,176.0,,,,,201.2,136.4,201.2,143.6,201.2,147.2,201.2,145.4,,,175.46,0.0,201.2,2.1587982832618025,1.888412017167382,0.00015277777777777777,1.012,417.2,True,2026-02-28 18:59:48 - Flight 15,
22.06,1.0,8.0,2026-02-28 19:00:05,37.82919,-121.62608,103.0,0.0,332.8,-12.8,,,,,0.0,10.4,-0.5,53.1,0.0,33.0,-0.0,-0.01,1.0,,-56.0,34.0,0.0,29.92,2260.0,,,334.0,,,,,0.0,0.0,,,,,,,,,,,,,,,,,,,0.0,80.0,0.0,0.0,30.3,0.1,,0.1,2.9,,,20.6,0.0,0.0,-0.4,3.5,2.2,,,,,94.0,58.0,94.0,62.0,94.0,64.0,94.0,63.0,,,13.0,254.0,,2.9,9.0,4.995,,,0.929,1.586,0.0,79.7,,,,,,2026-02-28-N890GF-SN35347-17.4.0.23677-USER_LOG_DATA.csv,,,,,,,93.2,176.0,,,,,201.2,136.4,201.2,143.6,201.2,147.2,201.2,145.4,,,175.46,0.0,201.2,2.1587982832618025,1.888412017167382,0.00018055555555555555,1.0963333333333334,417.2,True,2026-02-28 18:59:48 - Flight 15,
23.06,1.0,8.0,2026-02-28 19:00:06,37.82919,-121.62608,102.0,0.1,332.8,-12.8,,,,,0.0,10.4,-0.5,53.1,0.0,32.0,0.0,-0.01,1.0,,-32.0,34.0,0.0,29.92,2259.0,,,334.0,,,,,0.0,0.0,,,,,,,,,,,,,,,,,,,0.0,80.0,0.0,0.0,30.3,0.1,,0.1,2.9,,,20.6,0.0,0.0,-0.4,3.5,2.2,,,,,94.0,58.0,94.0,62.0,94.0,64.0,94.0,63.0,,,13.0,254.0,,2.9,10.0,4.995,,,0.929,1.626,0.0,79.7,,,,,,2026-02-28-N890GF-SN35347-17.4.0.23677-USER_LOG_DATA.csv,,,,,,,93.2,176.0,,,,,201.2,136.4,201.2,143.6,201.2,147.2,201.2,145.4,,,175.46,0.0,201.2,2.1587982832618025,1.888412017167382,0.00020833333333333332,1.1806666666666665,417.2,True,2026-02-28 18:59:48 - Flight 15,
24.06,1.0,8.0,2026-02-28 19:00:07,37.82919,-121.62608,102.0,0.0,332.8,-12.8,,,,,0.0,10.4,-0.5,53.0,0.0,32.0,-0.0,-0.01,1.0,,-23.0,34.0,0.0,29.92,2259.0,,,334.0,,,,,0.0,0.0,,,,,,,,,,,,,,,,,,,0.0,80.0,0.0,0.0,30.3,0.1,,0.1,2.9,,,20.6,0.0,0.0,-0.4,3.5,2.2,,,,,94.0,58.0,94.0,62.0,94.0,64.0,94.0,63.0,,,13.0,254.0,,2.9,10.0,4.995,,,0.929,1.636,0.0,79.7,,,,,,2026-02-28-N890GF-SN35347-17.4.0.23677-USER_LOG_DATA.csv,,,,,,,93.2,176.0,,,,,201.2,136.4,201.2,143.6,201.2,147.2,201.2,145.4,,,175.46,0.0,201.2,2.1587982832618025,1.888412017167382,0.0002361111111111111,1.265,417.2,True,2026-02-28 18:59:48 - Flight 15,
25.06,1.0,8.0,2026-02-28 19:00:08,37.82919,-121.62608,102.0,0.0,332.8,-12.8,,,,,0.0,10.5,-0.6,53.0,0.0,32.0,0.0,-0.01,1.0,,-31.0,34.0,0.0,29.92,2259.0,,,334.0,,,,,0.0,0.0,,,,,,,,,,,,,,,,,,,0.0,70.0,0.0,0.0,30.3,0.1,,0.1,2.8,,,20.6,0.0,0.0,-0.4,3.5,2.2,,,,,91.0,54.0,91.0,57.0,91.0,59.0,90.0,59.0,,,13.0,254.0,,2.8,10.0,4.995,,,0.935,1.578,0.0,70.0,,,,,,2026-02-28-N890GF-SN35347-17.4.0.23677-USER_LOG_DATA.csv,,,,,,,93.2,158.0,,,,,195.8,129.2,195.8,134.6,195.8,138.2,194.0,138.2,,,158.0,0.0,195.35000000000002,2.0960300429184553,1.6952789699570814,0.00026388888888888886,1.265,417.2,True,2026-02-28 18:59:48 - Flight 15,
26.06,1.0,8.0,2026-02-28 19:00:09,37.82918,-121.62608,102.0,0.0,332.8,-12.8,,,,,0.0,10.5,-0.5,52.9,0.0,31.0,-0.0,-0.01,1.0,,-11.0,34.0,0.0,29.92,2251.0,,,334.0,,,,,0.0,0.0,,,,,,,,,,,,,,,,,,,0.0,75.0,196.0,196.0,29.6,0.1,,0.1,4.8,,,20.6,0.0,0.0,-0.5,3.5,2.2,,,,,93.0,57.0,93.0,60.0,93.0,62.0,92.0,62.0,,,14.0,254.0,,4.8,8.0,4.995,,,0.929,1.603,0.1,75.3,,,,,,2026-02-28-N890GF-SN35347-17.4.0.23677-USER_LOG_DATA.csv,,,,,,,93.2,167.0,,,,,199.4,134.6,199.4,140.0,199.4,143.6,197.6,143.6,,,167.54,196.0,198.95,2.134656652360515,1.7918454935622317,0.00029166666666666664,1.265,417.2,True,2026-02-28 18:59:48 - Flight 15,
27.06,1.0,8.0,2026-02-28 19:00:10,37.82918,-121.62608,102.0,0.0,332.8,-12.8,,,,,0.0,10.5,-0.5,53.0,0.0,31.0,-0.0,-0.01,1.0,,-5.0,34.0,0.0,29.92,2251.0,,,334.0,,,,,0.0,0.0,,,,,,,,,,,,,,,,,,,7.0,75.0,207.0,207.0,29.3,0.5,,0.5,4.1,,,20.6,0.0,0.0,-0.5,3.5,2.2,,,,,93.0,58.0,93.0,60.0,93.0,63.0,92.0,62.0,,,14.0,254.0,,4.1,8.0,4.995,,,0.931,1.573,7.3,75.3,,,,,,2026-02-28-N890GF-SN35347-17.4.0.23677-USER_LOG_DATA.csv,,,,,,,93.2,167.0,,,,,199.4,136.4,199.4,140.0,199.4,145.4,197.6,143.6,,,167.54,207.0,198.95,2.134656652360515,1.7918454935622317,0.000375,1.265,417.2,True,2026-02-28 18:59:48 - Flight 15,
28.06,1.0,8.0,2026-02-28 19:00:11,37.82918,-121.62608,103.0,0.0,332.8,-12.8,,,,,0.0,10.5,-0.5,53.0,0.0,31.0,-0.0,-0.0,1.0,,-44.0,34.0,0.0,29.92,2251.0,,,334.0,,,,,0.0,0.0,,,,,,,,,,,,,,,,,,,28.0,75.0,253.0,253.0,29.2,0.7,,0.7,4.3,,,20.6,0.0,0.0,-0.6,3.5,2.2,,,,,93.0,58.0,93.0,61.0,93.0,63.0,92.0,63.0,,,14.0,254.0,,4.3,8.0,4.995,,,0.929,1.569,28.3,75.4,,,,,,2026-02-28-N890GF-SN35347-17.4.0.23677-USER_LOG_DATA.csv,,,,,,,93.2,167.0,,,,,199.4,136.4,199.4,141.8,199.4,145.4,197.6,145.4,,,167.72,253.0,198.95,2.134656652360515,1.7918454935622317,0.0005416666666666666,1.265,417.2,True,2026-02-28 18:59:48 - Flight 15,
29.06,1.0,8.0,2026-02-28 19:00:12,37.82918,-121.62608,103.0,0.0,332.8,-12.8,,,,,0.0,10.5,-0.5,53.0,0.0,30.0,-0.0,-0.01,1.0,,-38.0,34.0,0.0,29.92,2248.0,,,334.0,,,,,0.0,0.0,,,,,,,,,,,,,,,,,,,39.0,80.0,343.0,343.0,27.7,1.2,,1.2,4.1,,,20.6,0.0,0.0,-0.5,3.5,2.2,,,,,94.0,61.0,94.0,74.0,94.0,84.0,94.0,82.0,,,14.0,254.0,,4.1,-3.0,4.995,,,0.981,1.578,39.0,79.8,,,,,,2026-02-28-N890GF-SN35347-17.4.0.23677-USER_LOG_DATA.csv,,,,,,,93.2,176.0,,,,,201.2,141.8,201.2,165.2,201.2,183.2,201.2,179.6,,,175.64,343.0,201.2,2.1587982832618025,1.888412017167382,0.0008055555555555555,1.265,417.2,True,2026-02-28 18:59:48 - Flight 15,
30.06,1.0,8.0,2026-02-28 19:00:13,37.82918,-121.62608,103.0,0.0,332.8,-12.8,,,,,0.0,10.5,-0.6,53.0,0.0,30.0,-0.0,-0.0,1.0,,-41.0,34.0,0.0,29.92,2248.0,,,334.0,,,,,0.0,0.0,,,,,,,,,,,,,,,,,,,39.0,80.0,413.0,413.0,27.8,1.5,,1.5,4.4,,,20.6,0.0,0.0,-0.4,3.5,2.2,,,,,94.0,62.0,94.0,74.0,94.0,101.0,94.0,94.0,,,14.0,254.0,,4.4,-2.0,4.995,,,0.955,1.567,39.2,79.7,,,9.0,L,,2026-02-28-N890GF-SN35347-17.4.0.23677-USER_LOG_DATA.csv,,,,,,,93.2,176.0,,,,,201.2,143.6,201.2,165.2,201.2,213.8,201.2,201.2,,,175.46,413.0,201.2,2.1587982832618025,1.888412017167382,0.0011805555555555556,1.265,417.2,True,2026-02-28 18:59:48 - Flight 15,0.16666666666666666
31.06,1.0,8.0,2026-02-28 19:00:14,37.82918,-121.62608,103.0,0.0,332.8,-12.8,,,,,0.0,10.5,-0.5,53.0,0.0,29.0,-0.0,-0.01,1.0,,-47.0,34.0,0.0,29.92,2248.0,,,334.0,,,,,0.0,0.0,,,,,,,,,,,,,,,,,,,43.0,80.0,567.0,567.0,24.2,1.7,,1.7,5.3,,,20.6,0.0,0.0,-0.4,3.5,2.2,,,,,94.0,63.0,94.0,74.0,94.0,133.0,94.0,119.0,,,13.0,254.0,,5.3,-1.0,4.995,,,0.934,1.565,43.0,79.7,,,11.0,P,,2026-02-28-N890GF-SN35347-17.4.0.23677-USER_LOG_DATA.csv,,,,,,,93.2,176.0,,,,,201.2,145.4,201.2,165.2,201.2,271.4,201.2,246.2,,,175.46,567.0,201.2,2.1587982832618025,1.888412017167382,0.001625,1.265,417.2,True,2026-02-28 18:59:48 - Flight 15,0.15454545454545454
32.06,1.0,8.0,2026-02-28 19:00:15,37.82918,-121.62608,103.0,0.1,332.8,-12.8,,,,,0.0,10.4,-0.6,53.1,0.0,28.0,-0.0,-0.01,0.8,,-45.0,34.0,0.0,29.92,2246.0,,,334.0,,,,,0.0,0.0,,,,,,,,,,,,,,,,,,,40.0,80.0,359.0,359.0,26.9,2.1,,2.1,8.3,,,20.6,0.0,0.0,-0.4,3.5,2.2,,,,,94.0,64.0,94.0,74.0,95.0,133.0,94.0,116.0,,,13.0,254.0,,8.3,-1.0,4.995,,,0.929,1.564,40.1,79.6,,,13.0,L,,2026-02-28-N890GF-SN35347-17.4.0.23677-USER_LOG_DATA.csv,,,,,,,93.2,176.0,,,,,201.2,147.2,201.2,165.2,203.0,271.4,201.2,240.8,,,175.28,359.0,201.64999999999998,2.1636266094420598,1.888412017167382,0.0021527777777777795,1.3493333333333335,417.2,True,2026-02-28 18:59:48 - Flight 15,0.16153846153846155
33.06,1.0,8.0,2026-02-28 19:00:16,37.82918,-121.62608,103.0,0.0,332.8,-12.8,,,,,0.0,10.4,-0.5,53.1,0.0,27.0,0.0,-0.01,1.0,,-28.0,34.0,0.0,29.92,2246.0,,,334.0,,,,,0.0,0.0,,,,,,,,,,,,,,,,,,,52.0,80.0,835.0,835.0,22.9,2.4,,2.4,19.4,,,20.6,0.0,0.0,-0.4,3.5,2.2,,,,,94.0,76.0,94.0,74.0,95.0,162.0,94.0,141.0,,,14.0,254.0,,19.4,25.0,4.995,,,0.935,1.564,51.6,79.6,,,16.0,R,,2026-02-28-N890GF-SN35347-17.4.0.23677-USER_LOG_DATA.csv,,,,,,,93.2,176.0,,,,,201.2,168.8,201.2,165.2,203.0,323.6,201.2,285.8,,,175.28,835.0,201.64999999999998,2.1636266094420598,1.888412017167382,0.0027777777777777796,1.4336666666666669,417.2,True,2026-02-28 18:59:48 - Flight 15,0.15
34.06,1.0,8.0,2026-02-28 19:00:17,37.82918,-121.62607,103.0,0.1,332.8,-12.8,,,,,0.0,10.4,-0.6,53.0,0.0,27.0,-0.0,-0.01,0.9,,8.0,34.0,0.0,29.92,2246.0,,,334.0,,,,,0.0,0.0,,,,,,,,,,,,,,,,,,,52.0,80.0,860.0,860.0,19.7,2.6,,2.6,22.6,,,20.6,0.0,0.0,-0.4,3.5,2.2,,,,,94.0,90.0,95.0,81.0,95.0,201.0,94.0,174.0,,,14.0,254.0,,22.6,25.0,4.995,,,0.935,1.564,52.3,79.5,,,,,,2026-02-28-N890GF-SN35347-17.4.0.23677-USER_LOG_DATA.csv,,,,,,,93.2,176.0,,,,,201.2,194.0,203.0,177.8,203.0,393.8,201.2,345.2,,,175.1,860.0,202.10000000000002,2.168454935622318,1.888412017167382,0.003472222222222224,1.5180000000000002,417.2,True,2026-02-28 18:59:48 - Flight 15,
35.06,1.0,8.0,2026-02-28 19:00:18,37.82918,-121.62607,102.0,0.0,332.8,-12.8,,,,,0.0,10.4,-0.5,53.1,0.0,27.0,-0.0,-0.01,1.0,,-8.0,34.0,0.0,29.92,2244.0,,,334.0,,,,,0.0,0.0,,,,,,,,,,,,,,,,,,,57.0,79.0,1050.0,1050.0,15.8,2.5,,2.5,23.3,,,20.6,0.0,0.0,-0.4,3.5,2.2,,,,,94.0,124.0,95.0,102.0,95.0,241.0,95.0,215.0,,,14.0,254.0,,23.3,25.0,4.995,,,1.036,1.564,57.1,79.5,,,,,,2026-02-28-N890GF-SN35347-17.4.0.23677-USER_LOG_DATA.csv,,,,,,,93.2,174.2,,,,,201.2,255.2,203.0,215.6,203.0,465.8,203.0,419.0,,,175.1,1050.0,202.55,2.1732832618025753,1.8690987124463518,0.004180555555555557,1.6023333333333336,417.2,True,2026-02-28 18:59:48 - Flight 15,
36.06,1.0,8.0,2026-02-28 19:00:19,37.82918,-121.62607,102.0,0.0,332.8,-12.8,,,,,0.0,10.4,-0.6,53.1,0.0,26.0,-0.0,-0.01,1.0,,-29.0,34.0,0.0,29.92,2244.0,,,334.0,,,,,0.0,0.0,,,,,,,,,,,,,,,,,,,57.0,79.0,1031.0,1031.0,14.4,2.5,,2.5,23.2,,,20.6,0.0,0.0,-0.4,3.5,2.2,,,,,94.0,160.0,95.0,144.0,95.0,276.0,95.0,253.0,,,14.0,254.0,,23.2,25.0,4.995,,,0.985,1.566,56.6,79.4,,,,,,2026-02-28-N890GF-SN35347-17.4.0.23677-USER_LOG_DATA.csv,,,,,,,93.2,174.2,,,,,201.2,320.0,203.0,291.2,203.0,528.8,203.0,487.4,,,174.92000000000002,1031.0,202.55,2.1732832618025753,1.8690987124463518,0.004875000000000002,1.6023333333333336,417.2,True,2026-02-28 18:59:48 - Flight 15,
37.06,1.0,8.0,2026-02-28 19:00:20,37.82918,-121.62607,102.0,0.0,332.8,-12.8,,,,,0.0,10.4,-0.5,53.1,0.0,26.0,-0.0,-0.01,0.9,,-22.0,34.0,0.0,29.92,2244.0,,,334.0,,,,,0.0,0.0,,,,,,,,,,,,,,,,,,,58.0,79.0,1058.0,1058.0,14.4,2.5,,2.5,22.9,,,20.6,0.0,0.0,-0.4,3.5,2.2,,,,,94.0,186.0,95.0,177.0,96.0,308.0,95.0,275.0,,,14.0,254.0,,22.9,25.0,4.995,,,0.969,1.566,57.5,79.4,,,,,,2026-02-28-N890GF-SN35347-17.4.0.23677-USER_LOG_DATA.csv,,,,,,,93.2,174.2,,,,,201.2,366.8,203.0,350.6,204.8,586.4,203.0,527.0,,,174.92000000000002,1058.0,203.0,2.1781115879828326,1.8690987124463518,0.005569444444444446,1.6023333333333336,417.2,True,2026-02-28 18:59:48 - Flight 15,
38.06,1.0,8.0,2026-02-28 19:00:21,37.82918,-121.62607,102.0,0.0,332.8,-12.8,,,,,0.0,10.4,-0.5,53.0,0.0,25.0,-0.0,-0.0,1.0,,-1.0,34.0,0.0,29.92,2241.0,,,334.0,,,,,0.0,0.0,,,,,,,,,,,,,,,,,,,56.0,79.0,938.0,938.0,14.6,2.5,,2.5,23.0,,,20.6,0.0,0.0,-0.4,3.5,2.2,,,,,94.0,205.0,95.0,197.0,96.0,326.0,96.0,303.0,,,14.0,254.0,,23.0,25.0,4.995,,,0.929,1.566,55.6,79.3,,,,,,2026-02-28-N890GF-SN35347-17.4.0.23677-USER_LOG_DATA.csv,,,,,,,93.2,174.2,,,,,201.2,401.0,203.0,386.6,204.8,618.8,204.8,577.4,,,174.73999999999998,938.0,203.45,2.18293991416309,1.8690987124463518,0.006263888888888891,1.6023333333333336,417.2,True,2026-02-28 18:59:48 - Flight 15,
39.06,1.0,8.0,2026-02-28 19:00:22,37.82918,-121.62607,102.0,0.0,332.8,-12.8,,,,,0.0,10.4,-0.6,53.0,0.0,25.0,-0.0,-0.0,1.0,,-52.0,34.0,0.0,29.92,2241.0,,,334.0,,,,,0.0,0.0,,,,,,,,,,,,,,,,,,,58.0,79.0,1067.0,1067.0,14.6,2.5,,2.5,23.2,,,20.6,0.0,0.0,-0.4,3.5,2.3,,,,,95.0,233.0,96.0,224.0,96.0,337.0,96.0,330.0,,,14.0,254.0,,23.2,25.0,4.995,,,0.942,1.567,57.7,79.3,,,,,,2026-02-28-N890GF-SN35347-17.4.0.23677-USER_LOG_DATA.csv,,,,,,,93.2,174.2,,,,,203.0,451.4,204.8,435.2,204.8,638.6,204.8,626.0,,,174.73999999999998,1067.0,204.35000000000002,2.1925965665236054,1.8690987124463518,0.0069583333333333355,1.6023333333333336,417.2,True,2026-02-28 18:59:48 - Flight 15,
40.06,1.0,8.0,2026-02-28 19:00:23,37.82918,-121.62607,102.0,0.0,332.8,-12.8,,,,,0.0,10.4,-0.5,53.1,0.0,23.0,0.0,-0.01,1.0,,-64.0,34.0,0.0,29.92,2241.0,,,334.0,,,,,0.0,0.0,,,,,,,,,,,,,,,,,,,56.0,79.0,1014.0,1014.0,15.3,2.5,,2.5,23.3,,,20.6,0.0,0.0,-0.4,3.5,2.3,,,,,95.0,251.0,96.0,242.0,96.0,349.0,96.0,342.0,,,14.0,220.9,,23.3,25.0,4.995,,,0.928,1.567,55.9,79.3,,,,,,2026-02-28-N890GF-SN35347-17.4.0.23677-USER_LOG_DATA.csv,,,,,,,93.2,174.2,,,,,203.0,483.8,204.8,467.6,204.8,660.2,204.8,647.6,,,174.73999999999998,1014.0,204.35000000000002,2.1925965665236054,1.8690987124463518,0.00765277777777778,1.6023333333333336,417.2,True,2026-02-28 18:59:48 - Flight 15,
41.06,1.0,8.0,2026-02-28 19:00:24,37.82918,-121.62607,101.0,0.0,332.8,-12.8,,,,,0.0,10.4,-0.5,53.1,0.0,22.0,-0.0,-0.01,1.0,,-72.0,34.0,0.0,29.92,2239.0,,,334.0,,,,,0.0,0.0,,,,,,,,,,,,,,,,,,,58.0,79.0,1073.0,1073.0,14.6,2.6,,2.6,23.6,,,20.6,0.0,0.0,-0.4,3.5,2.3,,,,,95.0,270.0,96.0,257.0,97.0,365.0,97.0,367.0,,,14.0,171.9,,23.6,25.0,4.995,,,0.927,1.566,57.7,79.3,,,,,,2026-02-28-N890GF-SN35347-17.4.0.23677-USER_LOG_DATA.csv,,,,,,,93.2,174.2,,,,,203.0,518.0,204.8,494.6,206.6,689.0,206.6,692.6,,,174.73999999999998,1073.0,205.25,2.20225321888412,1.8690987124463518,0.008361111111111113,1.6023333333333336,417.2,True,2026-02-28 18:59:48 - Flight 15,
42.06,1.0,8.0,2026-02-28 19:00:25,37.82918,-121.62607,101.0,0.0,332.8,-12.8,,,,,0.0,10.4,-0.6,53.1,0.0,21.0,-0.0,-0.01,1.0,,-75.0,34.0,0.0,29.92,2235.0,,,334.0,,,,,0.0,0.0,,,,,,,,,,,,,,,,,,,59.0,79.0,1070.0,1070.0,13.9,2.5,,2.5,23.7,,,20.6,0.0,0.0,-0.4,3.5,2.3,,,,,95.0,294.0,97.0,275.0,97.0,382.0,97.0,385.0,,,14.0,133.9,,23.7,25.0,4.995,,,0.934,1.565,58.7,79.3,,,,,,2026-02-28-N890GF-SN35347-17.4.0.23677-USER_LOG_DATA.csv,,,,,,,93.2,174.2,,,,,203.0,561.2,206.6,527.0,206.6,719.6,206.6,725.0,,,174.73999999999998,1070.0,205.7,2.2070815450643777,1.8690987124463518,0.009069444444444446,1.6023333333333336,417.2,True,2026-02-28 18:59:48 - Flight 15,
43.06,1.0,8.0,2026-02-28 19:00:26,37.82918,-121.62607,101.0,0.0,332.8,-12.8,,,,,0.0,10.4,-0.4,53.0,0.0,21.0,-0.0,-0.0,1.0,,-36.0,34.0,0.0,29.92,2234.0,,,334.0,,,,,0.0,0.0,,,,,,,,,,,,,,,,,,,58.0,79.0,1084.0,1084.0,13.9,2.5,,2.5,23.9,,,20.6,0.0,0.0,-0.4,3.5,2.3,,,,,96.0,308.0,97.0,302.0,97.0,388.0,97.0,406.0,,,14.0,104.3,,23.9,25.0,4.995,,,1.002,1.566,58.2,79.3,,,,,,2026-02-28-N890GF-SN35347-17.4.0.23677-USER_LOG_DATA.csv,,,,,,,93.2,174.2,,,,,204.8,586.4,206.6,575.6,206.6,730.4,206.6,762.8,,,174.73999999999998,1084.0,206.14999999999998,2.211909871244635,1.8690987124463518,0.009763888888888891,1.6023333333333336,417.2,True,2026-02-28 18:59:48 - Flight 15,
44.06,1.0,8.0,2026-02-28 19:00:27,37.82918,-121.62607,101.0,0.1,332.8,-12.8,,,,,0.0,10.4,-0.5,53.0,0.0,20.0,-0.0,-0.01,1.1,,-53.0,34.0,0.0,29.92,2226.0,,,334.0,,,,,0.0,0.0,,,,,,,,,,,,,,,,,,,57.0,79.0,1043.0,1043.0,13.7,2.5,,2.5,32.3,,,20.5,0.0,0.0,-0.4,3.5,2.3,,,,,96.0,324.0,97.0,316.0,97.0,400.0,98.0,416.0,,,14.0,81.3,,32.3,25.0,4.995,,,1.008,1.565,57.2,79.3,,,,,,2026-02-28-N890GF-SN35347-17.4.0.23677-USER_LOG_DATA.csv,,,,,,,93.2,174.2,,,,,204.8,615.2,206.6,600.8,206.6,752.0,208.4,780.8,,,174.73999999999998,1043.0,206.60000000000002,2.2167381974248928,1.8690987124463518,0.010458333333333335,1.686666666666667,417.2,True,2026-02-28 18:59:48 - Flight 15,
45.06,1.0,8.0,2026-02-28 19:00:28,37.82918,-121.62607,101.0,0.0,332.8,-12.8,,,,,0.0,10.5,-0.5,53.0,0.0,17.0,0.0,-0.01,0.9,,-69.0,34.0,0.0,29.92,2226.0,,,334.0,,,,,0.0,0.0,,,,,,,,,,,,,,,,,,,59.0,79.0,1085.0,1085.0,14.0,2.5,,2.5,34.4,,,20.5,0.0,0.0,-0.3,3.5,2.3,,,,,96.0,332.0,97.0,341.0,98.0,409.0,98.0,428.0,,,14.0,63.4,,34.4,25.0,4.995,,,1.097,1.566,58.6,79.3,,,,,,2026-02-28-N890GF-SN35347-17.4.0.23677-USER_LOG_DATA.csv,,,,,,,93.2,174.2,,,,,204.8,629.6,206.6,645.8,208.4,768.2,208.4,802.4,,,174.73999999999998,1085.0,207.05,2.22156652360515,1.8690987124463518,0.01115277777777778,1.7710000000000001,417.2,True,2026-02-28 18:59:48 - Flight 15,
46.06,1.0,8.0,2026-02-28 19:00:29,37.82918,-121.62607,101.0,0.0,332.8,-12.8,,,,,0.0,10.5,-0.5,53.1,0.0,17.0,0.0,-0.0,1.0,,-44.0,34.0,0.0,29.92,2226.0,,,334.0,,,,,0.0,0.0,,,,,,,,,,,,,,,,,,,57.0,79.0,1048.0,1048.0,13.9,2.5,,2.5,34.3,,,20.5,0.0,0.0,-0.3,3.5,2.3,,,,,96.0,351.0,98.0,348.0,98.0,427.0,98.0,437.0,,,14.0,49.5,,34.3,25.0,4.995,,,1.027,1.566,56.5,79.3,,,,,,2026-02-28-N890GF-SN35347-17.4.0.23677-USER_LOG_DATA.csv,,,,,,,93.2,174.2,,,,,204.8,663.8,208.4,658.4,208.4,800.6,208.4,818.6,,,174.73999999999998,1048.0,207.5,2.226394849785408,1.8690987124463518,0.011847222222222224,1.7710000000000001,417.2,True,2026-02-28 18:59:48 - Flight 15,
47.06,1.0,8.0,2026-02-28 19:00:30,37.82918,-121.62607,101.0,0.0,332.8,-12.8,,,,,0.0,10.4,-0.4,53.1,0.0,16.0,0.0,-0.01,1.0,,-50.0,34.0,0.0,29.92,2220.0,,,334.0,,,,,0.0,0.0,,,,,,,,,,,,,,,,,,,59.0,79.0,1104.0,1104.0,13.5,2.5,,2.5,34.5,,,20.5,0.0,0.0,-0.3,3.5,2.3,,,,,97.0,373.0,98.0,369.0,98.0,439.0,99.0,453.0,,,14.0,38.7,,34.5,25.0,4.995,,,0.985,1.567,58.6,79.2,,,,,,2026-02-28-N890GF-SN35347-17.4.0.23677-USER_LOG_DATA.csv,,,,,,,93.2,174.2,,,,,206.6,703.4,208.4,696.2,208.4,822.2,210.2,847.4,,,174.56,1104.0,208.4,2.236051502145923,1.8690987124463518,0.01254166666666667,1.7710000000000001,417.2,True,2026-02-28 18:59:48 - Flight 15,
48.06,1.0,8.0,2026-02-28 19:00:31,37.82918,-121.62607,100.0,0.1,332.8,-12.8,,,,,0.0,10.4,-0.5,53.1,0.0,16.0,-0.0,-0.01,1.0,,-32.0,34.0,0.0,29.92,2220.0,,,334.0,,,,,0.0,0.0,,,,,,,,,,,,,,,,,,,58.0,79.0,1113.0,1113.0,13.6,2.5,,2.5,34.4,,,20.5,0.0,0.0,-0.3,3.5,2.3,,,,,97.0,380.0,98.0,383.0,99.0,445.0,99.0,463.0,,,14.0,30.3,,34.4,25.0,4.995,,,0.928,1.565,58.4,79.2,,,,,,2026-02-28-N890GF-SN35347-17.4.0.23677-USER_LOG_DATA.csv,,,,,,,93.2,174.2,,,,,206.6,716.0,208.4,721.4,210.2,833.0,210.2,865.4,,,174.56,1113.0,208.85,2.24087982832618,1.8690987124463518,0.013236111111111113,1.8553333333333335,417.2,True,2026-02-28 18:59:48 - Flight 15,
49.06,1.0,8.0,2026-02-28 19:00:32,37.82918,-121.62607,100.0,0.0,332.8,-12.8,,,,,0.0,10.4,-0.4,53.1,0.0,16.0,-0.0,-0.01,1.0,,-7.0,33.0,0.0,29.92,2218.0,,,334.0,,,,,0.0,0.0,,,,,,,0.0,,,0.0,,,,,,,,,58.0,79.0,1083.0,1083.0,13.4,2.5,,2.5,33.9,,,20.5,0.0,0.0,-0.3,3.5,2.3,,,,,97.0,390.0,99.0,400.0,99.0,458.0,99.0,475.0,,,14.0,23.8,,33.9,25.0,4.995,,,0.924,1.565,58.4,79.2,,,,,,2026-02-28-N890GF-SN35347-17.4.0.23677-USER_LOG_DATA.csv,,,,,,,91.4,174.2,,,,,206.6,734.0,210.2,752.0,210.2,856.4,210.2,887.0,,,174.56,1083.0,209.29999999999998,2.2899343544857764,1.9059080962800874,0.013930555555555557,1.9396666666666669,417.2,True,2026-02-28 18:59:48 - Flight 15,
50.06,1.0,8.0,2026-02-28 19:00:33,37.82918,-121.62607,100.0,0.0,332.8,-12.8,,,,,0.0,10.4,-0.5,53.1,0.0,16.0,-0.0,-0.0,1.0,,-15.0,33.0,0.0,29.92,2218.0,,,334.0,,,,,0.0,0.0,,,,,,,0.0,,,0.0,,,,,,,,,61.0,79.0,1210.0,1210.0,14.0,2.5,,2.5,33.7,,,20.5,0.0,0.0,-0.2,3.5,2.3,,,,,97.0,409.0,99.0,419.0,99.0,460.0,99.0,487.0,,,13.0,18.7,,33.7,25.0,4.995,,,0.968,1.565,61.4,79.2,,,,,,2026-02-28-N890GF-SN35347-17.4.0.23677-USER_LOG_DATA.csv,,,,,,,91.4,174.2,,,,,206.6,768.2,210.2,786.2,210.2,860.0,210.2,908.6,,,174.56,1210.0,209.29999999999998,2.2899343544857764,1.9059080962800874,0.014625000000000003,1.9396666666666669,417.2,True,2026-02-28 18:59:48 - Flight 15,
51.06,1.0,8.0,2026-02-28 19:00:34,37.82918,-121.62607,100.0,0.1,332.8,-12.8,,,,,0.0,10.4,-0.5,53.1,0.0,16.0,-0.0,-0.01,1.0,,-18.0,33.0,0.0,29.92,2218.0,,,334.0,,,,,0.0,0.0,,,,,,,1.0,,,-1.0,,,,,,,,,61.0,79.0,1183.0,1183.0,13.9,2.5,,2.5,33.7,,,20.5,0.0,0.0,-0.2,3.5,2.3,,,,,98.0,433.0,99.0,433.0,99.0,472.0,100.0,495.0,,,13.0,14.7,,33.7,25.0,4.995,,,0.934,1.565,60.9,79.2,,,,,,2026-02-28-N890GF-SN35347-17.4.0.23677-USER_LOG_DATA.csv,,,,,,,91.4,174.2,,,,,208.4,811.4,210.2,811.4,210.2,881.6,212.0,923.0,,,174.56,1183.0,210.2,2.299781181619256,1.9059080962800874,0.015319444444444446,2.024,417.2,True,2026-02-28 18:59:48 - Flight 15,
52.06,1.0,8.0,2026-02-28 19:00:35,37.82918,-121.62607,100.0,0.1,332.8,-12.8,,,,,0.0,10.4,-0.4,53.1,0.0,15.0,0.0,-0.01,0.9,,-35.0,33.0,0.0,29.92,2216.0,,,334.0,,,,,0.0,0.0,,,,,,,1.0,,,-2.0,,,,,,,,,63.0,79.0,1258.0,1258.0,13.8,2.6,,2.6,33.7,,,20.5,0.0,0.0,-0.2,3.5,2.3,,,,,98.0,454.0,99.0,440.0,100.0,482.0,100.0,509.0,,,13.0,11.7,,33.7,25.0,4.995,,,0.928,1.564,63.3,79.2,,,,,,2026-02-28-N890GF-SN35347-17.4.0.23677-USER_LOG_DATA.csv,,,,,,,91.4,174.2,,,,,208.4,849.2,210.2,824.0,212.0,899.6,212.0,948.2,,,174.56,1258.0,210.65,2.3047045951859957,1.9059080962800874,0.01602777777777778,2.1926666666666668,417.2,True,2026-02-28 18:59:48 - Flight 15,
53.06,1.0,8.0,2026-02-28 19:00:36,37.82918,-121.62607,100.0,0.1,332.8,-12.8,,,,,0.0,10.4,-0.4,53.1,0.0,14.0,-0.0,-0.0,1.0,,-52.0,33.0,0.0,29.92,2215.0,,,334.0,,,,,0.0,0.0,,,,,,,1.0,,,-3.0,,,,,3.0,0.0,0.0,1200.0,62.0,79.0,1179.0,1179.0,13.7,2.6,,2.6,33.7,,,20.5,0.0,0.0,-0.2,3.5,2.3,,,,,98.0,463.0,100.0,459.0,100.0,492.0,100.0,511.0,,,13.0,9.3,,33.7,25.0,4.995,,,0.929,1.564,61.5,79.1,,,,,,2026-02-28-N890GF-SN35347-17.4.0.23677-USER_LOG_DATA.csv,,,,,,,91.4,174.2,,,,,208.4,865.4,212.0,858.2,212.0,917.6,212.0,951.8,,,174.38,1179.0,211.1,2.309628008752735,1.9059080962800874,0.01675,2.3613333333333335,417.2,True,2026-02-28 18:59:48 - Flight 15,
54.06,1.0,8.0,2026-02-28 19:00:37,37.82918,-121.62607,100.0,0.0,332.8,-12.8,,,,,0.0,10.4,-0.5,53.1,0.0,13.0,-0.0,-0.01,1.0,,-45.0,33.0,0.0,29.92,2214.0,,,334.0,,,,,0.0,0.0,,,,,,,1.0,,,-3.0,,,,,1.0,0.0,0.0,1200.0,62.0,79.0,1223.0,1223.0,13.8,2.6,,2.6,33.7,,,20.5,0.0,0.0,-0.2,3.5,2.3,,,,,99.0,467.0,100.0,471.0,100.0,503.0,101.0,522.0,,,13.0,7.4,,33.7,25.0,4.995,,,0.94,1.564,62.3,79.1,,,,,,2026-02-28-N890GF-SN35347-17.4.0.23677-USER_LOG_DATA.csv,,,,,,,91.4,174.2,,,,,210.2,872.6,212.0,879.8,212.0,937.4,213.8,971.6,,,174.38,1223.0,212.0,2.3194748358862145,1.9059080962800874,0.017472222222222226,2.445666666666667,417.2,True,2026-02-28 18:59:48 - Flight 15,
55.06,1.0,8.0,2026-02-28 19:00:38,37.82918,-121.62607,100.0,0.0,332.8,-12.8,,,,,0.0,10.4,-0.5,53.1,0.0,13.0,0.0,-0.01,1.0,,-20.0,33.0,0.0,29.92,2202.0,,,334.0,,,,,0.0,0.0,,,,,,,1.0,,,-3.0,,,,,1.0,0.0,0.0,1200.0,64.0,79.0,1256.0,1256.0,13.5,2.6,,2.6,33.7,,,20.5,0.0,0.0,-0.2,3.5,2.3,,,,,99.0,479.0,101.0,481.0,101.0,517.0,101.0,536.0,,,13.0,6.0,,33.7,25.0,4.995,,,0.929,1.565,63.7,79.1,,,,,,2026-02-28-N890GF-SN35347-17.4.0.23677-USER_LOG_DATA.csv,,,,,,,91.4,174.2,,,,,210.2,894.2,213.8,897.8,213.8,962.6,213.8,996.8,,,174.38,1256.0,212.90000000000003,2.329321663019694,1.9059080962800874,0.018194444444444447,2.445666666666667,417.2,True,2026-02-28 18:59:48 - Flight 15,
56.06,1.0,8.0,2026-02-28 19:00:39,37.82918,-121.62607,100.0,0.0,332.8,-12.8,,,,,0.0,10.4,-0.4,53.1,0.0,13.0,0.0,-0.01,0.9,,-18.0,33.0,0.0,29.92,2202.0,,,334.0,,,,,0.0,0.0,,,,,,,1.0,,,-3.0,,,,,,,,,62.0,79.0,1221.0,1221.0,13.4,2.6,,2.6,33.4,,,20.5,0.0,0.0,-0.2,3.5,2.3,,,,,99.0,488.0,101.0,495.0,101.0,525.0,101.0,546.0,,,13.0,4.9,,33.4,25.0,4.995,,,0.927,1.564,61.9,79.1,,,,,,2026-02-28-N890GF-SN35347-17.4.0.23677-USER_LOG_DATA.csv,,,,,,,91.4,174.2,,,,,210.2,910.4,213.8,923.0,213.8,977.0,213.8,1014.8,,,174.38,1221.0,212.90000000000003,2.329321663019694,1.9059080962800874,0.01891666666666667,2.445666666666667,417.2,True,2026-02-28 18:59:48 - Flight 15,
57.06,1.0,8.0,2026-02-28 19:00:40,37.82918,-121.62607,100.0,0.1,332.8,-12.8,,,,,0.0,10.5,-0.4,53.1,0.0,13.0,0.0,-0.01,1.0,,8.0,33.0,0.0,29.92,2202.0,,,334.0,,,,,0.0,0.0,,,,,,,1.0,,,-3.0,,,,,,,,,63.0,79.0,1225.0,1225.0,13.5,2.5,,2.5,29.1,,,20.5,0.0,0.0,-0.3,3.5,2.3,,,,,99.0,499.0,101.0,502.0,102.0,533.0,102.0,555.0,,,13.0,4.0,,29.1,25.0,4.995,,,0.928,1.564,62.8,79.0,,,,,,2026-02-28-N890GF-SN35347-17.4.0.23677-USER_LOG_DATA.csv,,,,,,,91.4,174.2,,,,,210.2,930.2,213.8,935.6,215.6,991.4,215.6,1031.0,,,174.2,1225.0,213.8,2.3391684901531726,1.9059080962800874,0.019625000000000004,2.5300000000000002,417.2,True,2026-02-28 18:59:48 - Flight 15,
58.06,1.0,8.0,2026-02-28 19:00:41,37.82918,-121.62607,100.0,0.0,332.8,-12.8,,,,,0.0,10.5,-0.4,53.1,0.0,13.0,-0.0,-0.0,1.0,,18.0,33.0,0.0,29.92,2193.0,,,334.0,,,,,0.0,0.0,,,,,,,1.0,,,-3.0,,,,,,,,,64.0,79.0,1267.0,1267.0,13.3,2.5,,2.5,26.5,,,20.5,0.0,0.0,-0.3,3.5,2.3,,,,,100.0,512.0,102.0,506.0,102.0,536.0,102.0,565.0,,,13.0,3.4,,26.5,25.0,4.995,,,0.934,1.564,63.8,79.0,,,,,,2026-02-28-N890GF-SN35347-17.4.0.23677-USER_LOG_DATA.csv,,,,,,,91.4,174.2,,,,,212.0,953.6,215.6,942.8,215.6,996.8,215.6,1049.0,,,174.2,1267.0,214.7,2.3490153172866517,1.9059080962800874,0.02031944444444445,2.6143333333333336,417.2,True,2026-02-28 18:59:48 - Flight 15,
59.06,1.0,8.0,2026-02-28 19:00:42,37.82917,-121.62607,100.0,0.1,332.8,-12.8,,,,,0.0,10.5,-0.4,53.1,0.0,13.0,-0.0,-0.01,0.9,,-16.0,33.0,0.0,29.92,2191.0,,,334.0,,,,,0.0,0.0,,,,,,,2.0,,,-3.0,,,,,,,,,62.0,79.0,1153.0,1153.0,12.3,2.5,,2.5,24.5,,,20.5,0.0,0.0,-0.3,3.5,2.3,,,,,100.0,522.0,102.0,520.0,102.0,547.0,102.0,572.0,,,13.0,2.8,,24.5,25.0,4.995,,,0.945,1.564,61.5,79.0,,,,,,2026-02-28-N890GF-SN35347-17.4.0.23677-USER_LOG_DATA.csv,,,,,,,91.4,174.2,,,,,212.0,971.6,215.6,968.0,215.6,1016.6,215.6,1061.6,,,174.2,1153.0,214.7,2.3490153172866517,1.9059080962800874,0.02101388888888889,2.698666666666667,417.2,True,2026-02-28 18:59:48 - Flight 15,
60.06,1.0,8.0,2026-02-28 19:00:43,37.82917,-121.62607,100.0,0.0,332.8,-12.8,,,,,0.0,10.5,-0.4,53.1,0.0,12.0,-0.0,-0.0,1.0,,-29.0,33.0,0.0,29.92,2190.0,,,334.0,,,,,0.0,0.0,,,,,,,2.0,,,-3.0,,,,,,,,,56.0,79.0,1004.0,1004.0,12.2,2.3,,2.3,24.4,,,20.5,0.0,0.0,-0.3,3.5,2.3,,,,,100.0,516.0,102.0,518.0,103.0,547.0,103.0,570.0,,,13.0,2.4,,24.4,25.0,4.995,,,0.929,1.562,56.5,78.9,,,,,,2026-02-28-N890GF-SN35347-17.4.0.23677-USER_LOG_DATA.csv,,,,,,,91.4,174.2,,,,,212.0,960.8,215.6,964.4,217.4,1016.6,217.4,1058.0,,,174.02,1004.0,215.6,2.358862144420131,1.9059080962800874,0.021680555555555557,2.7830000000000004,417.2,True,2026-02-28 18:59:48 - Flight 15,
61.06,1.0,8.0,2026-02-28 19:00:44,37.82917,-121.62607,100.0,0.0,332.8,-12.8,,,,,0.0,10.5,-0.4,53.1,0.0,11.0,-0.0,-0.0,1.0,,-28.0,33.0,0.0,29.92,2189.0,,,334.0,,,,,0.0,0.0,,,,,,,2.0,,,-3.0,,,,,,,,,56.0,79.0,997.0,997.0,12.6,2.2,,2.2,24.5,,,20.5,0.0,0.0,-0.3,3.5,2.3,,,,,100.0,502.0,102.0,526.0,103.0,550.0,103.0,575.0,,,13.0,2.1,,24.5,25.0,4.995,,,1.05,1.562,55.6,78.9,,,,,,2026-02-28-N890GF-SN35347-17.4.0.23677-USER_LOG_DATA.csv,,,,,,,91.4,174.2,,,,,212.0,935.6,215.6,978.8,217.4,1022.0,217.4,1067.0,,,174.02,997.0,215.6,2.358862144420131,1.9059080962800874,0.022305555555555558,2.7830000000000004,417.2,True,2026-02-28 18:59:48 - Flight 15,
62.06,1.0,8.0,2026-02-28 19:00:45,37.82917,-121.62607,100.0,0.0,332.8,-12.8,,,,,0.0,10.4,-0.5,53.0,0.0,11.0,-0.0,-0.01,1.0,,-18.0,33.0,0.0,29.92,2189.0,,,334.0,,,,,0.0,0.0,,,,,,,2.0,,,-3.0,,,,,,,,,56.0,79.0,984.0,984.0,12.9,2.2,,2.2,24.6,,,20.5,0.0,0.0,-0.3,3.5,2.3,,,,,101.0,491.0,103.0,529.0,103.0,548.0,104.0,577.0,,,13.0,1.8,,24.6,25.0,4.995,,,0.931,1.562,55.9,78.9,,,,,,2026-02-28-N890GF-SN35347-17.4.0.23677-USER_LOG_DATA.csv,,,,,,,91.4,174.2,,,,,213.8,915.8,217.4,984.2,217.4,1018.4,219.2,1070.6,,,174.02,984.0,216.95,2.37363238512035,1.9059080962800874,0.02291666666666667,2.7830000000000004,417.2,True,2026-02-28 18:59:48 - Flight 15,
63.06,1.0,8.0,2026-02-28 19:00:46,37.82917,-121.62607,100.0,0.0,332.8,-12.8,,,,,0.0,10.4,-0.5,53.1,0.0,11.0,-0.0,-0.01,1.0,,-8.0,33.0,0.0,29.92,2178.0,,,334.0,,,,,0.0,0.0,,,,,,,2.0,,,-3.0,,,,,,,,,55.0,79.0,962.0,962.0,13.6,2.1,,2.1,24.7,,,20.5,0.0,0.0,-0.3,3.5,2.3,,,,,101.0,483.0,103.0,526.0,104.0,553.0,104.0,576.0,,,13.0,1.7,,24.7,25.0,4.995,,,0.934,1.562,54.7,78.8,,,,,,2026-02-28-N890GF-SN35347-17.4.0.23677-USER_LOG_DATA.csv,,,,,,,91.4,174.2,,,,,213.8,901.4,217.4,978.8,219.2,1027.4,219.2,1068.8,,,173.83999999999997,962.0,217.39999999999998,2.3785557986870893,1.9059080962800874,0.023513888888888893,2.7830000000000004,417.2,True,2026-02-28 18:59:48 - Flight 15,
64.06,1.0,8.0,2026-02-28 19:00:47,37.82917,-121.62607,100.0,0.1,332.8,-12.8,,,,,0.0,10.5,-0.5,53.1,0.0,11.0,0.0,-0.01,1.0,,5.0,33.0,0.0,29.92,2178.0,,,334.0,,,,,0.0,0.0,,,,,,,2.0,,,-3.0,,,,,,,,,55.0,79.0,950.0,950.0,13.6,2.0,,2.0,24.8,,,20.5,0.0,0.0,-0.3,3.5,2.3,,,,,101.0,475.0,103.0,531.0,104.0,553.0,104.0,576.0,,,13.0,1.5,,24.8,25.0,4.995,,,0.928,1.562,54.8,78.8,,,,,,2026-02-28-N890GF-SN35347-17.4.0.23677-USER_LOG_DATA.csv,,,,,,,91.4,174.2,,,,,213.8,887.0,217.4,987.8,219.2,1027.4,219.2,1068.8,,,173.83999999999997,950.0,217.39999999999998,2.3785557986870893,1.9059080962800874,0.024083333333333335,2.8673333333333337,417.2,True,2026-02-28 18:59:48 - Flight 15,
65.06,1.0,8.0,2026-02-28 19:00:48,37.82917,-121.62607,101.0,0.0,332.8,-12.8,,,,,0.0,10.5,-0.4,53.1,0.0,11.0,0.0,-0.01,0.9,,9.0,33.0,0.0,29.92,2178.0,,,334.0,,,,,0.0,0.0,,,,,,,2.0,,,-3.0,,,,,,,,,56.0,79.0,1015.0,1015.0,13.2,2.0,,2.0,24.8,,,20.5,0.0,0.0,-0.3,3.5,2.3,,,,,101.0,476.0,104.0,532.0,104.0,549.0,105.0,577.0,,,13.0,1.4,,24.8,25.0,4.995,,,0.929,1.562,56.2,78.7,,,,,,2026-02-28-N890GF-SN35347-17.4.0.23677-USER_LOG_DATA.csv,,,,,,,91.4,174.2,,,,,213.8,888.8,219.2,989.6,219.2,1020.2,221.0,1070.6,,,173.66000000000003,1015.0,218.3,2.388402625820569,1.9059080962800874,0.02463888888888889,2.9516666666666667,417.2,True,2026-02-28 18:59:48 - Flight 15,
66.06,1.0,8.0,2026-02-28 19:00:49,37.82917,-121.62607,100.0,0.0,332.8,-12.8,,,,,0.0,10.5,-0.4,53.1,0.0,11.0,0.0,-0.01,1.0,,-44.0,33.0,0.0,29.92,2169.0,,,334.0,,,,,0.0,0.0,,,,,,,2.0,,,-3.0,,,,,,,,,56.0,79.0,1009.0,1009.0,12.8,1.9,,1.9,24.9,,,20.5,0.0,0.0,-0.3,3.5,2.3,,,,,102.0,478.0,104.0,534.0,104.0,543.0,105.0,579.0,,,13.0,1.3,,24.9,25.0,4.995,,,0.929,1.562,56.4,78.7,,,,,,2026-02-28-N890GF-SN35347-17.4.0.23677-USER_LOG_DATA.csv,,,,,,,91.4,174.2,,,,,215.6,892.4,219.2,993.2,219.2,1009.4,221.0,1074.2,,,173.66000000000003,1009.0,218.75,2.3933260393873086,1.9059080962800874,0.02518055555555556,2.9516666666666667,417.2,True,2026-02-28 18:59:48 - Flight 15,
67.06,1.0,8.0,2026-02-28 19:00:50,37.82917,-121.62607,100.0,0.0,332.8,-12.8,,,,,0.0,10.5,-0.4,53.1,0.0,11.0,0.0,-0.01,1.0,,-11.0,33.0,0.0,29.92,2169.0,,,334.0,,,,,0.0,0.0,,,,,,,2.0,,,-3.0,,,,,,,,,56.0,79.0,1019.0,1019.0,12.8,1.9,,1.9,25.0,,,20.5,0.0,0.0,-0.3,3.5,2.3,,,,,102.0,480.0,104.0,530.0,105.0,544.0,105.0,581.0,,,13.0,1.2,,25.0,25.0,4.995,,,0.929,1.562,56.1,78.6,,,,,,2026-02-28-N890GF-SN35347-17.4.0.23677-USER_LOG_DATA.csv,,,,,,,91.4,174.2,,,,,215.6,896.0,219.2,986.0,221.0,1011.2,221.0,1077.8,,,173.48,1019.0,219.20000000000002,2.3982494529540483,1.9059080962800874,0.025708333333333337,2.9516666666666667,417.2,True,2026-02-28 18:59:48 - Flight 15,
68.06,1.0,8.0,2026-02-28 19:00:51,37.82917,-121.62607,100.0,0.0,332.8,-12.8,,,,,0.0,10.5,-0.4,53.0,0.0,10.0,0.0,-0.01,1.0,,-32.0,33.0,0.0,29.92,2165.0,,,334.0,,,,,0.0,0.0,,,,,,,2.0,,,-3.0,,,,,,,,,57.0,79.0,1040.0,1040.0,12.7,1.9,,1.9,25.1,,,20.5,0.0,0.0,-0.4,3.5,2.3,,,,,102.0,487.0,104.0,535.0,105.0,547.0,106.0,585.0,,,13.0,1.2,,25.1,25.0,4.995,,,0.929,1.562,57.1,78.6,,,,,,2026-02-28-N890GF-SN35347-17.4.0.23677-USER_LOG_DATA.csv,,,,,,,91.4,174.2,,,,,215.6,908.6,219.2,995.0,221.0,1016.6,222.8,1085.0,,,173.48,1040.0,219.65,2.4031728665207877,1.9059080962800874,0.026236111111111113,2.9516666666666667,417.2,True,2026-02-28 18:59:48 - Flight 15,
69.06,1.0,8.0,2026-02-28 19:00:52,37.82917,-121.62607,100.0,0.0,332.8,-12.8,,,,,0.0,10.5,-0.4,52.9,0.0,10.0,-0.0,-0.01,1.0,,18.0,33.0,0.0,29.92,2165.0,,,334.0,,,,,0.0,0.0,,,,,,,2.0,,,-3.0,,,,,,,,,56.0,79.0,976.0,976.0,12.6,1.8,,1.8,25.2,,,20.5,0.0,0.0,-0.4,3.5,2.3,,,,,102.0,498.0,105.0,539.0,106.0,552.0,106.0,580.0,,,13.0,1.2,,25.2,25.0,4.995,,,0.962,1.562,55.9,78.5,,,,,,2026-02-28-N890GF-SN35347-17.4.0.23677-USER_LOG_DATA.csv,,,,,,,91.4,174.2,,,,,215.6,928.4,221.0,1002.2,222.8,1025.6,222.8,1076.0,,,173.3,976.0,220.55,2.4130196936542667,1.9059080962800874,0.026750000000000003,2.9516666666666667,417.2,True,2026-02-28 18:59:48 - Flight 15,
70.06,1.0,8.0,2026-02-28 19:00:53,37.82917,-121.62607,101.0,0.1,332.8,-12.8,,,,,0.0,10.5,-0.5,52.9,0.0,10.0,-0.0,-0.01,1.0,,10.0,33.0,0.0,29.92,2165.0,,,334.0,,,,,0.0,0.0,,,,,,,2.0,,,-3.0,,,,,,,,,56.0,79.0,991.0,991.0,12.9,1.9,,1.9,25.2,,,20.5,0.0,0.0,-0.4,3.5,2.3,,,,,102.0,506.0,105.0,539.0,106.0,554.0,106.0,575.0,,,13.0,1.2,,25.2,25.0,4.995,,,1.01,1.564,56.1,78.5,,,,,,2026-02-28-N890GF-SN35347-17.4.0.23677-USER_LOG_DATA.csv,,,,,,,91.4,174.2,,,,,215.6,942.8,221.0,1002.2,222.8,1029.2,222.8,1067.0,,,173.3,991.0,220.55,2.4130196936542667,1.9059080962800874,0.027263888888888893,3.036,417.2,True,2026-02-28 18:59:48 - Flight 15,
71.06,1.0,8.0,2026-02-28 19:00:54,37.82917,-121.62607,101.0,0.0,332.8,-12.8,,,,,0.0,10.5,-0.5,52.9,0.0,10.0,-0.0,-0.01,1.0,,8.0,33.0,0.0,29.92,2156.0,,,334.0,,,,,0.0,0.0,,,,,,,2.0,,,-3.0,,,,,,,,,55.0,78.0,965.0,965.0,13.1,1.9,,1.9,25.3,,,20.5,0.0,0.0,-0.4,3.5,2.3,,,,,103.0,505.0,105.0,540.0,106.0,549.0,107.0,566.0,,,13.0,1.2,,25.3,25.0,4.995,,,1.088,1.564,54.7,78.5,,,,,,2026-02-28-N890GF-SN35347-17.4.0.23677-USER_LOG_DATA.csv,,,,,,,91.4,172.4,,,,,217.4,941.0,221.0,1004.0,222.8,1020.2,224.6,1050.8,,,173.3,965.0,221.45,2.422866520787746,1.886214442013129,0.02779166666666667,3.1203333333333334,417.2,True,2026-02-28 18:59:48 - Flight 15,
72.06,1.0,8.0,2026-02-28 19:00:55,37.82917,-121.62606,101.0,0.0,332.8,-12.8,,,,,0.0,10.5,-0.5,52.9,0.0,10.0,0.0,-0.01,1.0,,15.0,33.0,0.0,29.92,2154.0,,,334.0,,,,,0.0,0.0,,,,,,,2.0,,,-3.0,,,,,,,,,57.0,78.0,1017.0,1017.0,13.0,1.8,,1.8,25.3,,,20.5,0.0,0.0,-0.4,3.5,2.3,,,,,103.0,513.0,106.0,541.0,107.0,550.0,107.0,570.0,,,13.0,1.2,,25.3,25.0,4.995,,,1.093,1.562,56.5,78.4,,,,,,2026-02-28-N890GF-SN35347-17.4.0.23677-USER_LOG_DATA.csv,,,,,,,91.4,172.4,,,,,217.4,955.4,222.8,1005.8,224.6,1022.0,224.6,1058.0,,,173.12,1017.0,222.35,2.4327133479212253,1.886214442013129,0.02830555555555556,3.1203333333333334,417.2,True,2026-02-28 18:59:48 - Flight 15,
73.06,1.0,8.0,2026-02-28 19:00:56,37.82917,-121.62606,101.0,0.1,332.8,-12.8,,,,,0.0,10.5,-0.5,52.9,0.0,10.0,-0.0,-0.01,1.0,,19.0,33.0,0.0,29.92,2154.0,,,334.0,,,,,0.0,0.0,,,,,,,2.0,,,-3.0,,,,,,,,,56.0,78.0,997.0,997.0,12.7,1.8,,1.8,25.4,,,20.5,0.0,0.0,-0.3,3.5,2.3,,,,,103.0,520.0,106.0,544.0,107.0,562.0,107.0,567.0,,,13.0,1.2,,25.4,25.0,4.995,,,1.09,1.564,55.9,78.4,,,,,,2026-02-28-N890GF-SN35347-17.4.0.23677-USER_LOG_DATA.csv,,,,,,,91.4,172.4,,,,,217.4,968.0,222.8,1011.2,224.6,1043.6,224.6,1052.6,,,173.12,997.0,222.35,2.4327133479212253,1.886214442013129,0.02880555555555556,3.2046666666666668,417.2,True,2026-02-28 18:59:48 - Flight 15,
74.06,1.0,8.0,2026-02-28 19:00:57,37.82917,-121.62606,102.0,0.1,332.8,-12.8,,,,,0.0,10.5,-0.5,52.9,0.0,10.0,0.0,-0.0,1.0,,-2.0,33.0,0.0,29.92,2154.0,,,334.0,,,,,0.0,0.0,,,,,,,2.0,,,-3.0,,,,,,,,,55.0,78.0,953.0,953.0,13.4,1.8,,1.8,25.5,,,20.5,0.0,0.0,-0.3,3.5,2.3,,,,,103.0,526.0,106.0,540.0,107.0,557.0,108.0,570.0,,,13.0,1.3,,25.5,25.0,4.995,,,0.984,1.564,54.7,78.3,,,,,,2026-02-28-N890GF-SN35347-17.4.0.23677-USER_LOG_DATA.csv,,,,,,,91.4,172.4,,,,,217.4,978.8,222.8,1004.0,224.6,1034.6,226.4,1058.0,,,172.94,953.0,222.79999999999998,2.4376367614879646,1.886214442013129,0.029305555555555557,3.3733333333333335,417.2,True,2026-02-28 18:59:48 - Flight 15,
75.06,1.0,8.0,2026-02-28 19:00:58,37.82916,-121.62606,102.0,0.0,332.8,-12.8,,,,,0.0,10.5,-0.5,52.9,0.0,10.0,-0.0,-0.01,1.0,,-8.0,33.0,0.0,29.92,2143.0,,,334.0,,,,,0.0,0.0,,,,,,,2.0,,,-3.0,,,,,3.0,0.0,0.0,1200.0,54.0,78.0,988.0,988.0,14.1,1.8,,1.8,25.4,,,20.5,0.0,0.0,-0.3,3.5,2.3,,,,,104.0,532.0,106.0,534.0,107.0,549.0,108.0,566.0,,,13.0,1.4,,25.4,25.0,4.995,,,0.964,1.564,54.4,78.3,,,,,,2026-02-28-N890GF-SN35347-17.4.0.23677-USER_LOG_DATA.csv,,,,,,,91.4,172.4,,,,,219.2,989.6,222.8,993.2,224.6,1020.2,226.4,1050.8,,,172.94,988.0,223.25,2.4425601750547044,1.886214442013129,0.029805555555555557,3.457666666666667,417.2,True,2026-02-28 18:59:48 - Flight 15,
76.06,1.0,8.0,2026-02-28 19:00:59,37.82916,-121.62606,102.0,0.1,332.8,-12.8,,,,,0.0,10.5,-0.4,52.9,0.0,10.0,-0.0,-0.01,1.0,,42.0,33.0,0.0,29.92,2143.0,,,334.0,,,,,0.0,0.0,,,,,,,2.0,,,-3.0,,,,,1.0,0.0,0.0,1200.0,56.0,78.0,1002.0,1002.0,13.3,1.8,,1.8,25.5,,,20.5,0.0,0.0,-0.3,3.5,2.3,,,,,104.0,539.0,107.0,539.0,108.0,548.0,108.0,568.0,,,13.0,1.6,,25.5,25.0,4.995,,,0.933,1.564,55.9,78.2,,,,,,2026-02-28-N890GF-SN35347-17.4.0.23677-USER_LOG_DATA.csv,,,,,,,91.4,172.4,,,,,219.2,1002.2,224.6,1002.2,226.4,1018.4,226.4,1054.4,,,172.76000000000002,1002.0,224.14999999999998,2.4524070021881834,1.886214442013129,0.030305555555555558,3.5420000000000003,417.2,True,2026-02-28 18:59:48 - Flight 15,
77.06,1.0,8.0,2026-02-28 19:01:00,37.82916,-121.62606,103.0,0.0,332.8,-12.8,,,,,0.0,10.5,-0.5,52.9,0.0,10.0,-0.0,-0.01,1.0,,35.0,33.0,0.0,29.92,2143.0,,,334.0,,,,,0.0,0.0,,,,,,,2.0,,,-3.0,,,,,1.0,0.0,0.0,1200.0,57.0,78.0,1043.0,1043.0,12.9,1.8,,1.8,25.5,,,20.5,0.0,0.0,-0.3,3.5,2.3,,,,,104.0,541.0,107.0,536.0,108.0,549.0,109.0,567.0,,,13.0,1.6,,25.5,25.0,4.995,,,1.041,1.562,56.9,78.2,,,,,,2026-02-28-N890GF-SN35347-17.4.0.23677-USER_LOG_DATA.csv,,,,,,,91.4,172.4,,,,,219.2,1005.8,224.6,996.8,226.4,1020.2,228.2,1052.6,,,172.76000000000002,1043.0,224.60000000000002,2.4573304157549236,1.886214442013129,0.030805555555555558,3.6263333333333336,417.2,True,2026-02-28 18:59:48 - Flight 15,
78.06,1.0,8.0,2026-02-28 19:01:01,37.82916,-121.62606,103.0,0.0,332.8,-12.8,,,,,0.0,10.5,-0.4,53.0,0.0,10.0,0.0,-0.01,1.0,,-10.0,33.0,0.0,29.92,2133.0,,,334.0,,,,,0.0,0.0,,,,,,,2.0,,,-3.0,,,,,1.0,0.0,0.0,1200.0,55.0,78.0,950.0,950.0,12.7,1.8,,1.8,25.5,,,20.5,0.0,0.0,-0.3,3.5,2.3,,,,,104.0,543.0,107.0,537.0,108.0,557.0,109.0,571.0,,,13.0,1.7,,25.5,25.0,4.995,,,0.925,1.562,54.7,78.2,,,,,,2026-02-28-N890GF-SN35347-17.4.0.23677-USER_LOG_DATA.csv,,,,,,,91.4,172.4,,,,,219.2,1009.4,224.6,998.6,226.4,1034.6,228.2,1059.8,,,172.76000000000002,950.0,224.60000000000002,2.4573304157549236,1.886214442013129,0.03130555555555556,3.6263333333333336,417.2,True,2026-02-28 18:59:48 - Flight 15,
79.06,1.0,8.0,2026-02-28 19:01:02,37.82916,-121.62606,103.0,0.1,332.8,-12.8,,,,,0.0,10.5,-0.5,53.0,0.0,10.0,0.0,-0.01,1.0,,24.0,33.0,0.0,29.92,2132.0,,,334.0,,,,,0.0,0.0,,,,,,,2.0,,,-3.0,,,,,1.0,0.0,0.0,1200.0,56.0,78.0,1030.0,1030.0,13.6,1.8,,1.8,25.6,,,20.5,0.0,0.0,-0.2,3.5,2.3,,,,,105.0,544.0,108.0,526.0,109.0,547.0,109.0,564.0,,,13.0,1.8,,25.6,25.0,4.995,,,0.985,1.562,56.5,78.1,,,,,,2026-02-28-N890GF-SN35347-17.4.0.23677-USER_LOG_DATA.csv,,,,,,,91.4,172.4,,,,,221.0,1011.2,226.4,978.8,228.2,1016.6,228.2,1047.2,,,172.57999999999998,1030.0,225.95,2.472100656455142,1.886214442013129,0.03180555555555556,3.710666666666667,417.2,True,2026-02-28 18:59:48 - Flight 15,
80.06,1.0,8.0,2026-02-28 19:01:03,37.82916,-121.62606,104.0,0.1,332.8,-12.8,,,,,0.0,10.5,-0.4,53.0,0.0,10.0,0.0,-0.01,1.0,,38.0,33.0,0.0,29.92,2132.0,,,334.0,,,,,0.0,0.0,,,,,,,2.0,,,-3.0,,,,,1.0,0.0,0.0,1200.0,56.0,78.0,1002.0,1002.0,12.7,1.8,,1.8,25.6,,,20.5,0.0,0.0,-0.2,3.5,2.3,,,,,105.0,549.0,108.0,527.0,109.0,557.0,110.0,569.0,,,13.0,1.8,,25.6,25.0,4.995,,,1.014,1.564,56.3,78.1,,,,,,2026-02-28-N890GF-SN35347-17.4.0.23677-USER_LOG_DATA.csv,,,,,,,91.4,172.4,,,,,221.0,1020.2,226.4,980.6,228.2,1034.6,230.0,1056.2,,,172.57999999999998,1002.0,226.4,2.4770240700218817,1.886214442013129,0.03230555555555556,3.8793333333333333,417.2,True,2026-02-28 18:59:48 - Flight 15,
81.06,1.0,8.0,2026-02-28 19:01:04,37.82916,-121.62606,104.0,0.1,332.8,-12.8,,,,,0.0,10.5,-0.5,53.0,0.0,10.0,0.0,-0.01,1.0,,35.0,33.0,0.0,29.92,2132.0,,,334.0,,,,,0.0,0.0,,,,,,,2.0,,,-3.0,,,,,1.0,0.0,0.0,1200.0,55.0,78.0,939.0,939.0,13.2,1.9,,1.9,25.6,,,20.5,0.0,0.0,-0.2,3.5,2.3,,,,,105.0,546.0,108.0,516.0,109.0,557.0,110.0,573.0,,,13.0,1.8,,25.6,25.0,4.995,,,1.074,1.562,54.9,78.0,,,,,,2026-02-28-N890GF-SN35347-17.4.0.23677-USER_LOG_DATA.csv,,,,,,,91.4,172.4,,,,,221.0,1014.8,226.4,960.8,228.2,1034.6,230.0,1063.4,,,172.4,939.0,226.4,2.4770240700218817,1.886214442013129,0.03281944444444445,4.048,417.2,True,2026-02-28 18:59:48 - Flight 15,
82.06,1.0,8.0,2026-02-28 19:01:05,37.82916,-121.62606,104.0,0.0,332.8,-12.8,,,,,0.0,10.4,-0.5,53.0,0.0,10.0,0.0,-0.01,1.0,,40.0,33.0,0.0,29.92,2121.0,,,334.0,,,,,0.0,0.0,,,,,,,2.0,,,-3.0,,,,,1.0,0.0,0.0,1200.0,56.0,78.0,1026.0,1026.0,13.5,1.8,,1.8,25.6,,,20.5,0.0,0.0,-0.2,3.5,2.3,,,,,106.0,549.0,108.0,524.0,110.0,555.0,110.0,569.0,,,13.0,1.8,,25.6,25.0,4.995,,,1.097,1.564,56.4,78.0,,,,,,2026-02-28-N890GF-SN35347-17.4.0.23677-USER_LOG_DATA.csv,,,,,,,91.4,172.4,,,,,222.8,1020.2,226.4,975.2,230.0,1031.0,230.0,1056.2,,,172.4,1026.0,227.3,2.486870897155361,1.886214442013129,0.03333333333333333,4.132333333333333,417.2,True,2026-02-28 18:59:48 - Flight 15,
83.06,1.0,8.0,2026-02-28 19:01:06,37.82916,-121.62606,105.0,0.1,332.8,-12.8,,,,,0.0,10.4,-0.5,53.0,0.0,10.0,0.0,-0.01,1.0,,42.0,33.0,0.0,29.92,2121.0,,,334.0,,,,,0.0,0.0,,,,,,,2.0,,,-3.0,,,,,1.0,0.0,0.0,1200.0,58.0,78.0,1060.0,1060.0,13.3,1.8,,1.8,25.6,,,20.5,0.0,0.0,-0.2,3.5,2.3,,,,,106.0,554.0,109.0,530.0,110.0,554.0,111.0,566.0,,,13.0,1.9,,25.6,25.0,4.995,,,1.096,1.562,57.7,78.0,,,,,,2026-02-28-N890GF-SN35347-17.4.0.23677-USER_LOG_DATA.csv,,,,,,,91.4,172.4,,,,,222.8,1029.2,228.2,986.0,230.0,1029.2,231.8,1050.8,,,172.4,1060.0,228.2,2.49671772428884,1.886214442013129,0.03383333333333333,4.216666666666667,417.2,True,2026-02-28 18:59:48 - Flight 15,
84.06,1.0,8.0,2026-02-28 19:01:07,37.82916,-121.62606,105.0,0.1,332.8,-12.8,,,,,0.0,10.4,-0.5,53.0,0.0,10.0,0.0,-0.01,1.0,,42.0,33.0,0.0,29.92,2121.0,,,334.0,,,,,0.0,0.0,,,,,,,2.0,,,-3.0,,,,,1.0,0.0,0.0,1200.0,59.0,78.0,1120.0,1120.0,13.3,1.9,,1.9,25.6,,,20.5,0.0,0.0,-0.2,3.5,2.3,,,,,106.0,557.0,109.0,539.0,110.0,564.0,111.0,564.0,,,13.0,1.9,,25.6,25.0,4.995,,,1.091,1.564,59.4,77.9,,,,,,2026-02-28-N890GF-SN35347-17.4.0.23677-USER_LOG_DATA.csv,,,,,,,91.4,172.4,,,,,222.8,1034.6,228.2,1002.2,230.0,1047.2,231.8,1047.2,,,172.22,1120.0,228.2,2.49671772428884,1.886214442013129,0.03434722222222222,4.3853333333333335,417.2,True,2026-02-28 18:59:48 - Flight 15,
85.06,1.0,8.0,2026-02-28 19:01:08,37.82916,-121.62606,105.0,0.0,332.8,-12.8,,,,,0.0,10.5,-0.4,53.1,0.0,10.0,0.0,-0.01,1.0,,42.0,33.0,0.0,29.92,2110.0,,,334.0,,,,,0.0,0.0,,,,,,,2.0,,,-3.0,,,,,1.0,0.0,0.0,1200.0,60.0,78.0,1150.0,1150.0,13.3,2.0,,2.0,25.6,,,20.5,0.0,0.0,-0.2,3.5,2.3,,,,,106.0,565.0,109.0,535.0,111.0,564.0,112.0,558.0,,,13.0,1.9,,25.6,25.0,4.995,,,1.096,1.562,60.0,77.8,,,,,,2026-02-28-N890GF-SN35347-17.4.0.23677-USER_LOG_DATA.csv,,,,,,,91.4,172.4,,,,,222.8,1049.0,228.2,995.0,231.8,1047.2,233.6,1036.4,,,172.04,1150.0,229.09999999999997,2.506564551422319,1.886214442013129,0.03488888888888889,4.469666666666667,417.2,True,2026-02-28 18:59:48 - Flight 15,
86.06,1.0,8.0,2026-02-28 19:01:09,37.82916,-121.62606,105.0,0.1,332.8,-12.8,,,,,0.0,10.4,-0.4,53.0,0.0,10.0,0.0,-0.01,0.9,,54.0,33.0,0.0,29.92,2110.0,,,334.0,,,,,0.0,0.0,,,,,,,2.0,,,-3.0,,,,,1.0,0.0,0.0,1200.0,59.0,78.0,1084.0,1084.0,13.2,2.0,,2.0,25.6,,,20.5,0.0,0.0,-0.2,3.5,2.3,,,,,107.0,568.0,110.0,544.0,111.0,565.0,112.0,562.0,,,13.0,1.9,,25.6,25.0,4.995,,,1.09,1.564,59.3,77.8,,,,,,2026-02-28-N890GF-SN35347-17.4.0.23677-USER_LOG_DATA.csv,,,,,,,91.4,172.4,,,,,224.6,1054.4,230.0,1011.2,231.8,1049.0,233.6,1043.6,,,172.04,1084.0,230.0,2.5164113785557984,1.886214442013129,0.035444444444444445,4.554,417.2,True,2026-02-28 18:59:48 - Flight 15,
87.06,1.0,8.0,2026-02-28 19:01:10,37.82916,-121.62606,106.0,0.1,332.8,-12.8,,,,,0.0,10.4,-0.3,53.0,0.0,10.0,-0.0,-0.0,1.0,,31.0,33.0,0.0,29.92,2110.0,,,334.0,,,,,0.0,0.0,,,,,,,2.0,,,-3.0,,,,,1.0,0.0,0.0,1200.0,62.0,78.0,1215.0,1215.0,13.1,2.0,,2.0,32.3,,,20.5,0.0,0.0,-0.2,3.5,2.3,,,,,107.0,564.0,110.0,546.0,111.0,560.0,112.0,561.0,,,13.0,1.9,,32.3,25.0,4.995,,,1.09,1.552,62.0,77.7,,,,,,2026-02-28-N890GF-SN35347-17.4.0.23677-USER_LOG_DATA.csv,,,,,,,91.4,172.4,,,,,224.6,1047.2,230.0,1014.8,231.8,1040.0,233.6,1041.8,,,171.86,1215.0,230.0,2.5164113785557984,1.886214442013129,0.036000000000000004,4.722666666666667,417.2,True,2026-02-28 18:59:48 - Flight 15,
88.06,1.0,8.0,2026-02-28 19:01:11,37.82916,-121.62606,106.0,0.0,332.8,-12.8,,,,,0.0,10.5,-0.4,53.0,0.0,10.0,-0.0,-0.0,1.0,,33.0,33.0,0.0,29.92,2099.0,,,334.0,,,,,0.0,0.0,,,,,,,2.0,,,-3.0,,,,,1.0,0.0,0.0,1200.0,61.0,78.0,1143.0,1143.0,12.4,2.1,,2.1,34.0,,,20.5,0.0,0.0,-0.1,3.5,2.3,,,,,108.0,569.0,110.0,549.0,112.0,574.0,112.0,571.0,,,13.0,2.0,,34.0,25.0,4.995,,,1.091,1.564,61.2,77.7,,,,,,2026-02-28-N890GF-SN35347-17.4.0.23677-USER_LOG_DATA.csv,,,,,,,91.4,172.4,,,,,226.4,1056.2,230.0,1020.2,233.6,1065.2,233.6,1059.8,,,171.86,1143.0,230.9,2.526258205689278,1.886214442013129,0.036569444444444446,4.807,417.2,True,2026-02-28 18:59:48 - Flight 15,
89.06,1.0,8.0,2026-02-28 19:01:12,37.82916,-121.62606,106.0,0.0,332.8,-12.8,,,,,0.0,10.5,-0.5,52.9,0.0,12.0,-0.0,-0.0,0.9,,66.0,33.0,0.0,29.92,2099.0,,,334.0,,,,,0.0,0.0,,,,,,,2.0,,,-3.0,,,,,1.0,0.0,0.0,1200.0,61.0,78.0,1168.0,1168.0,12.5,2.1,,2.1,34.1,,,20.5,0.0,0.0,-0.1,3.5,2.3,,,,,108.0,573.0,111.0,549.0,112.0,584.0,113.0,577.0,,,13.0,2.0,,34.1,25.0,4.995,,,1.091,1.564,60.5,77.6,,,,,,2026-02-28-N890GF-SN35347-17.4.0.23677-USER_LOG_DATA.csv,,,,,,,91.4,172.4,,,,,226.4,1063.4,231.8,1020.2,233.6,1083.2,235.4,1070.6,,,171.68,1168.0,231.79999999999998,2.5361050328227566,1.886214442013129,0.03715277777777778,4.807,417.2,True,2026-02-28 18:59:48 - Flight 15,
90.06,1.0,8.0,2026-02-28 19:01:13,37.82916,-121.62606,106.0,0.0,332.8,-12.8,,,,,0.0,10.5,-0.5,53.0,0.0,12.0,0.0,-0.0,1.0,,38.0,32.0,0.0,29.92,2091.0,,,334.0,,,,,0.0,0.0,,,,,,,2.0,,,-3.0,,,,,1.0,0.0,0.0,1200.0,60.0,78.0,1160.0,1160.0,13.0,2.1,,2.1,34.0,,,20.5,0.0,0.0,-0.1,3.5,2.3,,,,,108.0,577.0,111.0,552.0,113.0,579.0,113.0,571.0,,,13.0,2.0,,34.0,25.0,4.995,,,1.091,1.562,59.7,77.6,,,,,,2026-02-28-N890GF-SN35347-17.4.0.23677-USER_LOG_DATA.csv,,,,,,,89.6,172.4,,,,,226.4,1070.6,231.8,1025.6,235.4,1074.2,235.4,1059.8,,,171.68,1160.0,232.25,2.5920758928571432,1.924107142857143,0.037736111111111116,4.807,417.2,True,2026-02-28 18:59:48 - Flight 15,
91.06,1.0,8.0,2026-02-28 19:01:14,37.82916,-121.62606,106.0,0.1,332.8,-12.8,,,,,0.0,10.4,-0.4,52.9,0.0,12.0,0.0,-0.01,0.9,,18.0,32.0,0.0,29.92,2091.0,,,334.0,,,,,0.0,0.0,,,,,,,2.0,,,-3.0,,,,,1.0,0.0,0.0,1200.0,62.0,78.0,1201.0,1201.0,12.5,2.1,,2.1,33.9,,,20.5,0.0,0.0,-0.1,3.5,2.3,,,,,109.0,579.0,112.0,559.0,113.0,583.0,114.0,580.0,,,13.0,2.0,,33.9,25.0,4.995,,,1.095,1.562,61.8,77.5,,,,,,2026-02-28-N890GF-SN35347-17.4.0.23677-USER_LOG_DATA.csv,,,,,,,89.6,172.4,,,,,228.2,1074.2,233.6,1038.2,235.4,1081.4,237.2,1076.0,,,171.5,1201.0,233.60000000000002,2.6071428571428577,1.924107142857143,0.03831944444444445,4.891333333333334,417.2,True,2026-02-28 18:59:48 - Flight 15,
92.06,1.0,8.0,2026-02-28 19:01:15,37.82916,-121.62606,107.0,0.1,332.8,-12.8,,,,,0.0,10.5,-0.4,53.0,0.0,12.0,0.0,-0.0,1.0,,8.0,32.0,0.0,29.92,2091.0,,,334.0,,,,,0.0,0.0,,,,,,,2.0,,,-3.0,,,,,1.0,0.0,0.0,1200.0,60.0,77.0,1158.0,1158.0,12.7,2.1,,2.1,33.9,,,20.5,0.0,0.0,-0.1,3.5,2.3,,,,,109.0,582.0,112.0,563.0,113.0,579.0,114.0,584.0,,,13.0,2.0,,33.9,25.0,4.995,,,1.09,1.562,60.3,77.5,,,,,,2026-02-28-N890GF-SN35347-17.4.0.23677-USER_LOG_DATA.csv,,,,,,,89.6,170.6,,,,,228.2,1079.6,233.6,1045.4,235.4,1074.2,237.2,1083.2,,,171.5,1158.0,233.60000000000002,2.6071428571428577,1.9040178571428572,0.03890277777777778,5.0600000000000005,417.2,True,2026-02-28 18:59:48 - Flight 15,
93.06,1.0,8.0,2026-02-28 19:01:16,37.82916,-121.62606,107.0,0.0,332.8,-12.8,,,,,0.0,10.4,-0.4,53.0,0.0,13.0,0.0,-0.01,0.9,,28.0,32.0,0.0,29.92,2080.0,,,334.0,,,,,0.0,0.0,,,,,,,2.0,,,-3.0,,,,,1.0,0.0,0.0,1200.0,61.0,77.0,1123.0,1123.0,12.6,2.2,,2.2,33.9,,,20.5,0.0,0.0,-0.1,3.5,2.3,,,,,109.0,586.0,112.0,571.0,114.0,585.0,114.0,590.0,,,13.0,2.0,,33.9,25.0,4.995,,,1.091,1.562,60.9,77.4,,,,,,2026-02-28-N890GF-SN35347-17.4.0.23677-USER_LOG_DATA.csv,,,,,,,89.6,170.6,,,,,228.2,1086.8,233.6,1059.8,237.2,1085.0,237.2,1094.0,,,171.32,1123.0,234.05,2.612165178571429,1.9040178571428572,0.0395,5.144333333333333,417.2,True,2026-02-28 18:59:48 - Flight 15,
