Session Time,GPS Fix Quality,Number of Satellites,GPS Date & Time,Latitude (deg),Longitude (deg),GPS Altitude (feet),Ground Speed (knots),Ground Track (deg),Mag Var (deg),Cross Track Error (NM),Destination Waypoint ID,Range to Destination (NM),Bearing to Destination (deg),System Time,Pitch (deg),Roll (deg),Magnetic Heading (deg),Indicated Airspeed (knots),Pressure Altitude (ft),Turn Rate (deg/s),Lateral Accel (g),Vertical Accel(g),Angle of Attack (%),Vertical Speed (ft/min),OAT (deg F),True Airspeed (knots),Barometer Setting (inHg),Density Altitude (ft),Wind Direction (deg),Wind Speed (knots),Heading Bug (deg),Altitude Bug (ft),Airspeed Bug (knots),Vertical Speed Bug (ft/min),Course (deg),CDI Source Type,CDI Source Port,CDI Scale (NM),CDI Deflection (%),Glideslope (%),AP Engaged,AP Roll Mode,AP Roll Force,AP Roll Position (steps),AP Roll Slip (bool),AP Pitch Force,AP Pitch Position (steps),AP Pitch Slip (bool),AP Yaw Force,AP Yaw Position,AP Yaw Slip (bool),Transponder Status,Transponder Reply (bool),Transponder Identing (bool),Transponder Code (octal),Oil Pressure (PSI),Oil Temp (deg F),RPM L,RPM R,Manifold Pressure (inHg),Fuel Flow 1 (gal/hr),Fuel Flow 2 (gal/hr),Total Fuel Flow (gal/hr),Fuel Pressure (PSI),Fuel Level L (gal),Fuel Level R (gal),Fuel Remaining (gal),Volts 1,Volts 2,Amps,Hobbs Time,Tach Time,Thermocouple 1 (deg F),Thermocouple 2 (deg F),Thermocouple 3 (deg F),Thermocouple 4 (deg F),CHT 4 (deg F),EGT 4 (deg F),CHT 3 (deg F),EGT 3 (deg F),CHT 2 (deg F),EGT 2 (deg F),CHT 1 (deg F),EGT 1 (deg F),Thermocouple 13 (deg F),Thermocouple 14 (deg F),ELEV POSITION (%),CO PPM PRESSURE (PSI),GP Input 3,FUEL PRESSURE (PSI),AILERN POSITION (%),CANOPY CONTACT (V),GP Input 7,GP Input 8,LEFT LEVEL (Sensor V),RIGHT LEVEL (Sensor V),OIL PRESSURE (PSI),OIL TEMPERATURE (deg F),GP Input 13,Contacts,Percent Power,EGT Leaning State,Unnamed: 103,RPM,AVG_CHT,CHT_OAT_Ratio,OIL_OAT_Ratio,Fuel Flow Integral,Distance Traveled,Max CHT,Engine Run,Flight ID,Fuel Flow,MPG
7.06,0,0,2026-02-22 23:00:12,37.08152,-121.59959,,0.1,124.9,-17.1,,,,,0.0,10.8,-0.8,21.2,0.0,7.0,0.0,-0.01,1.0,,-58.0,69.8,0.0,30.06,712.0,,,133.0,,,,,0.0,0.0,,,,,,,,,,,,,,,,,,,0.0,59.0,0.0,0.0,30.3,0.0,,0.0,0.2,,,30.0,0.0,0.0,-0.7,2.2,1.2,,,,,59.0,62.6,59.0,62.6,60.8,62.6,60.8,62.6,,,15.0,254.4,,0.2,4.0,0.0,,,0.662,0.8,0.0,58.64,,,,,,0.0,59.9,0.8581661891117479,0.845272206303725,0.0,0.0,433.4,True,2026-02-22 23:00:12 - Flight 1,0.0,0.0
8.06,1,7,2026-02-22 23:00:13,37.08166,-121.5996,327.0,0.0,124.9,-12.6,,,,,0.0,10.8,-0.7,21.2,0.0,6.0,0.1,-0.01,1.0,,-58.0,69.8,0.0,30.06,712.0,,,133.0,,,,,0.0,0.0,,,,,,,,,,,,,,,,,,,0.0,59.0,0.0,0.0,30.3,0.0,,0.0,0.2,,,30.0,0.0,0.0,-0.7,2.2,1.2,,,,,59.0,62.6,59.0,62.6,59.0,62.6,60.8,62.6,,,15.0,254.4,,0.2,4.0,0.0,,,0.662,0.8,0.0,58.64,,,,,,0.0,59.45,0.8517191977077365,0.845272206303725,0.0,0.0843333333333334,433.4,True,2026-02-22 23:00:12 - Flight 1,0.0,0.0
9.06,1,7,2026-02-22 23:00:14,37.08165,-121.5996,292.0,0.0,124.9,-12.6,,,,,0.0,10.8,-0.8,21.2,0.0,6.0,0.1,-0.01,1.0,,-50.0,69.8,0.0,30.06,711.0,,,133.0,,,,,0.0,0.0,,,,,,,,,,,,,,,,,,,0.0,59.0,0.0,0.0,30.3,0.0,,0.0,0.2,,,30.0,0.0,0.0,-0.7,2.2,1.2,,,,,59.0,62.6,59.0,62.6,59.0,62.6,60.8,62.6,,,15.0,254.4,,0.2,4.0,0.0,,,0.662,0.8,0.0,58.64,,,,,,0.0,59.45,0.8517191977077365,0.845272206303725,0.0,0.0843333333333334,433.4,True,2026-02-22 23:00:12 - Flight 1,0.0,0.0
10.06,1,7,2026-02-22 23:00:15,37.08165,-121.5996,294.0,0.0,124.9,-12.6,,,,,0.0,10.8,-0.8,21.2,0.0,2.0,0.1,-0.01,1.0,,-104.0,69.8,0.0,30.06,711.0,,,133.0,,,,,0.0,0.0,,,,,,,,,,,,,,,,,,,0.0,59.0,0.0,0.0,30.3,0.0,,0.0,0.2,,,30.0,0.0,0.0,-0.7,2.2,1.2,,,,,59.0,62.6,59.0,62.6,59.0,62.6,60.8,62.6,,,15.0,254.4,,0.2,4.0,0.0,,,0.662,0.8,0.0,58.64,,,,,,0.0,59.45,0.8517191977077365,0.845272206303725,0.0,0.0843333333333334,433.4,True,2026-02-22 23:00:12 - Flight 1,0.0,0.0
11.06,1,7,2026-02-22 23:00:16,37.08164,-121.59959,297.0,0.0,124.9,-12.6,,,,,0.0,10.8,-0.8,21.2,0.0,2.0,0.1,-0.01,1.0,,-61.0,69.8,0.0,30.06,711.0,,,133.0,,,,,0.0,0.0,,,,,,,,,,,,,,,,,,,0.0,59.0,0.0,0.0,30.3,0.0,,0.0,0.2,,,30.0,0.0,0.0,-0.7,2.2,1.2,,,,,59.0,62.6,59.0,62.6,59.0,62.6,60.8,62.6,,,15.0,254.3,,0.2,4.0,0.0,,,0.662,0.8,0.0,58.64,,,,,,0.0,59.45,0.8517191977077365,0.845272206303725,0.0,0.0843333333333334,433.4,True,2026-02-22 23:00:12 - Flight 1,0.0,0.0
12.06,1,7,2026-02-22 23:00:17,37.08164,-121.59959,300.0,0.0,124.9,-12.6,,,,,0.0,10.8,-0.8,21.2,0.0,2.0,0.1,-0.01,1.0,,-55.0,69.8,0.0,30.06,716.0,,,133.0,,,,,0.0,0.0,,,,,,,,,,,,,,,,,,,0.0,59.0,0.0,0.0,30.3,0.0,,0.0,0.2,,,30.0,0.0,0.0,-0.7,2.2,1.2,,,,,59.0,62.6,59.0,62.6,59.0,62.6,60.8,62.6,,,15.0,254.3,,0.2,4.0,0.0,,,0.662,0.8,0.0,58.64,,,,,,0.0,59.45,0.8517191977077365,0.845272206303725,0.0,0.0843333333333334,433.4,True,2026-02-22 23:00:12 - Flight 1,0.0,0.0
13.06,1,8,2026-02-22 23:00:18,37.08163,-121.59959,304.0,0.0,124.9,-12.6,,,,,0.0,10.8,-0.7,21.3,0.0,2.0,0.1,-0.01,1.0,,-44.0,69.8,0.0,30.06,716.0,,,133.0,,,,,0.0,0.0,,,,,,,,,,,,,,,,,,,0.0,59.0,0.0,0.0,30.3,0.0,,0.0,0.2,,,30.0,0.0,0.0,-0.7,2.2,1.2,,,,,59.0,62.6,59.0,62.6,59.0,62.6,60.8,62.6,,,15.0,254.3,,0.2,4.0,0.0,,,0.66,0.8,0.0,58.64,,,,,,0.0,59.45,0.8517191977077365,0.845272206303725,0.0,0.0843333333333334,433.4,True,2026-02-22 23:00:12 - Flight 1,0.0,0.0
14.06,1,8,2026-02-22 23:00:19,37.08163,-121.59959,306.0,0.0,124.9,-12.6,,,,,0.0,10.8,-0.8,21.2,0.0,2.0,0.0,-0.01,1.0,,-22.0,69.8,0.0,30.06,716.0,,,133.0,,,,,0.0,0.0,,,,,,,,,,,,,,,,,,,0.0,59.0,0.0,0.0,30.3,0.0,,0.0,0.2,,,30.0,0.0,0.0,-0.7,2.2,1.2,,,,,59.0,62.6,59.0,62.6,59.0,62.6,60.8,62.6,,,15.0,254.3,,0.2,4.0,0.0,,,0.662,0.8,0.0,58.64,,,,,,0.0,59.45,0.8517191977077365,0.845272206303725,0.0,0.0843333333333334,433.4,True,2026-02-22 23:00:12 - Flight 1,0.0,0.0
15.06,1,8,2026-02-22 23:00:20,37.08163,-121.59959,308.0,0.0,124.9,-12.6,,,,,0.0,10.9,-0.8,21.3,0.0,1.0,0.1,-0.01,1.0,,-35.0,69.8,0.0,30.06,715.0,,,133.0,,,,,0.0,0.0,,,,,,,,,,,,,,,,,,,0.0,59.0,0.0,0.0,30.3,0.0,,0.0,0.2,,,30.0,0.0,0.0,-0.7,2.2,1.2,,,,,59.0,62.6,59.0,62.6,59.0,62.6,60.8,62.6,,,15.0,254.3,,0.2,4.0,0.0,,,0.662,0.8,0.0,58.64,,,,,,0.0,59.45,0.8517191977077365,0.845272206303725,0.0,0.0843333333333334,433.4,True,2026-02-22 23:00:12 - Flight 1,0.0,0.0
16.06,1,8,2026-02-22 23:00:21,37.08162,-121.59959,312.0,0.0,124.9,-12.6,,,,,0.0,10.9,-0.8,21.3,0.0,1.0,0.1,-0.01,1.0,,-28.0,69.8,0.0,30.06,716.0,,,133.0,,,,,0.0,0.0,,,,,,,,,,,,,,,,,,,0.0,59.0,0.0,0.0,30.3,0.0,,0.0,0.2,,,30.0,0.0,0.0,-0.7,2.2,1.2,,,,,60.8,62.6,60.8,62.6,60.8,62.6,60.8,62.6,,,15.0,254.3,,0.2,4.0,0.0,,,0.66,0.8,0.0,58.64,,,,,,0.0,60.8,0.8710601719197708,0.845272206303725,0.0,0.0843333333333334,433.4,True,2026-02-22 23:00:12 - Flight 1,0.0,0.0
17.06,1,8,2026-02-22 23:00:22,37.08162,-121.59959,315.0,0.0,124.9,-12.6,,,,,0.0,10.9,-0.8,21.3,0.0,1.0,0.1,-0.01,1.0,,-16.0,69.8,0.0,30.06,716.0,,,133.0,,,,,0.0,0.0,,,,,,,,,,,,,,,,,,,0.0,59.0,0.0,0.0,30.3,0.0,,0.0,0.2,,,30.0,0.0,0.0,-0.7,2.2,1.2,,,,,59.0,62.6,59.0,62.6,59.0,62.6,60.8,62.6,,,15.0,254.3,,0.2,4.0,0.0,,,0.662,0.8,0.0,58.64,,,,,,0.0,59.45,0.8517191977077365,0.845272206303725,0.0,0.0843333333333334,433.4,True,2026-02-22 23:00:12 - Flight 1,0.0,0.0
18.06,1,8,2026-02-22 23:00:23,37.08162,-121.5996,317.0,0.0,124.9,-12.6,,,,,0.0,10.9,-0.8,21.3,0.0,-1.0,0.1,-0.01,1.0,,-62.0,69.8,0.0,30.06,716.0,,,133.0,,,,,0.0,0.0,,,,,,,,,,,,,,,,,,,0.0,59.0,0.0,0.0,30.3,0.0,,0.0,0.2,,,30.0,0.0,0.0,-0.7,2.2,1.2,,,,,60.8,62.6,60.8,62.6,60.8,62.6,60.8,62.6,,,15.0,254.3,,0.2,4.0,0.0,,,0.662,0.8,0.0,58.64,,,,,,0.0,60.8,0.8710601719197708,0.845272206303725,0.0,0.0843333333333334,433.4,True,2026-02-22 23:00:12 - Flight 1,0.0,0.0
19.06,1,8,2026-02-22 23:00:24,37.08162,-121.5996,321.0,0.0,124.9,-12.6,,,,,0.0,10.9,-0.7,21.3,0.0,-2.0,0.1,-0.01,1.0,,-66.0,69.8,0.0,30.06,724.0,,,133.0,,,,,0.0,0.0,,,,,,,,,,,,,,,,,,,0.0,59.0,0.0,0.0,30.3,0.0,,0.0,0.2,,,30.0,0.0,0.0,-0.7,2.2,1.2,,,,,60.8,62.6,60.8,62.6,60.8,62.6,60.8,62.6,,,15.0,254.3,,0.2,4.0,0.0,,,0.662,0.8,0.0,58.64,,,,,,0.0,60.8,0.8710601719197708,0.845272206303725,0.0,0.0843333333333334,433.4,True,2026-02-22 23:00:12 - Flight 1,0.0,0.0
20.06,1,8,2026-02-22 23:00:25,37.08162,-121.5996,324.0,0.0,124.9,-12.6,,,,,0.0,10.9,-0.7,21.3,0.0,-5.0,0.1,-0.01,1.0,,-107.0,69.8,0.0,30.06,724.0,,,133.0,,,,,0.0,0.0,,,,,,,,,,,,,,,,,,,0.0,59.0,0.0,0.0,30.3,0.0,,0.0,0.2,,,30.0,0.0,0.0,-0.7,2.2,1.2,,,,,60.8,62.6,60.8,62.6,60.8,62.6,60.8,62.6,,,15.0,254.3,,0.2,4.0,0.0,,,0.662,0.8,0.0,58.64,,,,,,0.0,60.8,0.8710601719197708,0.845272206303725,0.0,0.0843333333333334,433.4,True,2026-02-22 23:00:12 - Flight 1,0.0,0.0
21.06,1,8,2026-02-22 23:00:26,37.08162,-121.5996,327.0,0.0,124.9,-12.6,,,,,0.0,10.9,-0.8,21.2,0.0,-7.0,0.1,-0.01,1.0,,-138.0,69.8,0.0,30.06,724.0,,,133.0,,,,,0.0,0.0,,,,,,,,,,,,,,,,,,,0.0,59.0,0.0,0.0,30.3,0.0,,0.0,0.2,,,30.0,0.0,0.0,-0.7,2.2,1.2,,,,,60.8,62.6,60.8,62.6,60.8,62.6,60.8,62.6,,,15.0,254.3,,0.2,4.0,0.0,,,0.662,0.8,0.0,58.64,,,,,,0.0,60.8,0.8710601719197708,0.845272206303725,0.0,0.0843333333333334,433.4,True,2026-02-22 23:00:12 - Flight 1,0.0,0.0
22.06,1,8,2026-02-22 23:00:27,37.08161,-121.5996,329.0,0.0,124.9,-12.6,,,,,0.0,10.8,-0.8,21.2,0.0,-8.0,0.0,-0.01,1.0,,-105.0,69.8,0.0,30.06,716.0,,,133.0,,,,,0.0,0.0,,,,,,,,,,,,,,,,,,,0.0,59.0,0.0,0.0,30.3,0.0,,0.0,0.0,,,30.0,0.0,0.0,-0.7,2.2,1.2,,,,,60.8,62.6,60.8,62.6,60.8,62.6,60.8,62.6,,,15.0,254.3,,0.0,4.0,0.0,,,0.662,0.8,0.0,58.64,,,,,,0.0,60.8,0.8710601719197708,0.845272206303725,0.0,0.0843333333333334,433.4,True,2026-02-22 23:00:12 - Flight 1,0.0,0.0
23.06,1,8,2026-02-22 23:00:28,37.08161,-121.5996,332.0,0.0,124.9,-12.6,,,,,0.0,10.8,-0.8,21.1,0.0,-10.0,0.0,-0.01,1.0,,-106.0,69.8,0.0,30.06,716.0,,,133.0,,,,,0.0,0.0,,,,,,,,,,,,,,,,,,,0.0,59.0,0.0,0.0,30.3,0.0,,0.0,0.0,,,30.0,0.0,0.0,-0.7,2.2,1.2,,,,,60.8,62.6,60.8,62.6,60.8,62.6,60.8,62.6,,,15.0,254.3,,0.0,4.0,0.0,,,0.66,0.8,0.0,58.64,,,,,,0.0,60.8,0.8710601719197708,0.845272206303725,0.0,0.0843333333333334,433.4,True,2026-02-22 23:00:12 - Flight 1,0.0,0.0
24.06,1,8,2026-02-22 23:00:29,37.08161,-121.59961,334.0,0.0,124.9,-12.6,,,,,0.0,10.8,-0.9,21.1,0.0,-12.0,0.0,-0.01,1.0,,-119.0,69.8,0.0,30.06,716.0,,,133.0,,,,,0.0,0.0,,,,,,,,,,,,,,,,,,,0.0,59.0,0.0,0.0,30.3,0.0,,0.0,0.0,,,30.0,0.0,0.0,-0.7,2.2,1.2,,,,,60.8,62.6,60.8,62.6,60.8,62.6,60.8,62.6,,,15.0,254.3,,0.0,4.0,0.0,,,0.662,0.8,0.0,58.64,,,,,,0.0,60.8,0.8710601719197708,0.845272206303725,0.0,0.0843333333333334,433.4,True,2026-02-22 23:00:12 - Flight 1,0.0,0.0
25.06,1,8,2026-02-22 23:00:30,37.08161,-121.59961,337.0,0.0,124.9,-12.6,,,,,0.0,10.8,-0.9,21.1,0.0,-14.0,0.1,-0.01,1.0,,-130.0,69.8,0.0,30.06,720.0,,,133.0,,,,,0.0,0.0,,,,,,,,,,,,,,,,,,,0.0,59.0,0.0,0.0,30.3,0.0,,0.0,0.0,,,30.0,0.0,0.0,-0.7,2.2,1.2,,,,,60.8,62.6,60.8,62.6,60.8,62.6,60.8,62.6,,,15.0,254.3,,0.0,4.0,0.0,,,0.662,0.801,0.0,58.64,,,,,,0.0,60.8,0.8710601719197708,0.845272206303725,0.0,0.0843333333333334,433.4,True,2026-02-22 23:00:12 - Flight 1,0.0,0.0
26.06,1,8,2026-02-22 23:00:31,37.08161,-121.59961,339.0,0.0,124.9,-12.6,,,,,0.0,10.8,-0.9,21.1,0.0,-16.0,0.1,-0.01,1.0,,-147.0,69.8,0.0,30.06,720.0,,,133.0,,,,,0.0,0.0,,,,,,,,,,,,,,,,,,,0.0,59.0,0.0,0.0,30.3,0.0,,0.0,0.0,,,30.0,0.0,0.0,-0.7,2.2,1.2,,,,,60.8,62.6,60.8,62.6,60.8,62.6,60.8,62.6,,,15.0,254.3,,0.0,4.0,0.0,,,0.662,0.801,0.0,58.64,,,,,,0.0,60.8,0.8710601719197708,0.845272206303725,0.0,0.0843333333333334,433.4,True,2026-02-22 23:00:12 - Flight 1,0.0,0.0
27.06,1,8,2026-02-22 23:00:32,37.0816,-121.59961,341.0,0.0,124.9,-12.6,,,,,0.0,10.9,-0.8,21.2,0.0,-20.0,0.1,-0.01,1.0,,-170.0,69.8,0.0,30.06,720.0,,,133.0,,,,,0.0,0.0,,,,,,,,,,,,,,,,,,,0.0,59.0,0.0,0.0,30.3,0.0,,0.0,0.0,,,30.0,0.0,0.0,-0.7,2.2,1.2,,,,,60.8,62.6,60.8,62.6,60.8,62.6,60.8,62.6,,,15.0,254.3,,0.0,4.0,0.0,,,0.662,0.8,0.0,58.64,,,,,,0.0,60.8,0.8710601719197708,0.845272206303725,0.0,0.0843333333333334,433.4,True,2026-02-22 23:00:12 - Flight 1,0.0,0.0
28.06,1,8,2026-02-22 23:00:33,37.0816,-121.59961,342.0,0.0,124.9,-12.6,,,,,0.0,10.9,-0.8,21.2,0.0,-22.0,0.1,-0.01,1.0,,-166.0,69.8,0.0,30.06,718.0,,,133.0,,,,,0.0,0.0,,,,,,,,,,,,,,,,,,,0.0,59.0,0.0,0.0,30.3,0.0,,0.0,0.0,,,30.0,0.0,0.0,-0.7,2.2,1.2,,,,,60.8,62.6,60.8,62.6,60.8,62.6,60.8,62.6,,,16.0,254.3,,0.0,4.0,0.0,,,0.662,0.801,0.0,58.64,,,,,,0.0,60.8,0.8710601719197708,0.845272206303725,0.0,0.0843333333333334,433.4,True,2026-02-22 23:00:12 - Flight 1,0.0,0.0
29.06,1,8,2026-02-22 23:00:34,37.0816,-121.59961,343.0,0.0,124.9,-12.6,,,,,0.0,10.9,-0.9,21.1,0.0,-24.0,0.1,-0.01,1.0,,-150.0,69.8,0.0,30.06,718.0,,,133.0,,,,,0.0,0.0,,,,,,,,,,,,,,,,,,,0.0,59.0,0.0,0.0,30.3,0.0,,0.0,2.4,,,30.0,0.0,0.0,-0.6,2.2,1.2,,,,,60.8,62.6,60.8,62.6,60.8,62.6,60.8,62.6,,,16.0,254.3,,2.4,4.0,0.0,,,0.662,0.801,0.0,58.64,,,,,,0.0,60.8,0.8710601719197708,0.845272206303725,0.0,0.0843333333333334,433.4,True,2026-02-22 23:00:12 - Flight 1,0.0,0.0
30.06,1,8,2026-02-22 23:00:35,37.0816,-121.59961,344.0,0.0,124.9,-12.6,,,,,0.0,10.9,-0.9,21.2,0.0,-25.0,0.1,-0.01,1.0,,-115.0,69.8,0.0,30.06,718.0,,,133.0,,,,,0.0,0.0,,,,,,,,,,,,,,,,,,,0.0,59.0,0.0,0.0,30.3,0.0,,0.0,29.1,,,30.0,0.0,0.0,-0.6,2.2,1.2,,,,,60.8,62.6,60.8,62.6,60.8,62.6,60.8,62.6,,,16.0,254.3,,29.1,4.0,0.0,,,0.662,0.801,0.0,58.64,,,,,,0.0,60.8,0.8710601719197708,0.845272206303725,0.0,0.0843333333333334,433.4,True,2026-02-22 23:00:12 - Flight 1,0.0,0.0
31.06,1,8,2026-02-22 23:00:36,37.0816,-121.59961,345.0,0.0,124.9,-12.6,,,,,0.0,10.9,-0.9,21.1,0.0,-26.0,0.1,-0.01,1.0,,-90.0,69.8,0.0,30.06,713.0,,,133.0,,,,,0.0,0.0,,,,,,,,,,,,,,,,,,,0.0,59.0,0.0,0.0,30.3,0.0,,0.0,32.8,,,30.0,0.0,0.0,-0.6,2.2,1.2,,,,,60.8,62.6,60.8,62.6,60.8,62.6,60.8,62.6,,,16.0,254.3,,32.8,4.0,0.0,,,0.662,0.8,0.0,58.64,,,,,,0.0,60.8,0.8710601719197708,0.845272206303725,0.0,0.0843333333333334,433.4,True,2026-02-22 23:00:12 - Flight 1,0.0,0.0
32.06,1,8,2026-02-22 23:00:37,37.0816,-121.59961,345.0,0.0,124.9,-12.6,,,,,0.0,10.9,-0.9,21.1,0.0,-26.0,0.1,-0.01,1.0,,-43.0,69.8,0.0,30.06,713.0,,,133.0,,,,,0.0,0.0,,,,,,,,,,,,,,,,,,,0.0,59.0,0.0,0.0,30.3,0.0,,0.0,33.7,,,30.0,0.0,0.0,-0.6,2.2,1.2,,,,,60.8,62.6,60.8,62.6,60.8,62.6,60.8,62.6,,,16.0,254.3,,33.7,4.0,0.0,,,0.662,0.8,0.0,58.64,,,,,,0.0,60.8,0.8710601719197708,0.845272206303725,0.0,0.0843333333333334,433.4,True,2026-02-22 23:00:12 - Flight 1,0.0,0.0
33.06,1,8,2026-02-22 23:00:38,37.0816,-121.59961,345.0,0.0,124.9,-12.6,,,,,0.0,10.9,-0.9,21.1,0.0,-26.0,0.1,-0.01,1.0,,-35.0,69.8,0.0,30.06,713.0,,,133.0,,,,,0.0,0.0,,,,,,,,,,,,,,,,,,,0.0,59.0,0.0,0.0,30.3,0.3,,0.3,34.1,,,30.0,0.0,0.0,-0.6,2.2,1.2,,,,,60.8,62.6,60.8,62.6,60.8,62.6,60.8,62.6,,,16.0,254.3,,34.1,4.0,0.0,,,0.662,0.8,0.0,58.64,,,,,,0.0,60.8,0.8710601719197708,0.845272206303725,4.1666666666666665e-05,0.0843333333333334,433.4,True,2026-02-22 23:00:12 - Flight 1,0.3,0.0
34.06,1,8,2026-02-22 23:00:39,37.0816,-121.59961,345.0,0.0,124.9,-12.6,,,,,0.0,10.9,-0.9,21.1,0.0,-26.0,0.1,-0.01,1.0,,-44.0,69.8,0.0,30.06,714.0,,,133.0,,,,,0.0,0.0,,,,,,,,,,,,,,,,,,,0.0,59.0,0.0,0.0,30.3,0.9,,0.9,33.8,,,30.0,0.0,0.0,-0.6,2.2,1.2,,,,,60.8,62.6,60.8,62.6,60.8,62.6,60.8,62.6,,,16.0,254.3,,33.8,4.0,0.0,,,0.662,0.8,0.0,58.64,,,,,,0.0,60.8,0.8710601719197708,0.845272206303725,0.00020833333333333332,0.0843333333333334,433.4,True,2026-02-22 23:00:12 - Flight 1,0.9,0.0
35.06,1,8,2026-02-22 23:00:40,37.0816,-121.59961,345.0,0.0,124.9,-12.6,,,,,0.0,10.9,-0.9,21.0,0.0,-28.0,0.1,-0.01,1.0,,-69.0,69.8,0.0,30.06,714.0,,,133.0,,,,,0.0,0.0,,,,,,,,,,,,,,,,,,,0.0,59.0,0.0,0.0,30.3,1.3,,1.3,34.0,,,30.0,0.0,0.0,-0.6,2.2,1.2,,,,,60.8,62.6,60.8,62.6,60.8,62.6,60.8,62.6,,,16.0,254.3,,34.0,4.0,0.0,,,0.662,0.801,0.0,58.64,,,,,,0.0,60.8,0.8710601719197708,0.845272206303725,0.0005138888888888888,0.0843333333333334,433.4,True,2026-02-22 23:00:12 - Flight 1,1.3,0.0
36.06,1,8,2026-02-22 23:00:41,37.0816,-121.59961,344.0,0.0,124.9,-12.6,,,,,0.0,10.9,-0.9,21.0,0.0,-29.0,0.0,-0.01,1.0,,-51.0,69.8,0.0,30.06,714.0,,,133.0,,,,,0.0,0.0,,,,,,,,,,,,,,,,,,,0.0,59.0,0.0,0.0,30.3,1.3,,1.3,33.4,,,30.0,0.0,0.0,-0.6,2.2,1.2,,,,,60.8,62.6,60.8,62.6,60.8,62.6,60.8,62.6,,,16.0,254.3,,33.4,4.0,0.0,,,0.662,0.8,0.0,58.64,,,,,,0.0,60.8,0.8710601719197708,0.845272206303725,0.000875,0.0843333333333334,433.4,True,2026-02-22 23:00:12 - Flight 1,1.3,0.0
37.06,1,8,2026-02-22 23:00:42,37.0816,-121.59961,344.0,0.0,124.9,-12.6,,,,,0.0,10.9,-0.9,21.0,0.0,-29.0,0.0,-0.01,1.0,,-39.0,69.8,0.0,30.06,721.0,,,133.0,,,,,0.0,0.0,,,,,,,,,,,,,,,,,,,0.0,59.0,0.0,0.0,30.3,1.3,,1.3,33.1,,,30.0,0.0,0.0,-0.6,2.2,1.2,,,,,60.8,62.6,60.8,62.6,60.8,62.6,60.8,62.6,,,16.0,254.3,,33.1,4.0,0.0,,,0.662,0.8,0.0,58.64,,,,,,0.0,60.8,0.8710601719197708,0.845272206303725,0.0012361111111111112,0.0843333333333334,433.4,True,2026-02-22 23:00:12 - Flight 1,1.3,0.0
38.06,1,8,2026-02-22 23:00:43,37.0816,-121.59961,344.0,0.0,124.9,-12.6,,,,,0.0,10.9,-0.9,21.0,0.0,-29.0,0.0,-0.01,1.0,,-30.0,69.8,0.0,30.06,721.0,,,133.0,,,,,0.0,0.0,,,,,,,,,,,,,,,,,,,0.0,59.0,0.0,0.0,30.3,1.3,,1.3,32.9,,,30.0,0.0,0.0,-0.6,2.2,1.2,,,,,60.8,62.6,60.8,62.6,60.8,62.6,60.8,62.6,,,16.0,254.3,,32.9,4.0,0.0,,,0.662,0.801,0.0,58.64,,,,,,0.0,60.8,0.8710601719197708,0.845272206303725,0.0015972222222222223,0.0843333333333334,433.4,True,2026-02-22 23:00:12 - Flight 1,1.3,0.0
39.06,1,8,2026-02-22 23:00:44,37.0816,-121.5996,343.0,0.0,124.9,-12.6,,,,,0.0,10.9,-0.9,21.0,0.0,-29.0,0.1,-0.01,1.0,,-2.0,69.8,0.0,30.06,722.0,,,133.0,,,,,0.0,0.0,,,,,,,,,,,,,,,,,,,0.0,59.0,0.0,0.0,30.3,0.0,,0.0,32.7,,,30.0,0.0,0.0,-0.7,2.2,1.2,,,,,60.8,62.6,60.8,62.6,60.8,62.6,60.8,62.6,,,16.0,254.3,,32.7,4.0,0.0,,,0.662,0.801,0.0,58.64,,,,,,0.0,60.8,0.8710601719197708,0.845272206303725,0.0017777777777777779,0.0843333333333334,433.4,True,2026-02-22 23:00:12 - Flight 1,0.0,0.0
40.06,1,8,2026-02-22 23:00:45,37.0816,-121.5996,342.0,0.0,124.9,-12.6,,,,,0.0,10.9,-0.8,21.1,0.0,-29.0,0.1,-0.01,1.0,,17.0,69.8,0.0,30.06,722.0,,,133.0,,,,,0.0,0.0,,,,,,,,,,,,,,,,,,,0.0,59.0,0.0,0.0,30.3,0.0,,0.0,32.5,,,30.0,0.0,0.0,-0.7,2.2,1.2,,,,,60.8,62.6,60.8,62.6,60.8,62.6,60.8,62.6,,,16.0,254.3,,32.5,4.0,0.0,,,0.662,0.8,0.0,58.64,,,,,,0.0,60.8,0.8710601719197708,0.845272206303725,0.0017777777777777779,0.0843333333333334,433.4,True,2026-02-22 23:00:12 - Flight 1,0.0,0.0
41.06,1,8,2026-02-22 23:00:46,37.0816,-121.5996,341.0,0.0,124.9,-12.6,,,,,0.0,10.9,-0.8,21.1,0.0,-29.0,0.1,-0.01,1.0,,29.0,69.8,0.0,30.06,722.0,,,133.0,,,,,0.0,0.0,,,,,,,,,,,,,,,,,,,0.0,59.0,0.0,0.0,30.3,0.0,,0.0,32.3,,,30.0,0.0,0.0,-0.7,2.2,1.2,,,,,60.8,62.6,60.8,62.6,60.8,62.6,60.8,62.6,,,16.0,254.3,,32.3,4.0,0.0,,,0.662,0.801,0.0,58.64,,,,,,0.0,60.8,0.8710601719197708,0.845272206303725,0.0017777777777777779,0.0843333333333334,433.4,True,2026-02-22 23:00:12 - Flight 1,0.0,0.0
42.06,1,8,2026-02-22 23:00:47,37.0816,-121.5996,340.0,0.0,124.9,-12.6,,,,,0.0,10.9,-0.8,21.1,0.0,-29.0,0.1,-0.01,1.0,,36.0,69.8,0.0,30.06,731.0,,,133.0,,,,,0.0,0.0,,,,,,,,,,,,,,,,,,,0.0,59.0,0.0,0.0,30.3,0.0,,0.0,32.2,,,30.0,0.0,0.0,-0.7,2.2,1.2,,,,,60.8,62.6,60.8,62.6,60.8,62.6,60.8,62.6,,,16.0,227.3,,32.2,4.0,0.0,,,0.662,0.801,0.0,58.64,,,,,,0.0,60.8,0.8710601719197708,0.845272206303725,0.0017777777777777779,0.0843333333333334,433.4,True,2026-02-22 23:00:12 - Flight 1,0.0,0.0
43.06,1,8,2026-02-22 23:00:48,37.0816,-121.5996,339.0,0.0,124.9,-12.6,,,,,0.0,10.9,-0.9,21.1,0.0,-29.0,0.1,-0.01,1.0,,24.0,69.8,0.0,30.06,731.0,,,133.0,,,,,0.0,0.0,,,,,,,,,,,,,,,,,,,0.0,59.0,0.0,0.0,30.3,0.0,,0.0,32.0,,,30.0,0.0,0.0,-0.7,2.2,1.2,,,,,60.8,62.6,60.8,62.6,60.8,62.6,60.8,62.6,,,16.0,176.9,,32.0,4.0,0.0,,,0.662,0.801,0.0,58.64,,,,,,0.0,60.8,0.8710601719197708,0.845272206303725,0.0017777777777777779,0.0843333333333334,433.4,True,2026-02-22 23:00:12 - Flight 1,0.0,0.0
44.06,1,8,2026-02-22 23:00:49,37.0816,-121.5996,338.0,0.0,124.9,-12.6,,,,,0.0,10.9,-0.9,21.1,0.0,-29.0,0.1,-0.01,1.0,,33.0,71.6,0.0,30.06,732.0,,,133.0,,,,,0.0,0.0,,,,,,,,,,,,,,,,,,,0.0,59.0,0.0,0.0,30.3,0.0,,0.0,31.9,,,30.0,0.0,0.0,-0.7,2.2,1.2,,,,,60.8,62.6,60.8,62.6,60.8,62.6,60.8,62.6,,,16.0,137.7,,31.9,4.0,0.0,,,0.662,0.801,0.0,58.64,,,,,,0.0,60.8,0.8491620111731844,0.8240223463687152,0.0017777777777777779,0.0843333333333334,433.4,True,2026-02-22 23:00:12 - Flight 1,0.0,0.0
45.06,1,8,2026-02-22 23:00:50,37.0816,-121.5996,336.0,0.0,124.9,-12.6,,,,,0.0,10.9,-0.9,21.1,0.0,-29.0,0.1,-0.01,1.0,,-6.0,71.6,0.0,30.06,732.0,,,133.0,,,,,0.0,0.0,,,,,,,,,,,,,,,,,,,0.0,59.0,0.0,0.0,30.3,0.0,,0.0,31.7,,,30.0,0.0,0.0,-0.7,2.2,1.2,,,,,60.8,62.6,60.8,62.6,60.8,62.6,60.8,62.6,,,16.0,107.3,,31.7,4.0,0.0,,,0.662,0.801,0.0,58.64,,,,,,0.0,60.8,0.8491620111731844,0.8240223463687152,0.0017777777777777779,0.0843333333333334,433.4,True,2026-02-22 23:00:12 - Flight 1,0.0,0.0
46.06,1,8,2026-02-22 23:00:51,37.0816,-121.5996,335.0,0.0,124.9,-12.6,,,,,0.0,10.9,-0.9,21.0,0.0,-29.0,0.1,-0.01,1.0,,-23.0,71.6,0.0,30.06,732.0,,,133.0,,,,,0.0,0.0,,,,,,,,,,,,,,,,,,,0.0,59.0,0.0,0.0,30.3,0.0,,0.0,31.6,,,30.0,0.0,0.0,-0.7,2.2,1.2,,,,,60.8,62.6,60.8,62.6,60.8,62.6,60.8,62.6,,,16.0,83.6,,31.6,4.0,0.0,,,0.662,0.8,0.0,58.64,,,,,,0.0,60.8,0.8491620111731844,0.8240223463687152,0.0017777777777777779,0.0843333333333334,433.4,True,2026-02-22 23:00:12 - Flight 1,0.0,0.0
47.06,1,8,2026-02-22 23:00:52,37.0816,-121.5996,334.0,0.0,124.9,-12.6,,,,,0.0,10.9,-0.9,21.0,0.0,-29.0,0.1,-0.01,1.0,,-17.0,71.6,0.0,30.06,742.0,,,133.0,,,,,0.0,0.0,,,,,,,,,,,,,,,,,,,0.0,59.0,0.0,0.0,30.3,0.0,,0.0,31.4,,,30.0,0.0,0.0,-0.7,2.2,1.2,,,,,60.8,62.6,60.8,62.6,60.8,62.6,60.8,62.6,,,16.0,65.2,,31.4,4.0,0.0,,,0.662,0.801,0.0,58.64,,,,,,0.0,60.8,0.8491620111731844,0.8240223463687152,0.0017777777777777779,0.0843333333333334,433.4,True,2026-02-22 23:00:12 - Flight 1,0.0,0.0
48.06,1,8,2026-02-22 23:00:53,37.0816,-121.59959,334.0,0.0,124.9,-12.6,,,,,0.0,10.9,-0.9,21.0,0.0,-29.0,0.1,-0.01,1.0,,-48.0,71.6,0.0,30.06,742.0,,,133.0,,,,,0.0,0.0,,,,,,,,,,,,,,,,,,,0.0,59.0,0.0,0.0,30.3,0.0,,0.0,31.3,,,30.0,0.0,0.0,-0.7,2.2,1.2,,,,,60.8,62.6,60.8,62.6,60.8,62.6,60.8,62.6,,,16.0,50.9,,31.3,4.0,0.0,,,0.662,0.801,0.0,58.64,,,,,,0.0,60.8,0.8491620111731844,0.8240223463687152,0.0017777777777777779,0.0843333333333334,433.4,True,2026-02-22 23:00:12 - Flight 1,0.0,0.0
49.06,1,8,2026-02-22 23:00:54,37.0816,-121.59959,333.0,0.0,124.9,-12.6,,,,,0.0,10.9,-0.8,21.0,0.0,-29.0,0.0,-0.01,1.0,,-77.0,71.6,0.0,30.06,743.0,,,133.0,,,,,0.0,0.0,,,,,,,,,,,,,,,,,,,0.0,59.0,0.0,0.0,30.3,0.0,,0.0,31.2,,,30.0,0.0,0.0,-0.7,2.2,1.2,,,,,60.8,62.6,60.8,62.6,60.8,62.6,60.8,62.6,,,16.0,39.8,,31.2,4.0,0.0,,,0.662,0.801,0.0,58.64,,,,,,0.0,60.8,0.8491620111731844,0.8240223463687152,0.0017777777777777779,0.0843333333333334,433.4,True,2026-02-22 23:00:12 - Flight 1,0.0,0.0
50.06,1,8,2026-02-22 23:00:55,37.0816,-121.59959,332.0,0.0,124.9,-12.6,,,,,0.0,10.9,-0.8,21.0,0.0,-30.0,0.0,-0.01,1.0,,-86.0,71.6,0.0,30.06,743.0,,,133.0,,,,,0.0,0.0,,,,,,,,,,,,,,,,,,,0.0,59.0,0.0,0.0,30.3,0.0,,0.0,31.1,,,30.0,0.0,0.0,-0.7,2.2,1.2,,,,,60.8,62.6,60.8,62.6,60.8,62.6,60.8,62.6,,,16.0,31.1,,31.1,4.0,0.0,,,0.662,0.801,0.0,58.64,,,,,,0.0,60.8,0.8491620111731844,0.8240223463687152,0.0017777777777777779,0.0843333333333334,433.4,True,2026-02-22 23:00:12 - Flight 1,0.0,0.0
51.06,1,8,2026-02-22 23:00:56,37.0816,-121.59959,332.0,0.0,124.9,-12.6,,,,,0.0,10.9,-0.9,21.0,0.0,-30.0,0.1,-0.01,1.0,,-59.0,71.6,0.0,30.06,743.0,,,133.0,,,,,0.0,0.0,,,,,,,,,,,,,,,,,,,0.0,59.0,0.0,0.0,30.3,0.0,,0.0,31.0,,,30.0,0.0,0.0,-0.7,2.2,1.2,,,,,60.8,62.6,60.8,62.6,60.8,62.6,60.8,62.6,,,16.0,24.4,,31.0,4.0,0.0,,,0.662,0.801,0.0,58.64,,,,,,0.0,60.8,0.8491620111731844,0.8240223463687152,0.0017777777777777779,0.0843333333333334,433.4,True,2026-02-22 23:00:12 - Flight 1,0.0,0.0
52.06,1,8,2026-02-22 23:00:57,37.0816,-121.59959,331.0,0.0,124.9,-12.6,,,,,0.0,10.9,-0.9,21.0,0.0,-33.0,0.1,-0.01,1.0,,-101.0,71.6,0.0,30.06,747.0,,,133.0,,,,,0.0,0.0,,,,,,,,,,,,,,,,,,,0.0,59.0,0.0,0.0,30.3,0.0,,0.0,30.8,,,30.0,0.0,0.0,-0.7,2.2,1.2,,,,,60.8,62.6,60.8,62.6,60.8,62.6,60.8,62.6,,,16.0,19.2,,30.8,4.0,0.0,,,0.662,0.801,0.0,58.64,,,,,,0.0,60.8,0.8491620111731844,0.8240223463687152,0.0017777777777777779,0.0843333333333334,433.4,True,2026-02-22 23:00:12 - Flight 1,0.0,0.0
53.06,1,8,2026-02-22 23:00:58,37.0816,-121.59959,331.0,0.0,124.9,-12.6,,,,,0.0,10.9,-0.9,20.9,0.0,-34.0,0.0,-0.01,1.0,,-109.0,71.6,0.0,30.06,747.0,,,133.0,,,,,0.0,0.0,,,,,,,,,,,,,,,,,,,0.0,59.0,0.0,0.0,30.3,0.0,,0.0,30.7,,,30.0,0.0,0.0,-0.7,2.2,1.2,,,,,60.8,62.6,60.8,62.6,60.8,62.6,60.8,62.6,,,16.0,15.1,,30.7,4.0,0.0,,,0.662,0.801,0.0,58.64,,,,,,0.0,60.8,0.8491620111731844,0.8240223463687152,0.0017777777777777779,0.0843333333333334,433.4,True,2026-02-22 23:00:12 - Flight 1,0.0,0.0
54.06,1,8,2026-02-22 23:00:59,37.0816,-121.59959,331.0,0.0,124.9,-12.6,,,,,0.0,10.9,-0.9,21.0,0.0,-35.0,0.1,-0.01,1.0,,-78.0,71.6,0.0,30.06,747.0,,,133.0,,,,,0.0,0.0,,,,,,,,,,,,,,,,,,,0.0,59.0,0.0,0.0,30.3,0.0,,0.0,30.6,,,30.0,0.0,0.0,-0.7,2.2,1.2,,,,,60.8,62.6,60.8,62.6,60.8,62.6,60.8,62.6,,,16.0,12.0,,30.6,4.0,0.0,,,0.662,0.801,0.0,58.64,,,,,,0.0,60.8,0.8491620111731844,0.8240223463687152,0.0017777777777777779,0.0843333333333334,433.4,True,2026-02-22 23:00:12 - Flight 1,0.0,0.0
55.06,1,8,2026-02-22 23:01:00,37.0816,-121.59959,330.0,0.0,124.9,-12.6,,,,,0.0,10.9,-0.9,20.9,0.0,-38.0,0.1,-0.01,1.0,,-105.0,71.6,0.0,30.06,751.0,,,133.0,,,,,0.0,0.0,,,,,,,,,,,,,,,,,,,0.0,59.0,0.0,0.0,30.3,0.0,,0.0,30.5,,,30.0,0.0,0.0,-0.7,2.2,1.2,,,,,60.8,62.6,60.8,62.6,60.8,62.6,60.8,62.6,,,16.0,9.5,,30.5,4.0,0.0,,,0.662,0.801,0.0,58.64,,,,,,0.0,60.8,0.8491620111731844,0.8240223463687152,0.0017777777777777779,0.0843333333333334,433.4,True,2026-02-22 23:00:12 - Flight 1,0.0,0.0
56.06,1,8,2026-02-22 23:01:01,37.0816,-121.59959,330.0,0.0,124.9,-12.6,,,,,0.0,10.9,-0.9,20.9,0.0,-39.0,0.1,-0.01,1.0,,-98.0,71.6,0.0,30.06,751.0,,,133.0,,,,,0.0,0.0,,,,,,,,,,,,,,,,,,,0.0,59.0,0.0,0.0,30.3,0.0,,0.0,30.4,,,30.0,0.0,0.0,-0.7,2.2,1.2,,,,,60.8,62.6,60.8,62.6,60.8,62.6,60.8,62.6,,,16.0,7.6,,30.4,4.0,0.0,,,0.662,0.801,0.0,58.64,,,,,,0.0,60.8,0.8491620111731844,0.8240223463687152,0.0017777777777777779,0.0843333333333334,433.4,True,2026-02-22 23:00:12 - Flight 1,0.0,0.0
57.06,1,8,2026-02-22 23:01:02,37.0816,-121.59959,330.0,0.0,124.9,-12.6,,,,,0.0,10.9,-0.9,21.0,0.0,-40.0,0.1,-0.01,1.0,,-97.0,71.6,0.0,30.06,751.0,,,133.0,,,,,0.0,0.0,,,,,,,,,,,,,,,,,,,0.0,59.0,0.0,0.0,30.3,0.0,,0.0,30.3,,,30.0,0.0,0.0,-0.7,2.2,1.2,,,,,60.8,62.6,60.8,62.6,60.8,62.6,60.8,62.6,,,16.0,6.1,,30.3,4.0,0.0,,,0.662,0.801,0.0,58.64,,,,,,0.0,60.8,0.8491620111731844,0.8240223463687152,0.0017777777777777779,0.0843333333333334,433.4,True,2026-02-22 23:00:12 - Flight 1,0.0,0.0
58.06,1,8,2026-02-22 23:01:03,37.0816,-121.59959,329.0,0.0,124.9,-12.6,,,,,0.0,10.9,-0.9,21.0,0.0,-41.0,0.1,-0.01,1.0,,-74.0,71.6,0.0,30.06,748.0,,,133.0,,,,,0.0,0.0,,,,,,,,,,,,,,,,,,,0.0,59.0,0.0,0.0,30.3,0.0,,0.0,30.2,,,30.0,0.0,0.0,-0.7,2.2,1.2,,,,,60.8,62.6,60.8,62.6,60.8,62.6,60.8,62.6,,,16.0,5.0,,30.2,4.0,0.0,,,0.662,0.801,0.0,58.64,,,,,,0.0,60.8,0.8491620111731844,0.8240223463687152,0.0017777777777777779,0.0843333333333334,433.4,True,2026-02-22 23:00:12 - Flight 1,0.0,0.0
59.06,1,8,2026-02-22 23:01:04,37.0816,-121.59959,329.0,0.0,124.9,-12.6,,,,,0.0,10.9,-0.9,21.0,0.0,-42.0,0.1,-0.01,1.0,,-58.0,71.6,0.0,30.06,748.0,,,133.0,,,,,0.0,0.0,,,,,,,,,,,,,,,,,,,0.0,59.0,0.0,0.0,30.3,0.0,,0.0,30.1,,,30.0,0.0,0.0,-0.7,2.2,1.2,,,,,60.8,62.6,60.8,62.6,60.8,62.6,60.8,62.6,,,16.0,4.1,,30.1,4.0,0.0,,,0.662,0.801,0.0,58.64,,,,,,0.0,60.8,0.8491620111731844,0.8240223463687152,0.0017777777777777779,0.0843333333333334,433.4,True,2026-02-22 23:00:12 - Flight 1,0.0,0.0
60.06,1,8,2026-02-22 23:01:05,37.0816,-121.59959,329.0,0.0,124.9,-12.6,,,,,0.0,10.9,-0.9,21.0,0.0,-42.0,0.1,-0.01,1.0,,-18.0,71.6,0.0,30.06,748.0,,,133.0,,,,,0.0,0.0,,,,,,,,,,,,,,,,,,,0.0,59.0,0.0,0.0,30.3,0.0,,0.0,30.0,,,30.0,0.0,0.0,-0.7,2.2,1.2,,,,,60.8,62.6,60.8,62.6,60.8,62.6,60.8,62.6,,,16.0,3.4,,30.0,4.0,0.0,,,0.662,0.801,0.0,58.64,,,,,,0.0,60.8,0.8491620111731844,0.8240223463687152,0.0017777777777777779,0.0843333333333334,433.4,True,2026-02-22 23:00:12 - Flight 1,0.0,0.0
61.06,1,8,2026-02-22 23:01:06,37.0816,-121.59959,329.0,0.0,124.9,-12.6,,,,,0.0,10.9,-0.9,21.0,0.0,-42.0,0.0,-0.01,1.0,,-17.0,71.6,0.0,30.06,747.0,,,133.0,,,,,0.0,0.0,,,,,,,,,,,,,,,,,,,0.0,59.0,0.0,0.0,30.3,0.0,,0.0,29.9,,,30.0,0.0,0.0,-0.7,2.2,1.2,,,,,60.8,62.6,60.8,62.6,60.8,62.6,60.8,62.6,,,16.0,2.9,,29.9,4.0,0.0,,,0.662,0.801,0.0,58.64,,,,,,0.0,60.8,0.8491620111731844,0.8240223463687152,0.0017777777777777779,0.0843333333333334,433.4,True,2026-02-22 23:00:12 - Flight 1,0.0,0.0
62.06,1,8,2026-02-22 23:01:07,37.0816,-121.59959,328.0,0.0,124.9,-12.6,,,,,0.0,10.9,-0.9,21.0,0.0,-42.0,0.1,-0.01,1.0,,-6.0,71.6,0.0,30.06,747.0,,,133.0,,,,,0.0,0.0,,,,,,,,,,,,,,,,,,,0.0,59.0,0.0,0.0,30.3,0.0,,0.0,29.8,,,30.0,0.0,0.0,-0.7,2.2,1.2,,,,,60.8,62.6,60.8,62.6,60.8,62.6,60.8,62.6,,,16.0,2.4,,29.8,4.0,0.0,,,0.662,0.801,0.0,58.64,,,,,,0.0,60.8,0.8491620111731844,0.8240223463687152,0.0017777777777777779,0.0843333333333334,433.4,True,2026-02-22 23:00:12 - Flight 1,0.0,0.0
63.06,1,8,2026-02-22 23:01:08,37.0816,-121.59959,328.0,0.0,124.9,-12.6,,,,,0.0,11.0,-0.9,21.0,0.0,-42.0,0.1,-0.01,1.0,,-32.0,71.6,0.0,30.06,747.0,,,133.0,,,,,0.0,0.0,,,,,,,,,,,,,,,,,,,0.0,59.0,0.0,0.0,30.3,0.0,,0.0,29.7,,,30.0,0.0,0.0,-0.7,2.2,1.2,,,,,60.8,62.6,60.8,62.6,60.8,62.6,60.8,62.6,,,16.0,2.1,,29.7,4.0,0.0,,,0.662,0.801,0.0,58.64,,,,,,0.0,60.8,0.8491620111731844,0.8240223463687152,0.0017777777777777779,0.0843333333333334,433.4,True,2026-02-22 23:00:12 - Flight 1,0.0,0.0
64.06,1,8,2026-02-22 23:01:09,37.0816,-121.59959,327.0,0.0,124.9,-12.6,,,,,0.0,10.9,-0.8,21.0,0.0,-43.0,0.1,-0.01,1.0,,-45.0,71.6,0.0,30.06,747.0,,,133.0,,,,,0.0,0.0,,,,,,,,,,,,,,,,,,,0.0,59.0,0.0,0.0,30.3,0.0,,0.0,29.6,,,30.0,0.0,0.0,-0.7,2.2,1.2,,,,,60.8,62.6,60.8,62.6,60.8,62.6,60.8,62.6,,,16.0,1.9,,29.6,4.0,0.0,,,0.662,0.801,0.0,58.64,,,,,,0.0,60.8,0.8491620111731844,0.8240223463687152,0.0017777777777777779,0.0843333333333334,433.4,True,2026-02-22 23:00:12 - Flight 1,0.0,0.0
65.06,1,8,2026-02-22 23:01:10,37.0816,-121.59959,327.0,0.0,124.9,-12.6,,,,,0.0,11.0,-0.9,21.0,0.0,-43.0,0.1,-0.01,1.0,,-18.0,71.6,0.0,30.06,756.0,,,133.0,,,,,0.0,0.0,,,,,,,,,,,,,,,,,,,0.0,59.0,0.0,0.0,30.3,0.0,,0.0,29.5,,,30.0,0.0,0.0,-0.7,2.2,1.2,,,,,60.8,62.6,60.8,62.6,60.8,62.6,60.8,62.6,,,16.0,1.6,,29.5,4.0,0.0,,,0.662,0.801,0.0,58.64,,,,,,0.0,60.8,0.8491620111731844,0.8240223463687152,0.0017777777777777779,0.0843333333333334,433.4,True,2026-02-22 23:00:12 - Flight 1,0.0,0.0
66.06,1,8,2026-02-22 23:01:11,37.0816,-121.59959,327.0,0.0,124.9,-12.6,,,,,0.0,10.9,-0.8,21.0,0.0,-43.0,0.1,-0.01,1.0,,0.0,71.6,0.0,30.06,756.0,,,133.0,,,,,0.0,0.0,,,,,,,,,,,,,,,,,,,0.0,59.0,0.0,0.0,30.3,0.0,,0.0,29.4,,,30.0,0.0,0.0,-0.7,2.2,1.2,,,,,60.8,62.6,60.8,62.6,60.8,62.6,60.8,62.6,,,16.0,1.5,,29.4,4.0,0.0,,,0.662,0.801,0.0,58.64,,,,,,0.0,60.8,0.8491620111731844,0.8240223463687152,0.0017777777777777779,0.0843333333333334,433.4,True,2026-02-22 23:00:12 - Flight 1,0.0,0.0
67.06,1,8,2026-02-22 23:01:12,37.0816,-121.59959,326.0,0.0,124.9,-12.6,,,,,0.0,10.9,-0.9,21.0,0.0,-43.0,0.1,-0.01,1.0,,32.0,71.6,0.0,30.06,757.0,,,133.0,,,,,0.0,0.0,,,,,,,,,,,,,,,,,,,0.0,59.0,0.0,0.0,30.3,0.0,,0.0,29.3,,,30.0,0.0,0.0,-0.7,2.2,1.2,,,,,60.8,62.6,60.8,62.6,60.8,62.6,60.8,62.6,,,16.0,1.4,,29.3,4.0,0.0,,,0.662,0.801,0.0,58.64,,,,,,0.0,60.8,0.8491620111731844,0.8240223463687152,0.0017777777777777779,0.0843333333333334,433.4,True,2026-02-22 23:00:12 - Flight 1,0.0,0.0
68.06,1,8,2026-02-22 23:01:13,37.08161,-121.59957,308.0,0.0,124.9,-12.6,,,,,0.0,10.9,-0.9,21.0,0.0,-43.0,0.1,-0.01,1.0,,32.0,71.6,0.0,30.06,757.0,,,133.0,,,,,0.0,0.0,,,,,,,,,,,,,,,,,,,0.0,59.0,0.0,0.0,30.3,0.0,,0.0,29.2,,,30.0,0.0,0.0,-0.7,2.2,1.2,,,,,60.8,62.6,60.8,62.6,60.8,62.6,60.8,62.6,,,16.0,1.3,,29.2,4.0,0.0,,,0.662,0.801,0.0,58.64,,,,,,0.0,60.8,0.8491620111731844,0.8240223463687152,0.0017777777777777779,0.0843333333333334,433.4,True,2026-02-22 23:00:12 - Flight 1,0.0,0.0
69.06,1,8,2026-02-22 23:01:14,37.08161,-121.59957,308.0,0.0,124.9,-12.6,,,,,0.0,10.9,-0.8,21.0,0.0,-43.0,0.1,-0.01,1.0,,42.0,71.6,0.0,30.06,757.0,,,133.0,,,,,0.0,0.0,,,,,,,,,,,,,,,,,,,0.0,59.0,0.0,0.0,30.3,0.0,,0.0,29.2,,,30.0,0.0,0.0,-0.7,2.2,1.2,,,,,60.8,62.6,60.8,62.6,60.8,62.6,60.8,62.6,,,16.0,1.2,,29.2,4.0,0.0,,,0.662,0.801,0.0,58.64,,,,,,0.0,60.8,0.8491620111731844,0.8240223463687152,0.0017777777777777779,0.0843333333333334,433.4,True,2026-02-22 23:00:12 - Flight 1,0.0,0.0
70.06,1,8,2026-02-22 23:01:15,37.08161,-121.59957,308.0,0.0,124.9,-12.6,,,,,0.0,10.9,-0.8,21.1,0.0,-43.0,0.1,-0.01,1.0,,68.0,71.6,0.0,30.06,766.0,,,133.0,,,,,0.0,0.0,,,,,,,,,,,,,,,,,,,0.0,59.0,0.0,0.0,30.3,0.0,,0.0,29.1,,,30.0,0.0,0.0,-0.7,2.2,1.2,,,,,60.8,62.6,60.8,62.6,60.8,62.6,60.8,62.6,,,16.0,1.2,,29.1,4.0,0.0,,,0.662,0.801,0.0,58.64,,,,,,0.0,60.8,0.8491620111731844,0.8240223463687152,0.0017777777777777779,0.0843333333333334,433.4,True,2026-02-22 23:00:12 - Flight 1,0.0,0.0
71.06,1,8,2026-02-22 23:01:16,37.08161,-121.59957,309.0,0.0,124.9,-12.6,,,,,0.0,10.9,-0.8,21.1,0.0,-43.0,0.1,-0.01,1.0,,47.0,71.6,0.0,30.06,766.0,,,133.0,,,,,0.0,0.0,,,,,,,,,,,,,,,,,,,0.0,59.0,0.0,0.0,30.3,0.0,,0.0,29.0,,,30.0,0.0,0.0,-0.7,2.2,1.2,,,,,60.8,62.6,60.8,62.6,60.8,62.6,60.8,62.6,,,16.0,1.1,,29.0,4.0,0.0,,,0.662,0.801,0.0,58.64,,,,,,0.0,60.8,0.8491620111731844,0.8240223463687152,0.0017777777777777779,0.0843333333333334,433.4,True,2026-02-22 23:00:12 - Flight 1,0.0,0.0
72.06,1,8,2026-02-22 23:01:17,37.0816,-121.59957,309.0,0.0,124.9,-12.6,,,,,0.0,10.9,-0.8,21.1,0.0,-43.0,0.1,-0.01,1.0,,26.0,71.6,0.0,30.06,767.0,,,133.0,,,,,0.0,0.0,,,,,,,,,,,,,,,,,,,0.0,59.0,0.0,0.0,30.3,0.0,,0.0,28.9,,,30.0,0.0,0.0,-0.7,2.2,1.2,,,,,60.8,62.6,60.8,62.6,60.8,62.6,60.8,62.6,,,16.0,1.1,,28.9,4.0,0.0,,,0.662,0.801,0.0,58.64,,,,,,0.0,60.8,0.8491620111731844,0.8240223463687152,0.0017777777777777779,0.0843333333333334,433.4,True,2026-02-22 23:00:12 - Flight 1,0.0,0.0
73.06,1,8,2026-02-22 23:01:18,37.0816,-121.59956,309.0,0.0,124.9,-12.6,,,,,0.0,10.9,-0.8,21.1,0.0,-43.0,0.1,-0.01,1.0,,56.0,71.6,0.0,30.06,767.0,,,133.0,,,,,0.0,0.0,,,,,,,,,,,,,,,,,,,0.0,59.0,0.0,0.0,30.3,0.0,,0.0,28.8,,,30.0,0.0,0.0,-0.7,2.2,1.2,,,,,60.8,62.6,60.8,62.6,60.8,62.6,60.8,62.6,,,16.0,1.1,,28.8,4.0,0.0,,,0.662,0.801,0.0,58.64,,,,,,0.0,60.8,0.8491620111731844,0.8240223463687152,0.0017777777777777779,0.0843333333333334,433.4,True,2026-02-22 23:00:12 - Flight 1,0.0,0.0
74.06,1,8,2026-02-22 23:01:19,37.0816,-121.59956,309.0,0.0,124.9,-12.6,,,,,0.0,10.9,-0.8,21.0,0.0,-43.0,0.0,-0.01,1.0,,38.0,71.6,0.0,30.06,767.0,,,133.0,,,,,0.0,0.0,,,,,,,,,,,,,,,,,,,0.0,59.0,0.0,0.0,30.3,0.0,,0.0,28.8,,,30.0,0.0,0.0,-0.7,2.2,1.2,,,,,60.8,62.6,60.8,62.6,60.8,62.6,60.8,62.6,,,16.0,1.0,,28.8,4.0,0.0,,,0.662,0.801,0.0,58.64,,,,,,0.0,60.8,0.8491620111731844,0.8240223463687152,0.0017777777777777779,0.0843333333333334,433.4,True,2026-02-22 23:00:12 - Flight 1,0.0,0.0
75.06,1,8,2026-02-22 23:01:20,37.0816,-121.59956,309.0,0.0,124.9,-12.6,,,,,0.0,10.9,-0.8,21.0,0.0,-43.0,0.1,-0.01,1.0,,32.0,71.6,0.0,30.06,777.0,,,133.0,,,,,0.0,0.0,,,,,,,,,,,,,,,,,,,0.0,59.0,0.0,0.0,30.3,0.0,,0.0,28.7,,,30.0,0.0,0.0,-0.7,2.2,1.2,,,,,60.8,62.6,60.8,62.6,60.8,62.6,60.8,62.6,,,16.0,1.0,,28.7,4.0,0.0,,,0.662,0.801,0.0,58.64,,,,,,0.0,60.8,0.8491620111731844,0.8240223463687152,0.0017777777777777779,0.0843333333333334,433.4,True,2026-02-22 23:00:12 - Flight 1,0.0,0.0
76.06,1,8,2026-02-22 23:01:21,37.0816,-121.59956,310.0,0.0,124.9,-12.6,,,,,0.0,10.9,-0.9,21.0,0.0,-43.0,0.1,-0.01,1.0,,12.0,71.6,0.0,30.06,777.0,,,133.0,,,,,0.0,0.0,,,,,,,,,,,,,,,,,,,0.0,59.0,0.0,0.0,30.3,0.0,,0.0,28.6,,,30.0,0.0,0.0,-0.7,2.2,1.2,,,,,60.8,62.6,60.8,64.4,60.8,62.6,60.8,64.4,,,15.0,1.0,,28.6,4.0,0.0,,,0.662,0.801,0.0,58.64,,,,,,0.0,60.8,0.8491620111731844,0.8240223463687152,0.0017777777777777779,0.0843333333333334,433.4,True,2026-02-22 23:00:12 - Flight 1,0.0,0.0
77.06,1,8,2026-02-22 23:01:22,37.0816,-121.59956,310.0,0.0,124.9,-12.6,,,,,0.0,10.9,-0.9,21.0,0.0,-43.0,0.1,-0.01,1.0,,13.0,71.6,0.0,30.06,778.0,,,133.0,,,,,0.0,0.0,,,,,,,,,,,,,,,,,,,0.0,59.0,0.0,0.0,30.3,0.0,,0.0,28.5,,,30.0,0.0,0.0,-0.7,2.2,1.2,,,,,60.8,62.6,60.8,64.4,60.8,62.6,60.8,64.4,,,16.0,1.0,,28.5,4.0,0.0,,,0.662,0.801,0.0,58.64,,,,,,0.0,60.8,0.8491620111731844,0.8240223463687152,0.0017777777777777779,0.0843333333333334,433.4,True,2026-02-22 23:00:12 - Flight 1,0.0,0.0
78.06,1,8,2026-02-22 23:01:23,37.0816,-121.59956,311.0,0.0,124.9,-12.6,,,,,0.0,10.9,-0.9,21.0,0.0,-43.0,0.1,-0.01,1.0,,-6.0,71.6,0.0,30.06,778.0,,,133.0,,,,,0.0,0.0,,,,,,,,,,,,,,,,,,,0.0,59.0,0.0,0.0,30.3,0.0,,0.0,28.5,,,30.0,0.0,0.0,-0.7,2.2,1.2,,,,,60.8,62.6,60.8,64.4,60.8,62.6,60.8,64.4,,,16.0,1.0,,28.5,4.0,0.0,,,0.662,0.801,0.0,58.64,,,,,,0.0,60.8,0.8491620111731844,0.8240223463687152,0.0017777777777777779,0.0843333333333334,433.4,True,2026-02-22 23:00:12 - Flight 1,0.0,0.0
79.06,1,8,2026-02-22 23:01:24,37.0816,-121.59956,311.0,0.0,124.9,-12.6,,,,,0.0,10.9,-0.9,21.0,0.0,-43.0,0.1,-0.01,1.0,,-4.0,71.6,0.0,30.06,778.0,,,133.0,,,,,0.0,0.0,,,,,,,,,,,,,,,,,,,0.0,59.0,0.0,0.0,30.3,0.0,,0.0,28.4,,,30.0,0.0,0.0,-0.7,2.2,1.2,,,,,60.8,62.6,60.8,62.6,60.8,62.6,60.8,64.4,,,16.0,1.0,,28.4,4.0,0.0,,,0.662,0.801,0.0,58.64,,,,,,0.0,60.8,0.8491620111731844,0.8240223463687152,0.0017777777777777779,0.0843333333333334,433.4,True,2026-02-22 23:00:12 - Flight 1,0.0,0.0
80.06,1,8,2026-02-22 23:01:25,37.0816,-121.59956,312.0,0.0,124.9,-12.6,,,,,0.0,10.9,-0.8,21.1,0.0,-43.0,0.1,-0.02,1.0,,-38.0,71.6,0.0,30.06,787.0,,,133.0,,,,,0.0,0.0,,,,,,,,,,,,,,,,,,,0.0,53.6,138.0,138.0,30.0,0.0,,0.0,28.5,,,30.0,0.0,0.0,-0.7,2.2,1.2,,,,,53.6,53.6,53.6,53.6,53.6,53.6,53.6,53.6,,,16.0,1.0,,28.5,4.0,0.0,,,0.66,0.801,0.0,54.14,,,,,,138.0,53.6,0.7486033519553074,0.7486033519553074,0.0017777777777777779,0.0843333333333334,433.4,True,2026-02-22 23:00:12 - Flight 1,0.0,0.0
81.06,1,8,2026-02-22 23:01:26,37.0816,-121.59956,312.0,0.0,124.9,-12.6,,,,,0.0,10.9,-0.8,21.1,0.0,-43.0,0.1,-0.01,1.0,,-60.0,71.6,0.0,30.06,787.0,,,133.0,,,,,0.0,0.0,,,,,,,,,,,,,,,,,,,1.0,55.4,136.0,136.0,29.7,0.0,,0.0,26.7,,,30.0,0.0,0.0,-0.7,2.2,1.2,,,,,53.6,53.6,53.6,53.6,53.6,53.6,55.4,55.4,,,16.0,1.0,,26.7,4.0,0.0,,,0.66,0.801,1.0,54.68,,,,,,136.0,54.05,0.7548882681564246,0.7737430167597765,0.0017777777777777779,0.0843333333333334,433.4,True,2026-02-22 23:00:12 - Flight 1,0.0,0.0
82.06,1,8,2026-02-22 23:01:27,37.0816,-121.59956,313.0,0.0,124.9,-12.6,,,,,0.0,10.9,-0.8,21.1,0.0,-43.0,0.1,-0.02,1.0,,-45.0,71.6,0.0,30.06,787.0,,,133.0,,,,,0.0,0.0,,,,,,,,,,,,,,,,,,,1.0,53.6,138.0,138.0,29.7,0.5,,0.5,21.1,,,30.0,0.0,0.0,-0.7,2.2,1.2,,,,,53.6,53.6,53.6,53.6,53.6,53.6,53.6,53.6,,,16.0,1.0,,21.1,4.0,0.0,,,0.66,0.801,1.2,54.32,,,,,,138.0,53.6,0.7486033519553074,0.7486033519553074,0.0018472222222222223,0.0843333333333334,433.4,True,2026-02-22 23:00:12 - Flight 1,0.5,0.0
83.06,1,8,2026-02-22 23:01:28,37.0816,-121.59957,313.0,0.0,124.9,-12.6,,,,,0.0,10.9,-0.8,21.1,0.0,-43.0,0.1,-0.01,1.0,,-49.0,71.6,0.0,30.06,787.0,,,133.0,,,,,0.0,0.0,,,,,,,,,,,,,,,,,,,2.0,55.4,159.0,159.0,29.5,0.9,,0.9,22.4,,,30.0,0.0,0.0,-0.7,2.2,1.2,,,,,53.6,55.4,53.6,53.6,53.6,53.6,55.4,55.4,,,16.0,1.0,,22.4,4.0,0.0,,,0.66,0.801,1.5,54.86,,,,,,159.0,54.05,0.7548882681564246,0.7737430167597765,0.002041666666666667,0.0843333333333334,433.4,True,2026-02-22 23:00:12 - Flight 1,0.9,0.0
84.06,1,8,2026-02-22 23:01:29,37.0816,-121.59957,313.0,0.0,124.9,-12.6,,,,,0.0,10.9,-0.8,21.1,0.0,-43.0,0.1,-0.01,1.0,,-58.0,71.6,0.0,30.06,787.0,,,133.0,,,,,0.0,0.0,,,,,,,,,,,,,,,,,,,3.0,59.0,308.0,308.0,28.0,1.8,,1.8,23.9,,,30.0,0.0,0.0,-0.7,2.2,1.2,,,,,60.8,113.0,60.8,93.2,60.8,62.6,62.6,62.6,,,16.0,1.0,,23.9,4.0,0.0,,,0.673,0.802,2.7,58.82,,,6.0,L,,308.0,61.25,0.8554469273743017,0.8240223463687152,0.002416666666666667,0.0843333333333334,433.4,True,2026-02-22 23:00:12 - Flight 1,1.8,0.0
85.06,1,8,2026-02-22 23:01:30,37.0816,-121.59957,314.0,0.0,124.9,-12.6,,,,,0.0,10.9,-0.9,21.2,0.0,-43.0,0.1,-0.03,1.0,,-70.0,71.6,0.0,30.06,788.0,,,133.0,,,,,0.0,0.0,,,,,,,,,,,,,,,,,,,4.0,59.0,206.0,206.0,29.1,2.1,,2.1,23.7,,,30.0,0.0,0.0,-0.7,2.2,1.2,,,,,60.8,107.6,60.8,125.6,60.8,60.8,62.6,78.8,,,16.0,1.0,,23.7,4.0,0.0,,,0.665,0.802,4.3,58.64,,,13.0,L,,206.0,61.25,0.8554469273743017,0.8240223463687152,0.0029583333333333336,0.0843333333333334,433.4,True,2026-02-22 23:00:12 - Flight 1,2.1,0.0
86.06,1,8,2026-02-22 23:01:31,37.0816,-121.59957,314.0,0.1,124.9,-12.6,,,,,0.0,10.9,-0.8,21.2,0.0,-43.0,0.1,-0.02,1.0,,-90.0,71.6,0.0,30.06,788.0,,,133.0,,,,,0.0,0.0,,,,,,,,,,,,,,,,,,,5.0,59.0,68.0,68.0,30.0,2.0,,2.0,22.8,,,30.0,0.0,0.0,-0.7,2.2,1.2,,,,,60.8,105.8,62.6,127.4,60.8,60.8,62.6,78.8,,,16.0,0.0,,22.8,4.0,0.0,,,0.665,0.802,5.2,58.64,,,,,,68.0,61.7,0.8617318435754191,0.8240223463687152,0.003527777777777778,0.16866666666666674,433.4,True,2026-02-22 23:00:12 - Flight 1,2.0,0.05
87.06,1,8,2026-02-22 23:01:32,37.0816,-121.59957,315.0,0.0,124.9,-12.6,,,,,0.0,10.9,-0.8,21.2,0.0,-43.0,0.1,-0.02,1.0,,-88.0,71.6,0.0,30.06,788.0,,,133.0,,,,,0.0,0.0,,,,,,,,,,,,,,,,,,,6.0,59.0,0.0,0.0,30.1,1.8,,1.8,22.9,,,30.0,0.0,0.0,-0.7,2.2,1.2,,,,,60.8,104.0,62.6,125.6,60.8,60.8,62.6,78.8,,,16.0,0.0,,22.9,4.0,0.0,,,0.665,0.801,6.0,58.64,,,,,,0.0,61.7,0.8617318435754191,0.8240223463687152,0.004055555555555555,0.25300000000000006,433.4,True,2026-02-22 23:00:12 - Flight 1,1.8,0.0
88.06,1,8,2026-02-22 23:01:33,37.0816,-121.59957,315.0,0.0,124.9,-12.6,,,,,0.0,10.9,-0.7,21.2,0.0,-43.0,0.1,-0.02,1.0,,-72.0,71.6,0.0,30.06,797.0,,,133.0,,,,,0.0,0.0,,,,,,,,,,,,,,,,,,,7.0,59.0,0.0,0.0,30.1,1.8,,1.8,22.9,,,30.0,0.0,0.0,-0.7,2.2,1.2,,,,,60.8,104.0,62.6,125.6,60.8,60.8,62.6,78.8,,,16.0,0.0,,22.9,4.0,0.0,,,0.665,0.801,6.6,58.64,,,,,,0.0,61.7,0.8617318435754191,0.8240223463687152,0.004555555555555556,0.25300000000000006,433.4,True,2026-02-22 23:00:12 - Flight 1,1.8,0.0
89.06,1,8,2026-02-22 23:01:34,37.0816,-121.59957,315.0,0.0,124.9,-12.6,,,,,0.0,10.9,-0.9,21.2,0.0,-43.0,0.1,-0.02,1.0,,-38.0,71.6,0.0,30.06,797.0,,,133.0,,,,,0.0,0.0,,,,,,,,,,,,,,,,,,,7.0,59.0,0.0,0.0,30.3,0.0,,0.0,23.0,,,30.0,0.0,0.0,-0.7,2.2,1.2,,,,,60.8,102.2,62.6,125.6,60.8,60.8,62.6,78.8,,,15.0,0.0,,23.0,4.0,0.0,,,0.665,0.801,7.2,58.64,,,,,,0.0,61.7,0.8617318435754191,0.8240223463687152,0.004805555555555556,0.25300000000000006,433.4,True,2026-02-22 23:00:12 - Flight 1,0.0,0.0
90.06,1,8,2026-02-22 23:01:35,37.0816,-121.59957,316.0,0.0,124.9,-12.6,,,,,0.0,10.9,-0.8,21.2,0.0,-43.0,0.1,-0.02,1.0,,-8.0,71.6,0.0,30.06,797.0,,,133.0,,,,,0.0,0.0,,,,,,,,,,,,,,,,,,,8.0,59.0,0.0,0.0,30.3,0.0,,0.0,23.0,,,30.0,0.0,0.0,-0.7,2.2,1.2,,,,,60.8,102.2,62.6,123.8,60.8,60.8,62.6,78.8,,,15.0,0.0,,23.0,4.0,0.0,,,0.664,0.801,7.6,58.64,,,,,,0.0,61.7,0.8617318435754191,0.8240223463687152,0.004805555555555556,0.25300000000000006,433.4,True,2026-02-22 23:00:12 - Flight 1,0.0,0.0
91.06,1,8,2026-02-22 23:01:36,37.0816,-121.59957,316.0,0.0,124.9,-12.6,,,,,0.0,10.9,-0.8,21.1,0.0,-43.0,0.1,-0.01,1.0,,32.0,71.6,0.0,30.06,798.0,,,133.0,,,,,0.0,0.0,,,,,,,,,,,,,,,,,,,8.0,59.0,0.0,0.0,30.3,0.0,,0.0,24.5,,,30.0,0.0,0.0,-0.6,2.2,1.2,,,,,60.8,100.4,62.6,123.8,60.8,62.6,62.6,78.8,,,15.0,0.0,,24.5,4.0,0.0,,,0.665,0.801,7.9,58.64,,,,,,0.0,61.7,0.8617318435754191,0.8240223463687152,0.004805555555555556,0.25300000000000006,433.4,True,2026-02-22 23:00:12 - Flight 1,0.0,0.0
92.06,1,8,2026-02-22 23:01:37,37.0816,-121.59957,316.0,0.0,124.9,-12.6,,,,,0.0,10.9,-0.8,21.0,0.0,-43.0,0.1,-0.01,1.0,,10.0,71.6,0.0,30.06,798.0,,,133.0,,,,,0.0,0.0,,,,,,,,,,,,,,,,,,,8.0,59.0,0.0,0.0,30.3,0.0,,0.0,32.0,,,30.0,0.0,0.0,-0.6,2.2,1.2,,,,,60.8,100.4,62.6,123.8,60.8,62.6,62.6,78.8,,,15.0,0.0,,32.0,4.0,0.0,,,0.665,0.801,8.1,58.64,,,,,,0.0,61.7,0.8617318435754191,0.8240223463687152,0.004805555555555556,0.25300000000000006,433.4,True,2026-02-22 23:00:12 - Flight 1,0.0,0.0
93.06,1,8,2026-02-22 23:01:38,37.0816,-121.59957,316.0,0.0,124.9,-12.6,,,,,0.0,10.9,-0.9,21.0,0.0,-43.0,0.0,-0.01,1.0,,-5.0,71.6,0.0,30.06,798.0,,,133.0,,,,,0.0,0.0,,,,,,,,,,,,,,,,,,,8.0,59.0,0.0,0.0,30.3,0.9,,0.9,32.8,,,30.0,0.0,0.0,-0.6,2.2,1.2,,,,,60.8,100.4,62.6,122.0,60.8,62.6,62.6,77.0,,,15.0,0.0,,32.8,4.0,0.0,,,0.665,0.801,8.3,58.64,,,,,,0.0,61.7,0.8617318435754191,0.8240223463687152,0.004930555555555556,0.25300000000000006,433.4,True,2026-02-22 23:00:12 - Flight 1,0.9,0.0
94.06,1,8,2026-02-22 23:01:39,37.0816,-121.59957,317.0,0.0,124.9,-12.6,,,,,0.0,10.9,-0.9,21.0,0.0,-43.0,0.1,-0.01,1.0,,-15.0,71.6,0.0,30.06,807.0,,,133.0,,,,,0.0,0.0,,,,,,,,,,,,,,,,,,,9.0,59.0,0.0,0.0,30.3,1.5,,1.5,33.3,,,30.0,0.0,0.0,-0.6,2.2,1.2,,,,,60.8,98.6,62.6,120.2,60.8,62.6,62.6,77.0,,,15.0,0.0,,33.3,4.0,0.0,,,0.665,0.802,8.5,58.64,,,,,,0.0,61.7,0.8617318435754191,0.8240223463687152,0.005263888888888889,0.25300000000000006,433.4,True,2026-02-22 23:00:12 - Flight 1,1.5,0.0
95.06,1,8,2026-02-22 23:01:40,37.0816,-121.59957,317.0,0.0,124.9,-12.6,,,,,0.0,10.9,-0.8,21.0,0.0,-43.0,0.1,-0.01,1.0,,-31.0,71.6,0.0,30.06,807.0,,,133.0,,,,,0.0,0.0,,,,,,,,,,,,,,,,,,,9.0,59.0,0.0,0.0,30.3,2.0,,2.0,33.1,,,30.0,0.0,0.0,-0.6,2.2,1.2,,,,,60.8,98.6,62.6,120.2,60.8,62.6,62.6,77.0,,,15.0,0.0,,33.1,4.0,0.0,,,0.665,0.801,8.6,58.64,,,,,,0.0,61.7,0.8617318435754191,0.8240223463687152,0.00575,0.25300000000000006,433.4,True,2026-02-22 23:00:12 - Flight 1,2.0,0.0
96.06,1,8,2026-02-22 23:01:41,37.0816,-121.59957,317.0,0.0,124.9,-12.6,,,,,0.0,10.9,-0.8,21.1,0.0,-43.0,0.1,-0.01,1.0,,2.0,71.6,0.0,30.06,808.0,,,133.0,,,,,0.0,0.0,,,,,,,,,,,,,,,,,,,9.0,59.0,0.0,0.0,30.3,1.9,,1.9,33.2,,,30.0,0.0,0.0,-0.6,2.2,1.2,,,,,60.8,96.8,62.6,118.4,60.8,62.6,62.6,77.0,,,15.0,0.0,,33.2,4.0,0.0,,,0.665,0.802,8.7,58.64,,,,,,0.0,61.7,0.8617318435754191,0.8240223463687152,0.006291666666666667,0.25300000000000006,433.4,True,2026-02-22 23:00:12 - Flight 1,1.9,0.0
97.06,1,8,2026-02-22 23:01:42,37.0816,-121.59957,318.0,0.0,124.9,-12.6,,,,,0.0,10.9,-0.8,21.1,0.0,-43.0,0.1,-0.01,1.0,,22.0,71.6,0.0,30.06,808.0,,,133.0,,,,,0.0,0.0,,,,,,,,,,,,,,,,,,,9.0,59.0,0.0,0.0,30.3,1.9,,1.9,33.0,,,30.0,0.0,0.0,-0.6,2.2,1.2,,,,,60.8,96.8,62.6,118.4,60.8,62.6,62.6,77.0,,,15.0,0.0,,33.0,4.0,0.0,,,0.664,0.801,8.7,58.64,,,,,,0.0,61.7,0.8617318435754191,0.8240223463687152,0.006819444444444445,0.25300000000000006,433.4,True,2026-02-22 23:00:12 - Flight 1,1.9,0.0
98.06,1,8,2026-02-22 23:01:43,37.08159,-121.59956,327.0,0.0,124.9,-12.6,,,,,0.0,10.9,-0.8,21.1,0.0,-43.0,0.1,-0.01,1.0,,32.0,71.6,0.0,30.06,808.0,,,133.0,,,,,0.0,0.0,,,,,,,,,,,,,,,,,,,9.0,59.0,0.0,0.0,30.3,1.9,,1.9,32.7,,,30.0,0.0,0.0,-0.6,2.2,1.2,,,,,60.8,96.8,62.6,116.6,60.8,62.6,62.6,77.0,,,15.0,0.0,,32.7,4.0,0.0,,,0.665,0.801,8.7,58.64,,,,,,0.0,61.7,0.8617318435754191,0.8240223463687152,0.007347222222222222,0.25300000000000006,433.4,True,2026-02-22 23:00:12 - Flight 1,1.9,0.0
99.06,1,8,2026-02-22 23:01:44,37.08159,-121.59956,327.0,0.0,124.9,-12.6,,,,,0.0,10.9,-0.8,21.1,0.0,-43.0,0.1,-0.01,1.0,,72.0,71.6,0.0,30.06,818.0,,,133.0,,,,,0.0,0.0,,,,,,,,,,,,,,,,,,,9.0,59.0,0.0,0.0,30.3,0.0,,0.0,32.6,,,30.0,0.0,0.0,-0.7,2.2,1.2,,,,,60.8,95.0,62.6,116.6,60.8,62.6,62.6,77.0,,,15.0,0.0,,32.6,4.0,0.0,,,0.665,0.801,8.6,58.64,,,,,,0.0,61.7,0.8617318435754191,0.8240223463687152,0.007611111111111111,0.25300000000000006,433.4,True,2026-02-22 23:00:12 - Flight 1,0.0,0.0
100.06,1,8,2026-02-22 23:01:45,37.08159,-121.59956,328.0,0.0,124.9,-12.6,,,,,0.0,10.9,-0.8,21.2,0.0,-43.0,0.1,-0.01,1.0,,85.0,71.6,0.0,30.06,818.0,,,133.0,,,,,0.0,0.0,,,,,,,,,,,,,,,,,,,9.0,59.0,0.0,0.0,30.3,0.0,,0.0,32.4,,,30.0,0.0,0.0,-0.7,2.2,1.2,,,,,60.8,95.0,62.6,114.8,60.8,62.6,62.6,77.0,,,15.0,0.0,,32.4,4.0,0.0,,,0.665,0.801,8.6,58.64,,,,,,0.0,61.7,0.8617318435754191,0.8240223463687152,0.007611111111111111,0.25300000000000006,433.4,True,2026-02-22 23:00:12 - Flight 1,0.0,0.0
101.06,1,8,2026-02-22 23:01:46,37.08159,-121.59956,328.0,0.0,124.9,-12.6,,,,,0.0,10.9,-0.7,21.2,0.0,-43.0,0.1,-0.01,1.0,,98.0,71.6,0.0,30.06,818.0,,,133.0,,,,,0.0,0.0,,,,,,,,,,,,,,,,,,,8.0,59.0,0.0,0.0,30.3,0.0,,0.0,32.2,,,30.0,0.0,0.0,-0.7,2.2,1.2,,,,,60.8,93.2,62.6,113.0,60.8,62.6,62.6,75.2,,,15.0,0.0,,32.2,4.0,0.0,,,0.665,0.801,8.5,58.64,,,,,,0.0,61.7,0.8617318435754191,0.8240223463687152,0.007611111111111111,0.25300000000000006,433.4,True,2026-02-22 23:00:12 - Flight 1,0.0,0.0
102.06,1,8,2026-02-22 23:01:47,37.08159,-121.59956,328.0,0.0,124.9,-12.6,,,,,0.0,10.9,-0.8,21.3,0.0,-43.0,0.1,-0.01,1.0,,80.0,71.6,0.0,30.06,820.0,,,133.0,,,,,0.0,0.0,,,,,,,,,,,,,,,,,,,9.0,55.4,183.0,183.0,30.2,0.0,,0.0,32.2,,,30.0,0.0,0.0,-0.7,2.2,1.2,,,,,55.4,86.0,57.2,107.6,55.4,57.2,57.2,68.0,,,15.0,0.0,,32.2,4.0,0.0,,,0.664,0.801,8.9,55.4,,,,,,183.0,56.300000000000004,0.7863128491620113,0.7737430167597765,0.007611111111111111,0.25300000000000006,433.4,True,2026-02-22 23:00:12 - Flight 1,0.0,0.0
103.06,1,8,2026-02-22 23:01:48,37.08159,-121.59957,329.0,0.0,124.9,-12.6,,,,,0.0,10.9,-0.7,21.2,0.0,-42.0,0.1,-0.02,1.0,,82.0,71.6,0.0,30.06,821.0,,,133.0,,,,,0.0,0.0,,,,,,,,,,,,,,,,,,,12.0,57.2,776.0,776.0,26.2,1.4,,1.4,24.4,,,30.0,0.0,0.0,-0.6,2.2,1.2,,,,,59.0,158.0,59.0,143.6,59.0,140.0,59.0,104.0,,,15.0,0.0,,24.4,4.0,0.0,,,0.667,0.802,12.1,56.84,,,3.0,L,,776.0,59.0,0.8240223463687152,0.7988826815642459,0.007805555555555556,0.25300000000000006,433.4,True,2026-02-22 23:00:12 - Flight 1,1.4,0.0
104.06,1,8,2026-02-22 23:01:49,37.08159,-121.59957,329.0,0.0,124.9,-12.6,,,,,0.0,10.9,-0.7,21.2,0.0,-38.0,0.1,-0.01,1.0,,142.0,71.6,0.0,30.06,826.0,,,133.0,,,,,0.0,0.0,,,,,,,,,,,,,,,,,,,17.0,59.0,907.0,907.0,22.3,2.1,,2.1,24.1,,,30.0,0.0,0.0,-0.6,2.2,1.2,,,,,62.6,255.2,62.6,192.2,62.6,240.8,62.6,212.0,,,15.0,0.0,,24.1,4.0,0.0,,,0.663,0.801,17.0,58.64,,,10.0,P,,907.0,62.6,0.8743016759776537,0.8240223463687152,0.008291666666666666,0.25300000000000006,433.4,True,2026-02-22 23:00:12 - Flight 1,2.1,0.0
105.06,1,8,2026-02-22 23:01:50,37.08159,-121.59957,330.0,0.1,124.9,-12.6,,,,,0.0,10.9,-0.8,21.2,0.0,-36.0,0.1,-0.01,1.0,,125.0,71.6,0.0,30.06,828.0,,,133.0,,,,,0.0,0.0,,,,,,,,,,,,,,,,,,,23.0,59.0,946.0,946.0,21.3,2.6,,2.6,24.3,,,30.0,0.0,0.0,-0.7,2.2,1.2,,,,,62.6,307.4,62.6,239.0,62.6,325.4,62.6,305.6,,,15.0,0.0,,24.3,4.0,0.0,,,0.674,0.802,23.0,58.64,,,12.0,R,,946.0,62.6,0.8743016759776537,0.8240223463687152,0.008944444444444444,0.3373333333333334,433.4,True,2026-02-22 23:00:12 - Flight 1,2.6,0.038461538461538464
106.06,1,8,2026-02-22 23:01:51,37.08159,-121.59957,330.0,0.0,124.9,-12.6,,,,,0.0,10.9,-0.7,21.2,0.0,-35.0,0.1,-0.01,1.0,,89.0,71.6,0.0,30.06,829.0,,,133.0,,,,,0.0,0.0,,,,,,,,,,,,,,,,,,,30.0,59.0,981.0,981.0,20.7,3.0,,3.0,24.4,,,30.0,0.0,0.0,-0.7,2.2,1.2,,,,,62.6,363.2,64.4,280.4,62.6,395.6,64.4,383.0,,,15.0,0.0,,24.4,4.0,0.0,,,0.691,0.802,30.4,58.64,,,11.0,R,,981.0,63.5,0.8868715083798884,0.8240223463687152,0.009722222222222222,0.42166666666666675,433.4,True,2026-02-22 23:00:12 - Flight 1,3.0,0.0
107.06,1,8,2026-02-22 23:01:52,37.08159,-121.59957,331.0,0.0,124.9,-12.6,,,,,0.0,10.9,-0.7,21.2,0.0,-34.0,0.0,-0.01,1.0,,66.0,71.6,0.0,30.06,830.0,,,133.0,,,,,0.0,0.0,,,,,,,,,,,,,,,,,,,39.0,59.0,1019.0,1019.0,20.1,3.3,,3.3,24.7,,,30.0,0.0,0.0,-0.7,2.2,1.2,,,,,62.6,404.6,64.4,320.0,64.4,464.0,64.4,453.2,,,15.0,0.0,,24.7,4.0,0.0,,,0.668,0.801,39.2,58.64,,,,,,1019.0,63.95,0.8931564245810057,0.8240223463687152,0.010597222222222223,0.42166666666666675,433.4,True,2026-02-22 23:00:12 - Flight 1,3.3,0.0
108.06,1,8,2026-02-22 23:01:53,37.08159,-121.59957,332.0,0.0,124.9,-12.6,,,,,0.0,10.9,-0.8,21.2,0.0,-34.0,0.1,-0.01,1.0,,67.0,71.6,0.0,30.06,841.0,,,133.0,,,,,0.0,0.0,,,,,,,,,,,,,,,,,,,49.0,59.0,1073.0,1073.0,19.5,3.6,,3.6,24.8,,,30.0,0.0,0.0,-0.7,2.2,1.2,,,,,64.4,458.6,64.4,352.4,64.4,521.6,66.2,519.8,,,15.0,0.0,,24.8,4.0,0.0,,,0.668,0.801,48.7,58.64,,,,,,1073.0,64.85000000000001,0.9057262569832404,0.8240223463687152,0.011555555555555555,0.42166666666666675,433.4,True,2026-02-22 23:00:12 - Flight 1,3.6,0.0
109.06,1,8,2026-02-22 23:01:54,37.08159,-121.59957,332.0,0.0,124.9,-12.6,,,,,0.0,10.9,-0.7,21.1,0.0,-33.0,0.0,-0.01,1.0,,34.0,73.4,0.0,30.06,842.0,,,133.0,,,,,0.0,0.0,,,,,,,,,,,,,,,,,,,58.0,59.0,1115.0,1115.0,18.8,3.8,,3.8,25.0,,,30.0,0.0,0.0,-0.7,2.2,1.2,,,,,64.4,528.8,66.2,381.2,64.4,577.4,66.2,575.6,,,15.0,0.0,,25.0,4.0,0.0,,,0.67,0.802,57.9,58.64,,,,,,1115.0,65.30000000000001,0.8896457765667576,0.8038147138964578,0.012583333333333334,0.42166666666666675,433.4,True,2026-02-22 23:00:12 - Flight 1,3.8,0.0
110.06,1,8,2026-02-22 23:01:55,37.08159,-121.59957,333.0,0.0,124.9,-12.6,,,,,0.0,10.9,-0.7,21.2,0.0,-33.0,0.0,-0.02,1.0,,28.0,73.4,0.0,30.06,842.0,,,133.0,,,,,0.0,0.0,,,,,,,,,,,,,,,,,,,65.0,59.0,1154.0,1154.0,18.1,3.9,,3.9,25.2,,,30.0,0.0,0.0,-0.7,2.2,1.2,,,,,64.4,595.4,66.2,419.0,66.2,627.8,68.0,626.0,,,15.0,0.0,,25.2,4.0,0.0,,,0.662,0.802,65.2,58.64,,,,,,1154.0,66.19999999999999,0.9019073569482287,0.8038147138964578,0.013652777777777778,0.42166666666666675,433.4,True,2026-02-22 23:00:12 - Flight 1,3.9,0.0
111.06,1,8,2026-02-22 23:01:56,37.08159,-121.59957,334.0,0.0,124.9,-12.6,,,,,0.0,10.9,-0.7,21.2,0.0,-33.0,0.1,-0.02,1.0,,-2.0,73.4,0.0,30.06,842.0,,,133.0,,,,,0.0,0.0,,,,,,,,,,,,,,,,,,,70.0,59.0,1187.0,1187.0,17.4,4.0,,4.0,25.3,,,30.0,0.0,0.0,-0.7,2.2,1.2,,,,,66.2,653.0,66.2,485.6,66.2,674.6,68.0,674.6,,,15.0,0.0,,25.3,4.0,0.0,,,0.66,0.801,70.1,58.64,,,,,,1187.0,66.64999999999999,0.9080381471389644,0.8038147138964578,0.01475,0.42166666666666675,433.4,True,2026-02-22 23:00:12 - Flight 1,4.0,0.0
112.06,1,8,2026-02-22 23:01:57,37.08159,-121.59957,334.0,0.0,124.9,-12.6,,,,,0.0,10.9,-0.7,21.2,0.0,-33.0,0.0,-0.01,1.0,,21.0,73.4,0.0,30.06,853.0,,,133.0,,,,,0.0,0.0,,,,,,,,,,,,,,,,,,,73.0,59.0,1215.0,1215.0,17.1,4.0,,4.0,25.5,,,30.0,0.0,0.0,-0.7,2.2,1.2,,,,,66.2,703.4,68.0,552.2,66.2,714.2,69.8,714.2,,,15.0,0.0,,25.5,4.0,0.0,,,0.659,0.801,72.8,58.64,,,,,,1215.0,67.55,0.9202997275204359,0.8038147138964578,0.01586111111111111,0.42166666666666675,433.4,True,2026-02-22 23:00:12 - Flight 1,4.0,0.0
113.06,1,8,2026-02-22 23:01:58,37.08159,-121.59957,335.0,0.0,124.9,-12.6,,,,,0.0,11.0,-0.7,21.2,0.0,-32.0,0.0,-0.01,1.0,,-2.0,73.4,0.0,30.06,854.0,,,133.0,,,,,0.0,0.0,,,,,,,,,,,,,,,,,,,74.0,59.0,1227.0,1227.0,16.8,4.1,,4.1,25.6,,,30.0,0.0,0.0,-0.7,2.2,1.2,,,,,66.2,746.6,68.0,611.6,68.0,752.0,69.8,752.0,,,15.0,0.0,,25.6,4.0,0.0,,,0.659,0.801,74.1,58.64,,,,,,1227.0,68.0,0.9264305177111716,0.8038147138964578,0.01698611111111111,0.42166666666666675,433.4,True,2026-02-22 23:00:12 - Flight 1,4.1,0.0
114.06,1,8,2026-02-22 23:01:59,37.08158,-121.59958,335.0,0.0,124.9,-12.6,,,,,0.0,11.0,-0.7,21.2,0.0,-32.0,0.1,-0.01,1.0,,-30.0,73.4,0.0,30.06,854.0,,,133.0,,,,,0.0,0.0,,,,,,,,,,,,,,,,,,,75.0,59.0,1123.0,1123.0,15.3,4.0,,4.0,25.8,,,30.0,0.0,0.0,-0.7,2.2,1.2,,,,,68.0,780.8,69.8,660.2,68.0,784.4,71.6,784.4,,,15.0,0.0,,25.8,4.0,0.0,,,0.659,0.801,74.7,58.82,,,,,,1123.0,69.35,0.9448228882833786,0.8038147138964578,0.018111111111111113,0.42166666666666675,433.4,True,2026-02-22 23:00:12 - Flight 1,4.0,0.0
115.06,1,8,2026-02-22 23:02:00,37.08158,-121.59958,336.0,0.0,124.9,-12.6,,,,,0.0,11.0,-0.7,21.2,0.0,-32.0,0.0,-0.02,1.0,,-28.0,73.4,0.0,30.06,864.0,,,133.0,,,,,0.0,0.0,,,,,,,,,,,,,,,,,,,75.0,59.0,1125.0,1125.0,14.9,3.8,,3.8,25.8,,,30.0,0.0,0.0,-0.7,2.2,1.2,,,,,68.0,806.0,71.6,698.0,69.8,811.4,71.6,809.6,,,15.0,0.0,,25.8,4.0,0.0,,,0.66,0.801,75.1,58.82,,,,,,1125.0,70.25,0.9570844686648501,0.8038147138964578,0.019194444444444445,0.42166666666666675,433.4,True,2026-02-22 23:00:12 - Flight 1,3.8,0.0
116.06,1,8,2026-02-22 23:02:01,37.08158,-121.59958,336.0,0.0,124.9,-12.6,,,,,0.0,11.0,-0.7,21.2,0.0,-32.0,0.1,-0.02,0.9,,-58.0,73.4,0.0,30.06,864.0,,,133.0,,,,,0.0,0.0,,,,,,,,,,,,,,,,,,,75.0,59.0,1102.0,1102.0,14.6,3.7,,3.7,25.9,,,30.0,0.0,0.0,-0.7,2.2,1.2,,,,,69.8,825.8,71.6,732.2,69.8,834.8,73.4,833.0,,,15.0,0.0,,25.9,4.0,0.0,,,0.66,0.801,75.2,58.82,,,,,,1102.0,71.14999999999999,0.9693460490463214,0.8038147138964578,0.02023611111111111,0.42166666666666675,433.4,True,2026-02-22 23:00:12 - Flight 1,3.7,0.0
117.06,1,8,2026-02-22 23:02:02,37.08158,-121.59958,337.0,0.0,124.9,-12.6,,,,,0.0,11.0,-0.6,21.2,0.0,-32.0,0.1,-0.01,1.0,,-71.0,73.4,0.0,30.06,864.0,,,133.0,,,,,0.0,0.0,,,,,,,,,,,,,,,,,,,75.0,59.0,1098.0,1098.0,14.6,3.6,,3.6,26.0,,,30.0,0.0,0.0,-0.7,2.2,1.2,,,,,69.8,847.4,73.4,764.6,71.6,852.8,73.4,854.6,,,15.0,0.0,,26.0,4.0,0.0,,,0.658,0.801,75.4,58.82,,,,,,1098.0,72.05,0.9816076294277928,0.8038147138964578,0.021249999999999998,0.42166666666666675,433.4,True,2026-02-22 23:00:12 - Flight 1,3.6,0.0
118.06,1,8,2026-02-22 23:02:03,37.08158,-121.59958,337.0,0.0,124.9,-12.6,,,,,0.0,11.0,-0.7,21.2,0.0,-32.0,0.1,-0.02,1.0,,-80.0,73.4,0.0,30.06,874.0,,,133.0,,,,,0.0,0.0,,,,,,,,,,,,,,,,,,,76.0,59.0,1090.0,1090.0,14.5,3.5,,3.5,26.0,,,30.0,0.0,0.0,-0.7,2.2,1.2,,,,,71.6,865.4,73.4,791.6,71.6,870.8,75.2,870.8,,,15.0,0.0,,26.0,4.0,0.0,,,0.658,0.801,75.6,58.82,,,,,,1090.0,72.95,0.9938692098092643,0.8038147138964578,0.02223611111111111,0.42166666666666675,433.4,True,2026-02-22 23:00:12 - Flight 1,3.5,0.0
119.06,1,8,2026-02-22 23:02:04,37.08158,-121.59958,337.0,0.0,124.9,-12.6,,,,,0.0,11.0,-0.6,21.3,0.0,-32.0,0.1,-0.01,1.0,,-52.0,73.4,0.0,30.06,874.0,,,133.0,,,,,0.0,0.0,,,,,,,,,,,,,,,,,,,76.0,59.0,1045.0,1045.0,14.4,3.4,,3.4,26.1,,,30.0,0.0,0.0,-0.7,2.2,1.2,,,,,73.4,878.0,75.2,816.8,73.4,885.2,77.0,887.0,,,15.0,0.0,,26.1,4.0,0.0,,,0.659,0.801,75.7,58.82,,,,,,1045.0,74.75,1.018392370572207,0.8038147138964578,0.023194444444444445,0.42166666666666675,433.4,True,2026-02-22 23:00:12 - Flight 1,3.4,0.0
120.06,1,8,2026-02-22 23:02:05,37.08158,-121.59958,337.0,0.0,124.9,-12.6,,,,,0.0,10.9,-0.6,21.3,0.0,-32.0,0.1,-0.02,1.0,,-70.0,73.4,0.0,30.06,874.0,,,133.0,,,,,0.0,0.0,,,,,,,,,,,,,,,,,,,76.0,59.0,1031.0,1031.0,14.3,3.3,,3.3,26.1,,,30.0,0.0,0.0,-0.7,2.2,1.2,,,,,73.4,890.6,77.0,838.4,73.4,896.0,77.0,899.6,,,15.0,0.0,,26.1,4.0,0.0,,,0.658,0.802,75.8,58.82,,,,,,1031.0,75.2,1.0245231607629428,0.8038147138964578,0.024125,0.42166666666666675,433.4,True,2026-02-22 23:00:12 - Flight 1,3.3,0.0
121.06,1,8,2026-02-22 23:02:06,37.08158,-121.59958,337.0,0.0,124.9,-12.6,,,,,0.0,10.9,-0.6,21.3,0.0,-34.0,0.1,-0.01,1.0,,-95.0,73.4,0.0,30.06,874.0,,,133.0,,,,,0.0,0.0,,,,,,,,,,,,,,,,,,,76.0,59.0,1078.0,1078.0,14.4,3.1,,3.1,26.3,,,30.0,0.0,0.0,-0.7,2.2,1.2,,,,,75.2,903.2,77.0,856.4,75.2,905.0,78.8,910.4,,,15.0,0.0,,26.3,4.0,0.0,,,0.658,0.802,75.9,58.82,,,,,,1078.0,76.55,1.0429155313351497,0.8038147138964578,0.025013888888888888,0.42166666666666675,433.4,True,2026-02-22 23:00:12 - Flight 1,3.1,0.0
122.06,1,8,2026-02-22 23:02:07,37.08158,-121.59958,337.0,0.0,124.9,-12.6,,,,,0.0,10.9,-0.6,21.4,0.0,-34.0,0.1,-0.01,1.0,,-57.0,73.4,0.0,30.06,882.0,,,133.0,,,,,0.0,0.0,,,,,,,,,,,,,,,,,,,76.0,59.0,1089.0,1089.0,13.8,2.9,,2.9,26.3,,,30.0,0.0,0.0,-0.7,2.2,1.2,,,,,75.2,912.2,78.8,870.8,75.2,917.6,78.8,923.0,,,15.0,0.0,,26.3,4.0,0.0,,,0.658,0.802,76.0,58.82,,,,,,1089.0,77.0,1.0490463215258854,0.8038147138964578,0.025847222222222223,0.42166666666666675,433.4,True,2026-02-22 23:00:12 - Flight 1,2.9,0.0
123.06,1,8,2026-02-22 23:02:08,37.08158,-121.59958,337.0,0.0,124.9,-12.6,,,,,0.0,10.9,-0.7,21.3,0.0,-34.0,0.1,-0.01,1.0,,-36.0,73.4,0.0,30.06,882.0,,,133.0,,,,,0.0,0.0,,,,,,,,,,,,,,,,,,,76.0,59.0,1085.0,1085.0,13.6,2.8,,2.8,26.3,,,30.0,0.0,0.0,-0.7,2.2,1.2,,,,,77.0,921.2,78.8,883.4,77.0,932.0,80.6,935.6,,,15.0,0.0,,26.3,4.0,0.0,,,0.657,0.801,76.1,58.82,,,,,,1085.0,78.35,1.0674386920980925,0.8038147138964578,0.02663888888888889,0.42166666666666675,433.4,True,2026-02-22 23:00:12 - Flight 1,2.8,0.0
124.06,1,8,2026-02-22 23:02:09,37.08158,-121.59958,337.0,0.0,124.9,-12.6,,,,,0.0,10.9,-0.8,21.3,0.0,-34.0,0.0,-0.01,1.0,,-32.0,73.4,0.0,30.06,883.0,,,133.0,,,,,0.0,0.0,,,,,,,,,,,,,,,,,,,76.0,59.0,1075.0,1075.0,13.5,2.7,,2.7,26.3,,,30.0,0.0,0.0,-0.7,2.2,1.2,,,,,77.0,928.4,80.6,896.0,77.0,946.4,82.4,948.2,,,15.0,0.0,,26.3,4.0,0.0,,,0.659,0.801,76.1,58.82,,,,,,1075.0,79.25,1.079700272479564,0.8038147138964578,0.027402777777777776,0.42166666666666675,433.4,True,2026-02-22 23:00:12 - Flight 1,2.7,0.0
125.06,1,8,2026-02-22 23:02:10,37.08158,-121.59958,337.0,0.0,124.9,-12.6,,,,,0.0,10.8,-0.7,21.2,0.0,-34.0,0.0,-0.01,0.9,,-17.0,73.4,0.0,30.06,883.0,,,133.0,,,,,0.0,0.0,,,,,,,,,,,,,,,,,,,76.0,59.0,1085.0,1085.0,13.4,2.6,,2.6,26.4,,,30.0,0.0,0.0,-0.7,2.2,1.2,,,,,78.8,935.6,80.6,906.8,78.8,960.8,82.4,960.8,,,15.0,0.0,,26.4,4.0,0.0,,,0.663,0.801,76.2,59.0,,,,,,1085.0,80.14999999999999,1.0919618528610353,0.8038147138964578,0.02813888888888889,0.42166666666666675,433.4,True,2026-02-22 23:00:12 - Flight 1,2.6,0.0
