Session Time,GPS Fix Quality,Number of Satellites,GPS Date & Time,Latitude (deg),Longitude (deg),GPS Altitude (feet),Ground Speed (knots),Ground Track (deg),Mag Var (deg),Cross Track Error (NM),Destination Waypoint ID,Range to Destination (NM),Bearing to Destination (deg),System Time,Pitch (deg),Roll (deg),Magnetic Heading (deg),Indicated Airspeed (knots),Pressure Altitude (ft),Turn Rate (deg/s),Lateral Accel (g),Vertical Accel(g),Angle of Attack (%),Vertical Speed (ft/min),OAT (deg C),True Airspeed (knots),Barometer Setting (inHg),Density Altitude (ft),Wind Direction (deg),Wind Speed (knots),Heading Bug (deg),Altitude Bug (ft),Airspeed Bug (knots),Vertical Speed Bug (ft/min),Course (deg),CDI Source Type,CDI Source Port,CDI Scale (NM),CDI Deflection (%),Glideslope (%),AP Engaged,AP Roll Mode,AP Roll Force,AP Roll Position (steps),AP Roll Slip (bool),AP Pitch Force,AP Pitch Position (steps),AP Pitch Slip (bool),AP Yaw Force,AP Yaw Position,AP Yaw Slip (bool),Transponder Status,Transponder Reply (bool),Transponder Identing (bool),Transponder Code (octal),Oil Pressure (PSI),Oil Temp (deg C),RPM L,RPM R,Manifold Pressure (inHg),Fuel Flow 1 (gal/hr),Fuel Flow 2 (gal/hr),Total Fuel Flow (gal/hr),Fuel Pressure (PSI),Fuel Level L (gal),Fuel Level R (gal),Fuel Remaining (gal),Volts 1,Volts 2,Amps,Hobbs Time,Tach Time,Thermocouple 1 (deg C),Thermocouple 2 (deg C),Thermocouple 3 (deg C),Thermocouple 4 (deg C),CHT 4 (deg C),EGT 4 (deg C),CHT 3 (deg C),EGT 3 (deg C),CHT 2 (deg C),EGT 2 (deg C),CHT 1 (deg C),EGT 1 (deg C),Thermocouple 13 (deg C),Thermocouple 14 (deg C),ELEV POSITION (%),CO PPM PRESSURE (PSI),GP Input 3,FUEL PRESSURE (PSI),AILERN POSITION (%),CANOPY CONTACT (V),GP Input 7,GP Input 8,LEFT LEVEL (Sensor V),RIGHT LEVEL (Sensor V),OIL PRESSURE (PSI),OIL TEMPERATURE (deg C),GP Input 13,Contacts,Percent Power,EGT Leaning State,Unnamed: 103,OAT (deg F),Oil Temp (deg F),Thermocouple 1 (deg F),Thermocouple 2 (deg F),Thermocouple 3 (deg F),Thermocouple 4 (deg F),CHT 4 (deg F),EGT 4 (deg F),CHT 3 (deg F),EGT 3 (deg F),CHT 2 (deg F),EGT 2 (deg F),CHT 1 (deg F),EGT 1 (deg F),Thermocouple 13 (deg F),Thermocouple 14 (deg F),OIL TEMPERATURE (deg F),RPM,AVG_CHT,CHT_Delta_T,OIL_Delta_T,Fuel Flow Integral,Distance Traveled,MPG,Max CHT,Engine Run,Flight ID
5.06,1,4,2026-05-02 00:06:42,37.68873,-121.43688,249.0,0.0,38.2,-12.7,0.0,,0.0,0.0,0.0,10.3,1.0,298.4,0.0,274.0,0.0,0.02,1.0,99.0,-45.0,35.0,0.0,29.85,2752.0,0.0,0.0,39.0,0.0,0.0,0.0,0.0,0.0,0.0,0.0,0.0,0.0,0.0,0.0,0.0,0.0,0.0,0.0,0.0,0.0,0.0,0.0,0.0,0.0,0.0,0.0,0.0,0.0,87.0,0.0,0.0,29.9,0.2,0.0,0.2,5.0,0.0,0.0,11.1,0.0,0.0,-0.3,14.2,11.7,0.0,0.0,0.0,0.0,114.0,93.0,124.0,104.0,115.0,98.0,119.0,101.0,0.0,0.0,-9.0,254.2,0.0,5.0,3.0,4.998,0.0,0.0,0.653,0.88,0.0,87.3,0.0,0.0,0.0,,0.0,95.0,188.6,0.0,0.0,0.0,0.0,237.2,199.4,255.2,219.2,239.0,208.4,246.2,213.8,0.0,0.0,189.14,0.0,244.39999999999998,149.39999999999998,94.13999999999999,0.0,0.0,0.0,424.4,True,2026-05-02 00:06:42
6.06,1,7,2026-05-02 00:06:43,37.68869,-121.43691,202.0,0.0,38.2,-12.7,0.0,,0.0,0.0,0.0,10.3,1.0,298.4,0.0,271.0,0.0,0.02,1.0,99.0,-100.0,35.0,0.0,29.85,2752.0,0.0,0.0,39.0,0.0,0.0,0.0,0.0,0.0,0.0,0.0,0.0,0.0,0.0,0.0,0.0,0.0,0.0,0.0,0.0,0.0,0.0,0.0,0.0,0.0,0.0,0.0,0.0,0.0,87.0,0.0,0.0,29.9,0.2,0.0,0.2,5.0,0.0,0.0,11.1,0.0,0.0,-0.3,14.2,11.7,0.0,0.0,0.0,0.0,114.0,93.0,124.0,104.0,115.0,98.0,119.0,101.0,0.0,0.0,-9.0,254.2,0.0,5.0,3.0,4.998,0.0,0.0,0.653,0.881,0.0,87.3,0.0,0.0,0.0,,0.0,95.0,188.6,0.0,0.0,0.0,0.0,237.2,199.4,255.2,219.2,239.0,208.4,246.2,213.8,0.0,0.0,189.14,0.0,244.39999999999998,149.39999999999998,94.13999999999999,5.555555555555556e-05,0.0,0.0,424.4,True,2026-05-02 00:06:42
7.06,1,7,2026-05-02 00:06:44,37.68873,-121.4369,178.0,0.0,38.2,-12.7,0.0,,0.0,0.0,0.0,10.4,1.0,298.4,0.0,270.0,0.0,0.02,1.0,99.0,-99.0,35.0,0.0,29.85,2752.0,0.0,0.0,39.0,0.0,0.0,0.0,0.0,0.0,0.0,0.0,0.0,0.0,0.0,0.0,0.0,0.0,0.0,0.0,0.0,0.0,0.0,0.0,0.0,0.0,0.0,0.0,0.0,0.0,87.0,0.0,0.0,29.9,0.2,0.0,0.2,5.0,0.0,0.0,11.1,0.0,0.0,-0.3,14.2,11.7,0.0,0.0,0.0,0.0,114.0,93.0,124.0,104.0,115.0,98.0,119.0,101.0,0.0,0.0,-9.0,254.2,0.0,5.0,3.0,4.996,0.0,0.0,0.653,0.883,0.0,87.3,0.0,0.0,0.0,,0.0,95.0,188.6,0.0,0.0,0.0,0.0,237.2,199.4,255.2,219.2,239.0,208.4,246.2,213.8,0.0,0.0,189.14,0.0,244.39999999999998,149.39999999999998,94.13999999999999,0.00011111111111111112,0.0,0.0,424.4,True,2026-05-02 00:06:42
8.06,1,7,2026-05-02 00:06:45,37.68872,-121.4369,178.0,0.0,38.2,-12.7,0.0,,0.0,0.0,0.0,10.3,1.1,298.4,0.0,268.0,0.0,0.02,1.0,99.0,-103.0,35.0,0.0,29.85,2747.0,0.0,0.0,39.0,0.0,0.0,0.0,0.0,0.0,0.0,0.0,0.0,0.0,0.0,0.0,0.0,0.0,0.0,0.0,0.0,0.0,0.0,0.0,0.0,0.0,0.0,0.0,0.0,0.0,87.0,0.0,0.0,29.9,0.2,0.0,0.2,5.0,0.0,0.0,11.1,0.0,0.0,-0.3,14.2,11.7,0.0,0.0,0.0,0.0,114.0,93.0,124.0,104.0,115.0,98.0,119.0,101.0,0.0,0.0,-9.0,254.2,0.0,5.0,3.0,4.996,0.0,0.0,0.653,0.885,0.0,87.3,0.0,0.0,0.0,,0.0,95.0,188.6,0.0,0.0,0.0,0.0,237.2,199.4,255.2,219.2,239.0,208.4,246.2,213.8,0.0,0.0,189.14,0.0,244.39999999999998,149.39999999999998,94.13999999999999,0.00016666666666666672,0.0,0.0,424.4,True,2026-05-02 00:06:42
9.06,1,7,2026-05-02 00:06:46,37.68872,-121.4369,178.0,0.0,38.2,-12.7,0.0,,0.0,0.0,0.0,10.4,1.0,298.4,0.0,266.0,0.0,0.02,1.0,99.0,-128.0,35.0,0.0,29.85,2747.0,0.0,0.0,39.0,0.0,0.0,0.0,0.0,0.0,0.0,0.0,0.0,0.0,0.0,0.0,0.0,0.0,0.0,0.0,0.0,0.0,0.0,0.0,0.0,0.0,0.0,0.0,0.0,0.0,87.0,0.0,0.0,29.9,0.2,0.0,0.2,5.0,0.0,0.0,11.1,0.0,0.0,-0.3,14.2,11.7,0.0,0.0,0.0,0.0,114.0,93.0,124.0,104.0,114.0,98.0,119.0,101.0,0.0,0.0,-9.0,254.2,0.0,5.0,3.0,4.996,0.0,0.0,0.653,0.89,0.0,87.3,0.0,0.0,0.0,,0.0,95.0,188.6,0.0,0.0,0.0,0.0,237.2,199.4,255.2,219.2,237.2,208.4,246.2,213.8,0.0,0.0,189.14,0.0,243.95,148.95,94.13999999999999,0.0002222222222222223,0.0,0.0,424.4,True,2026-05-02 00:06:42
10.06,1,7,2026-05-02 00:06:47,37.68872,-121.4369,178.0,0.0,38.2,-12.7,0.0,,0.0,0.0,0.0,10.3,0.9,298.3,0.0,264.0,-0.0,0.02,1.0,99.0,-118.0,35.0,0.0,29.85,2747.0,0.0,0.0,39.0,0.0,0.0,0.0,0.0,0.0,0.0,0.0,0.0,0.0,0.0,0.0,0.0,0.0,0.0,0.0,0.0,0.0,0.0,0.0,0.0,0.0,0.0,0.0,0.0,0.0,87.0,0.0,0.0,29.9,0.2,0.0,0.2,5.0,0.0,0.0,11.1,0.0,0.0,-0.3,14.2,11.7,0.0,0.0,0.0,0.0,114.0,93.0,123.0,104.0,114.0,98.0,119.0,101.0,0.0,0.0,-9.0,254.2,0.0,5.0,3.0,4.996,0.0,0.0,0.653,0.907,0.0,87.3,0.0,0.0,0.0,,0.0,95.0,188.6,0.0,0.0,0.0,0.0,237.2,199.4,253.4,219.2,237.2,208.4,246.2,213.8,0.0,0.0,189.14,0.0,243.5,148.5,94.13999999999999,0.00027777777777777783,0.0,0.0,424.4,True,2026-05-02 00:06:42
11.06,1,9,2026-05-02 00:06:48,37.68873,-121.43689,193.0,0.0,38.2,-12.7,0.0,,0.0,0.0,0.0,10.4,1.0,298.3,0.0,263.0,-0.0,0.02,1.0,99.0,-92.0,35.0,0.0,29.85,2740.0,0.0,0.0,39.0,0.0,0.0,0.0,0.0,0.0,0.0,0.0,0.0,0.0,0.0,0.0,0.0,0.0,0.0,0.0,0.0,0.0,0.0,0.0,0.0,0.0,0.0,0.0,0.0,0.0,87.0,0.0,0.0,29.9,0.2,0.0,0.2,5.0,0.0,0.0,11.1,0.0,0.0,-0.3,14.2,11.7,0.0,0.0,0.0,0.0,114.0,93.0,123.0,104.0,114.0,98.0,119.0,101.0,0.0,0.0,-9.0,254.2,0.0,5.0,3.0,4.998,0.0,0.0,0.653,0.908,0.0,87.3,0.0,0.0,0.0,,0.0,95.0,188.6,0.0,0.0,0.0,0.0,237.2,199.4,253.4,219.2,237.2,208.4,246.2,213.8,0.0,0.0,189.14,0.0,243.5,148.5,94.13999999999999,0.0003333333333333334,0.0,0.0,424.4,True,2026-05-02 00:06:42
12.06,1,9,2026-05-02 00:06:49,37.68873,-121.43689,192.0,0.0,38.2,-12.7,0.0,,0.0,0.0,0.0,10.4,0.9,298.3,0.0,261.0,-0.0,0.02,1.0,99.0,-105.0,35.0,0.0,29.85,2740.0,0.0,0.0,39.0,0.0,0.0,0.0,0.0,0.0,0.0,0.0,0.0,0.0,0.0,0.0,0.0,0.0,0.0,0.0,0.0,0.0,0.0,0.0,0.0,0.0,0.0,0.0,0.0,0.0,87.0,0.0,0.0,29.9,0.2,0.0,0.2,5.0,0.0,0.0,11.1,0.0,0.0,-0.3,14.2,11.7,0.0,0.0,0.0,0.0,114.0,93.0,123.0,104.0,114.0,98.0,119.0,101.0,0.0,0.0,-9.0,254.2,0.0,5.0,3.0,4.998,0.0,0.0,0.653,0.939,0.0,87.3,0.0,0.0,0.0,,0.0,95.0,188.6,0.0,0.0,0.0,0.0,237.2,199.4,253.4,219.2,237.2,208.4,246.2,213.8,0.0,0.0,189.14,0.0,243.5,148.5,94.13999999999999,0.000388888888888889,0.0,0.0,424.4,True,2026-05-02 00:06:42
13.06,1,9,2026-05-02 00:06:50,37.68873,-121.43689,192.0,0.0,38.2,-12.7,0.0,,0.0,0.0,0.0,10.4,0.9,298.3,0.0,259.0,-0.0,0.02,1.0,99.0,-115.0,35.0,0.0,29.85,2740.0,0.0,0.0,39.0,0.0,0.0,0.0,0.0,0.0,0.0,0.0,0.0,0.0,0.0,0.0,0.0,0.0,0.0,0.0,0.0,0.0,0.0,0.0,0.0,0.0,0.0,0.0,0.0,0.0,87.0,0.0,0.0,29.9,0.2,0.0,0.2,5.0,0.0,0.0,11.1,0.0,0.0,-0.3,14.2,11.7,0.0,0.0,0.0,0.0,113.0,93.0,123.0,104.0,114.0,98.0,119.0,101.0,0.0,0.0,-9.0,254.2,0.0,5.0,3.0,4.998,0.0,0.0,0.653,0.896,0.0,87.3,0.0,0.0,0.0,,0.0,95.0,188.6,0.0,0.0,0.0,0.0,235.4,199.4,253.4,219.2,237.2,208.4,246.2,213.8,0.0,0.0,189.14,0.0,243.04999999999998,148.04999999999998,94.13999999999999,0.0004444444444444445,0.0,0.0,424.4,True,2026-05-02 00:06:42
14.06,1,9,2026-05-02 00:06:51,37.68873,-121.43688,191.0,0.0,38.2,-12.7,0.0,,0.0,0.0,0.0,10.4,0.9,298.3,0.0,258.0,-0.0,0.02,1.0,99.0,-82.0,35.0,0.0,29.85,2734.0,0.0,0.0,39.0,0.0,0.0,0.0,0.0,0.0,0.0,0.0,0.0,0.0,0.0,0.0,0.0,0.0,0.0,0.0,0.0,0.0,0.0,0.0,0.0,0.0,0.0,0.0,0.0,0.0,87.0,0.0,0.0,29.9,0.2,0.0,0.2,5.0,0.0,0.0,11.1,0.0,0.0,-0.3,14.2,11.7,0.0,0.0,0.0,0.0,113.0,93.0,123.0,104.0,114.0,98.0,119.0,101.0,0.0,0.0,-9.0,254.2,0.0,5.0,3.0,4.996,0.0,0.0,0.653,0.885,0.0,87.3,0.0,0.0,0.0,,0.0,95.0,188.6,0.0,0.0,0.0,0.0,235.4,199.4,253.4,219.2,237.2,208.4,246.2,213.8,0.0,0.0,189.14,0.0,243.04999999999998,148.04999999999998,94.13999999999999,0.0005000000000000001,0.0,0.0,424.4,True,2026-05-02 00:06:42
15.06,1,9,2026-05-02 00:06:52,37.68873,-121.43688,191.0,0.0,38.2,-12.7,0.0,,0.0,0.0,0.0,10.3,0.9,298.2,0.0,258.0,-0.0,0.02,1.0,99.0,-64.0,35.0,0.0,29.85,2734.0,0.0,0.0,39.0,0.0,0.0,0.0,0.0,0.0,0.0,0.0,0.0,0.0,0.0,0.0,0.0,0.0,0.0,0.0,0.0,0.0,0.0,0.0,0.0,0.0,0.0,0.0,0.0,0.0,87.0,0.0,0.0,29.9,0.2,0.0,0.2,5.0,0.0,0.0,11.1,0.0,0.0,-0.3,14.2,11.7,0.0,0.0,0.0,0.0,113.0,93.0,123.0,104.0,114.0,98.0,119.0,101.0,0.0,0.0,-9.0,254.2,0.0,5.0,3.0,4.996,0.0,0.0,0.653,0.879,0.0,87.3,0.0,0.0,0.0,,0.0,95.0,188.6,0.0,0.0,0.0,0.0,235.4,199.4,253.4,219.2,237.2,208.4,246.2,213.8,0.0,0.0,189.14,0.0,243.04999999999998,148.04999999999998,94.13999999999999,0.0005555555555555557,0.0,0.0,424.4,True,2026-05-02 00:06:42
16.06,1,9,2026-05-02 00:06:53,37.68873,-121.43688,190.0,0.0,38.2,-12.7,0.0,,0.0,0.0,0.0,10.4,1.0,298.3,0.0,257.0,0.0,0.02,1.0,99.0,-76.0,35.0,0.0,29.85,2734.0,0.0,0.0,39.0,0.0,0.0,0.0,0.0,0.0,0.0,0.0,0.0,0.0,0.0,0.0,0.0,0.0,0.0,0.0,0.0,0.0,0.0,0.0,0.0,0.0,0.0,0.0,0.0,0.0,87.0,0.0,0.0,29.9,0.2,0.0,0.2,5.0,0.0,0.0,11.1,0.0,0.0,-0.3,14.2,11.7,0.0,0.0,0.0,0.0,113.0,93.0,123.0,104.0,114.0,98.0,119.0,101.0,0.0,0.0,-9.0,254.2,0.0,5.0,3.0,4.996,0.0,0.0,0.653,0.876,0.0,87.3,0.0,0.0,0.0,,0.0,95.0,188.6,0.0,0.0,0.0,0.0,235.4,199.4,253.4,219.2,237.2,208.4,246.2,213.8,0.0,0.0,189.14,0.0,243.04999999999998,148.04999999999998,94.13999999999999,0.0006111111111111111,0.0,0.0,424.4,True,2026-05-02 00:06:42
17.06,1,9,2026-05-02 00:06:54,37.68873,-121.43688,189.0,0.0,38.2,-12.7,0.0,,0.0,0.0,0.0,10.3,0.9,298.3,0.0,255.0,0.0,0.02,1.0,99.0,-73.0,35.0,0.0,29.85,2731.0,0.0,0.0,39.0,0.0,0.0,0.0,0.0,0.0,0.0,0.0,0.0,0.0,0.0,0.0,0.0,0.0,0.0,0.0,0.0,0.0,0.0,0.0,0.0,0.0,0.0,0.0,0.0,0.0,87.0,0.0,0.0,29.9,0.2,0.0,0.2,5.0,0.0,0.0,11.1,0.0,0.0,-0.3,14.2,11.7,0.0,0.0,0.0,0.0,113.0,93.0,123.0,104.0,114.0,98.0,119.0,101.0,0.0,0.0,-9.0,254.2,0.0,5.0,3.0,4.996,0.0,0.0,0.653,0.873,0.0,87.3,0.0,0.0,0.0,,0.0,95.0,188.6,0.0,0.0,0.0,0.0,235.4,199.4,253.4,219.2,237.2,208.4,246.2,213.8,0.0,0.0,189.14,0.0,243.04999999999998,148.04999999999998,94.13999999999999,0.0006666666666666666,0.0,0.0,424.4,True,2026-05-02 00:06:42
18.06,1,9,2026-05-02 00:06:55,37.68873,-121.43688,188.0,0.0,38.2,-12.7,0.0,,0.0,0.0,0.0,10.3,1.0,298.2,0.0,254.0,0.0,0.02,1.0,99.0,-59.0,35.0,0.0,29.85,2731.0,0.0,0.0,39.0,0.0,0.0,0.0,0.0,0.0,0.0,0.0,0.0,0.0,0.0,0.0,0.0,0.0,0.0,0.0,0.0,0.0,0.0,0.0,0.0,0.0,0.0,0.0,0.0,0.0,87.0,0.0,0.0,29.9,0.2,0.0,0.2,5.0,0.0,0.0,11.1,0.0,0.0,-0.3,14.2,11.7,0.0,0.0,0.0,0.0,113.0,93.0,123.0,104.0,114.0,98.0,119.0,101.0,0.0,0.0,-9.0,254.2,0.0,5.0,3.0,4.998,0.0,0.0,0.653,0.872,0.0,87.3,0.0,0.0,0.0,,0.0,95.0,188.6,0.0,0.0,0.0,0.0,235.4,199.4,253.4,219.2,237.2,208.4,246.2,213.8,0.0,0.0,189.14,0.0,243.04999999999998,148.04999999999998,94.13999999999999,0.0007222222222222222,0.0,0.0,424.4,True,2026-05-02 00:06:42
19.06,1,9,2026-05-02 00:06:56,37.68874,-121.43688,188.0,0.0,38.2,-12.7,0.0,,0.0,0.0,0.0,10.3,1.0,298.3,0.0,253.0,0.0,0.02,1.0,99.0,-59.0,35.0,0.0,29.85,2731.0,0.0,0.0,39.0,0.0,0.0,0.0,0.0,0.0,0.0,0.0,0.0,0.0,0.0,0.0,0.0,0.0,0.0,0.0,0.0,0.0,0.0,0.0,0.0,0.0,0.0,0.0,0.0,0.0,87.0,0.0,0.0,29.9,0.2,0.0,0.2,5.0,0.0,0.0,11.1,0.0,0.0,-0.3,14.2,11.7,0.0,0.0,0.0,0.0,113.0,93.0,123.0,104.0,114.0,98.0,119.0,101.0,0.0,0.0,-9.0,254.2,0.0,5.0,3.0,4.996,0.0,0.0,0.653,0.872,0.0,87.3,0.0,0.0,0.0,,0.0,95.0,188.6,0.0,0.0,0.0,0.0,235.4,199.4,253.4,219.2,237.2,208.4,246.2,213.8,0.0,0.0,189.14,0.0,243.04999999999998,148.04999999999998,94.13999999999999,0.0007777777777777777,0.0,0.0,424.4,True,2026-05-02 00:06:42
20.06,1,9,2026-05-02 00:06:57,37.68874,-121.43688,188.0,0.0,38.2,-12.7,0.0,,0.0,0.0,0.0,10.3,1.0,298.2,0.0,253.0,0.0,0.02,1.0,99.0,-46.0,35.0,0.0,29.85,2738.0,0.0,0.0,39.0,0.0,0.0,0.0,0.0,0.0,0.0,0.0,0.0,0.0,0.0,0.0,0.0,0.0,0.0,0.0,0.0,0.0,0.0,0.0,0.0,0.0,0.0,0.0,0.0,0.0,87.0,0.0,0.0,29.9,0.2,0.0,0.2,5.0,0.0,0.0,11.1,0.0,0.0,-0.3,14.2,11.7,0.0,0.0,0.0,0.0,113.0,93.0,123.0,104.0,114.0,98.0,119.0,101.0,0.0,0.0,-9.0,254.2,0.0,5.0,3.0,4.996,0.0,0.0,0.653,0.869,0.0,87.3,0.0,0.0,0.0,,0.0,95.0,188.6,0.0,0.0,0.0,0.0,235.4,199.4,253.4,219.2,237.2,208.4,246.2,213.8,0.0,0.0,189.14,0.0,243.04999999999998,148.04999999999998,94.13999999999999,0.0008333333333333333,0.0,0.0,424.4,True,2026-05-02 00:06:42
21.06,1,9,2026-05-02 00:06:58,37.68874,-121.43688,187.0,0.0,38.2,-12.7,0.0,,0.0,0.0,0.0,10.3,0.9,298.2,0.0,251.0,0.0,0.02,1.0,99.0,-58.0,35.0,0.0,29.85,2735.0,0.0,0.0,39.0,0.0,0.0,0.0,0.0,0.0,0.0,0.0,0.0,0.0,0.0,0.0,0.0,0.0,0.0,0.0,0.0,0.0,0.0,0.0,0.0,0.0,0.0,0.0,0.0,0.0,87.0,0.0,0.0,29.9,0.2,0.0,0.2,5.0,0.0,0.0,11.1,0.0,0.0,-0.3,14.2,11.7,0.0,0.0,0.0,0.0,113.0,93.0,123.0,104.0,114.0,98.0,119.0,101.0,0.0,0.0,-9.0,254.1,0.0,5.0,3.0,4.998,0.0,0.0,0.653,0.87,0.0,87.3,0.0,0.0,0.0,,0.0,95.0,188.6,0.0,0.0,0.0,0.0,235.4,199.4,253.4,219.2,237.2,208.4,246.2,213.8,0.0,0.0,189.14,0.0,243.04999999999998,148.04999999999998,94.13999999999999,0.0008888888888888889,0.0,0.0,424.4,True,2026-05-02 00:06:42
22.06,1,9,2026-05-02 00:06:59,37.68874,-121.43688,187.0,0.0,38.2,-12.7,0.0,,0.0,0.0,0.0,10.3,0.9,298.1,0.0,251.0,0.0,0.02,1.0,99.0,-46.0,35.0,0.0,29.85,2735.0,0.0,0.0,39.0,0.0,0.0,0.0,0.0,0.0,0.0,0.0,0.0,0.0,0.0,0.0,0.0,0.0,0.0,0.0,0.0,0.0,0.0,0.0,0.0,0.0,0.0,0.0,0.0,0.0,87.0,0.0,0.0,29.9,0.2,0.0,0.2,5.0,0.0,0.0,11.1,0.0,0.0,-0.3,14.2,11.7,0.0,0.0,0.0,0.0,113.0,93.0,123.0,104.0,114.0,98.0,119.0,101.0,0.0,0.0,-9.0,254.1,0.0,5.0,3.0,4.996,0.0,0.0,0.653,0.869,0.0,87.3,0.0,0.0,0.0,,0.0,95.0,188.6,0.0,0.0,0.0,0.0,235.4,199.4,253.4,219.2,237.2,208.4,246.2,213.8,0.0,0.0,189.14,0.0,243.04999999999998,148.04999999999998,94.13999999999999,0.0009444444444444445,0.0,0.0,424.4,True,2026-05-02 00:06:42
23.06,1,9,2026-05-02 00:07:00,37.68874,-121.43688,187.0,0.0,38.2,-12.7,0.0,,0.0,0.0,0.0,10.3,0.9,298.2,0.0,249.0,0.0,0.02,1.0,99.0,-75.0,35.0,0.0,29.85,2734.0,0.0,0.0,39.0,0.0,0.0,0.0,0.0,0.0,0.0,0.0,0.0,0.0,0.0,0.0,0.0,0.0,0.0,0.0,0.0,0.0,0.0,0.0,0.0,0.0,0.0,0.0,0.0,0.0,87.0,0.0,0.0,29.9,0.2,0.0,0.2,5.0,0.0,0.0,11.1,0.0,0.0,-0.3,14.2,11.7,0.0,0.0,0.0,0.0,113.0,93.0,123.0,104.0,114.0,98.0,119.0,101.0,0.0,0.0,-9.0,254.1,0.0,5.0,3.0,4.996,0.0,0.0,0.653,0.869,0.0,87.3,0.0,0.0,0.0,,0.0,95.0,188.6,0.0,0.0,0.0,0.0,235.4,199.4,253.4,219.2,237.2,208.4,246.2,213.8,0.0,0.0,189.14,0.0,243.04999999999998,148.04999999999998,94.13999999999999,0.001,0.0,0.0,424.4,True,2026-05-02 00:06:42
24.06,1,9,2026-05-02 00:07:01,37.68874,-121.43688,188.0,0.0,38.2,-12.7,0.0,,0.0,0.0,0.0,10.3,0.9,298.2,0.0,249.0,0.0,0.02,1.0,99.0,-74.0,35.0,0.0,29.85,2733.0,0.0,0.0,39.0,0.0,0.0,0.0,0.0,0.0,0.0,0.0,0.0,0.0,0.0,0.0,0.0,0.0,0.0,0.0,0.0,0.0,0.0,0.0,0.0,0.0,0.0,0.0,0.0,0.0,87.0,0.0,0.0,29.9,0.1,0.0,0.1,5.0,0.0,0.0,11.1,0.0,0.0,-0.3,14.2,11.7,0.0,0.0,0.0,0.0,113.0,94.0,123.0,104.0,114.0,98.0,119.0,101.0,0.0,0.0,-9.0,254.1,0.0,5.0,3.0,4.996,0.0,0.0,0.653,0.875,0.0,87.3,0.0,0.0,0.0,,0.0,95.0,188.6,0.0,0.0,0.0,0.0,235.4,201.2,253.4,219.2,237.2,208.4,246.2,213.8,0.0,0.0,189.14,0.0,243.04999999999998,148.04999999999998,94.13999999999999,0.0010416666666666667,0.0,0.0,424.4,True,2026-05-02 00:06:42
25.06,1,9,2026-05-02 00:07:02,37.68874,-121.43688,188.0,0.0,38.2,-12.7,0.0,,0.0,0.0,0.0,10.3,1.0,298.2,0.0,248.0,0.1,0.02,1.0,99.0,-43.0,35.0,0.0,29.85,2733.0,0.0,0.0,39.0,0.0,0.0,0.0,0.0,0.0,0.0,0.0,0.0,0.0,0.0,0.0,0.0,0.0,0.0,0.0,0.0,0.0,0.0,0.0,0.0,0.0,0.0,0.0,0.0,0.0,87.0,0.0,0.0,29.9,0.1,0.0,0.1,5.0,0.0,0.0,11.1,0.0,0.0,-0.3,14.2,11.7,0.0,0.0,0.0,0.0,113.0,94.0,123.0,104.0,114.0,98.0,119.0,101.0,0.0,0.0,-9.0,254.1,0.0,5.0,3.0,4.996,0.0,0.0,0.653,0.878,0.0,87.3,0.0,0.0,0.0,,0.0,95.0,188.6,0.0,0.0,0.0,0.0,235.4,201.2,253.4,219.2,237.2,208.4,246.2,213.8,0.0,0.0,189.14,0.0,243.04999999999998,148.04999999999998,94.13999999999999,0.0010694444444444445,0.0,0.0,424.4,True,2026-05-02 00:06:42
26.06,1,9,2026-05-02 00:07:03,37.68874,-121.43688,189.0,0.0,38.2,-12.7,0.0,,0.0,0.0,0.0,10.4,0.9,298.2,0.0,248.0,0.0,0.02,1.0,99.0,-37.0,35.0,0.0,29.85,2733.0,0.0,0.0,39.0,0.0,0.0,0.0,0.0,0.0,0.0,0.0,0.0,0.0,0.0,0.0,0.0,0.0,0.0,0.0,0.0,0.0,0.0,0.0,0.0,0.0,0.0,0.0,0.0,0.0,87.0,0.0,0.0,29.9,0.1,0.0,0.1,5.0,0.0,0.0,11.1,0.0,0.0,-0.3,14.2,11.7,0.0,0.0,0.0,0.0,113.0,94.0,123.0,104.0,114.0,98.0,119.0,101.0,0.0,0.0,-9.0,254.1,0.0,5.0,3.0,4.996,0.0,0.0,0.653,0.878,0.0,87.3,0.0,0.0,0.0,,0.0,95.0,188.6,0.0,0.0,0.0,0.0,235.4,201.2,253.4,219.2,237.2,208.4,246.2,213.8,0.0,0.0,189.14,0.0,243.04999999999998,148.04999999999998,94.13999999999999,0.0010972222222222223,0.0,0.0,424.4,True,2026-05-02 00:06:42
27.06,1,9,2026-05-02 00:07:04,37.68875,-121.43688,189.0,0.0,38.2,-12.7,0.0,,0.0,0.0,0.0,10.3,0.9,298.2,0.0,248.0,0.0,0.02,1.0,99.0,-36.0,35.0,0.0,29.85,2733.0,0.0,0.0,39.0,0.0,0.0,0.0,0.0,0.0,0.0,0.0,0.0,0.0,0.0,0.0,0.0,0.0,0.0,0.0,0.0,0.0,0.0,0.0,0.0,0.0,0.0,0.0,0.0,0.0,87.0,0.0,0.0,29.9,0.1,0.0,0.1,5.0,0.0,0.0,11.1,0.0,0.0,-0.3,14.2,11.7,0.0,0.0,0.0,0.0,113.0,94.0,123.0,104.0,114.0,98.0,118.0,101.0,0.0,0.0,-9.0,254.1,0.0,5.0,3.0,4.996,0.0,0.0,0.653,0.878,0.0,87.3,0.0,0.0,0.0,,0.0,95.0,188.6,0.0,0.0,0.0,0.0,235.4,201.2,253.4,219.2,237.2,208.4,244.4,213.8,0.0,0.0,189.14,0.0,242.6,147.6,94.13999999999999,0.001125,0.0,0.0,424.4,True,2026-05-02 00:06:42
28.06,1,9,2026-05-02 00:07:05,37.68875,-121.43688,190.0,0.0,38.2,-12.7,0.0,,0.0,0.0,0.0,10.3,1.0,298.2,0.0,248.0,0.0,0.02,1.0,99.0,-18.0,35.0,0.0,29.85,2733.0,0.0,0.0,39.0,0.0,0.0,0.0,0.0,0.0,0.0,0.0,0.0,0.0,0.0,0.0,0.0,0.0,0.0,0.0,0.0,0.0,0.0,0.0,0.0,0.0,0.0,0.0,0.0,0.0,87.0,0.0,0.0,29.9,0.1,0.0,0.1,5.0,0.0,0.0,11.1,0.0,0.0,-0.3,14.2,11.7,0.0,0.0,0.0,0.0,113.0,94.0,123.0,104.0,114.0,98.0,118.0,101.0,0.0,0.0,-9.0,254.1,0.0,5.0,3.0,4.996,0.0,0.0,0.653,0.874,0.0,87.3,0.0,0.0,0.0,,0.0,95.0,188.6,0.0,0.0,0.0,0.0,235.4,201.2,253.4,219.2,237.2,208.4,244.4,213.8,0.0,0.0,189.14,0.0,242.6,147.6,94.13999999999999,0.0011527777777777777,0.0,0.0,424.4,True,2026-05-02 00:06:42
29.06,1,9,2026-05-02 00:07:06,37.68875,-121.43688,190.0,0.0,38.2,-12.7,0.0,,0.0,0.0,0.0,10.3,1.0,298.2,0.0,247.0,0.0,0.02,1.0,99.0,-1.0,35.0,0.0,29.85,2733.0,0.0,0.0,39.0,0.0,0.0,0.0,0.0,0.0,0.0,0.0,0.0,0.0,0.0,0.0,0.0,0.0,0.0,0.0,0.0,0.0,0.0,0.0,0.0,0.0,0.0,0.0,0.0,0.0,87.0,0.0,0.0,29.9,0.1,0.0,0.1,5.0,0.0,0.0,11.1,0.0,0.0,-0.3,14.2,11.7,0.0,0.0,0.0,0.0,113.0,94.0,123.0,104.0,114.0,99.0,119.0,101.0,0.0,0.0,-9.0,254.1,0.0,5.0,3.0,4.996,0.0,0.0,0.653,0.874,0.0,87.3,0.0,0.0,0.0,,0.0,95.0,188.6,0.0,0.0,0.0,0.0,235.4,201.2,253.4,219.2,237.2,210.2,246.2,213.8,0.0,0.0,189.14,0.0,243.04999999999998,148.04999999999998,94.13999999999999,0.0011805555555555556,0.0,0.0,424.4,True,2026-05-02 00:06:42
30.06,1,9,2026-05-02 00:07:07,37.68875,-121.43688,190.0,0.0,38.2,-12.7,0.0,,0.0,0.0,0.0,10.3,1.0,298.2,0.0,247.0,0.0,0.02,1.0,99.0,-14.0,35.0,0.0,29.85,2732.0,0.0,0.0,39.0,0.0,0.0,0.0,0.0,0.0,0.0,0.0,0.0,0.0,0.0,0.0,0.0,0.0,0.0,0.0,0.0,0.0,0.0,0.0,0.0,0.0,0.0,0.0,0.0,0.0,87.0,0.0,0.0,29.9,0.1,0.0,0.1,5.0,0.0,0.0,11.1,0.0,0.0,-0.3,14.2,11.7,0.0,0.0,0.0,0.0,113.0,94.0,123.0,104.0,113.0,99.0,119.0,101.0,0.0,0.0,-9.0,254.1,0.0,5.0,3.0,4.998,0.0,0.0,0.653,0.874,0.0,87.3,0.0,0.0,0.0,,0.0,95.0,188.6,0.0,0.0,0.0,0.0,235.4,201.2,253.4,219.2,235.4,210.2,246.2,213.8,0.0,0.0,189.14,0.0,242.6,147.6,94.13999999999999,0.0012083333333333334,0.0,0.0,424.4,True,2026-05-02 00:06:42
31.06,1,9,2026-05-02 00:07:08,37.68875,-121.43688,191.0,0.0,38.2,-12.7,0.0,,0.0,0.0,0.0,10.4,1.0,298.3,0.0,247.0,0.1,0.02,1.0,99.0,-21.0,35.0,0.0,29.85,2732.0,0.0,0.0,39.0,0.0,0.0,0.0,0.0,0.0,0.0,0.0,0.0,0.0,0.0,0.0,0.0,0.0,0.0,0.0,0.0,0.0,0.0,0.0,0.0,0.0,0.0,0.0,0.0,0.0,87.0,0.0,0.0,29.9,0.1,0.0,0.1,5.0,0.0,0.0,11.1,0.0,0.0,-0.3,14.2,11.7,0.0,0.0,0.0,0.0,113.0,94.0,123.0,104.0,113.0,99.0,119.0,101.0,0.0,0.0,-9.0,254.1,0.0,5.0,3.0,4.996,0.0,0.0,0.653,0.874,0.0,87.3,0.0,0.0,0.0,,0.0,95.0,188.6,0.0,0.0,0.0,0.0,235.4,201.2,253.4,219.2,235.4,210.2,246.2,213.8,0.0,0.0,189.14,0.0,242.6,147.6,94.13999999999999,0.0012361111111111112,0.0,0.0,424.4,True,2026-05-02 00:06:42
32.06,1,9,2026-05-02 00:07:09,37.68875,-121.43688,191.0,0.0,38.2,-12.7,0.0,,0.0,0.0,0.0,10.4,1.0,298.3,0.0,246.0,0.0,0.02,1.0,99.0,-35.0,35.0,0.0,29.85,2732.0,0.0,0.0,39.0,0.0,0.0,0.0,0.0,0.0,0.0,0.0,0.0,0.0,0.0,0.0,0.0,0.0,0.0,0.0,0.0,0.0,0.0,0.0,0.0,0.0,0.0,0.0,0.0,0.0,87.0,0.0,0.0,29.9,0.1,0.0,0.1,5.0,0.0,0.0,11.1,0.0,0.0,-0.3,14.2,11.7,0.0,0.0,0.0,0.0,113.0,94.0,123.0,104.0,113.0,99.0,118.0,101.0,0.0,0.0,-9.0,254.1,0.0,5.0,3.0,4.996,0.0,0.0,0.653,0.874,0.0,87.3,0.0,0.0,0.0,,0.0,95.0,188.6,0.0,0.0,0.0,0.0,235.4,201.2,253.4,219.2,235.4,210.2,244.4,213.8,0.0,0.0,189.14,0.0,242.15,147.15,94.13999999999999,0.001263888888888889,0.0,0.0,424.4,True,2026-05-02 00:06:42
33.06,1,9,2026-05-02 00:07:10,37.68875,-121.43688,191.0,0.0,38.2,-12.7,0.0,,0.0,0.0,0.0,10.4,1.0,298.3,0.0,245.0,0.0,0.02,1.0,99.0,-28.0,35.0,0.0,29.85,2731.0,0.0,0.0,39.0,0.0,0.0,0.0,0.0,0.0,0.0,0.0,0.0,0.0,0.0,0.0,0.0,0.0,0.0,0.0,0.0,0.0,0.0,0.0,0.0,0.0,0.0,0.0,0.0,0.0,87.0,0.0,0.0,29.9,0.1,0.0,0.1,5.0,0.0,0.0,11.1,0.0,0.0,-0.3,14.2,11.7,0.0,0.0,0.0,0.0,113.0,94.0,123.0,104.0,113.0,99.0,118.0,101.0,0.0,0.0,-9.0,254.1,0.0,5.0,3.0,4.996,0.0,0.0,0.653,0.874,0.0,87.3,0.0,0.0,0.0,,0.0,95.0,188.6,0.0,0.0,0.0,0.0,235.4,201.2,253.4,219.2,235.4,210.2,244.4,213.8,0.0,0.0,189.14,0.0,242.15,147.15,94.13999999999999,0.0012916666666666669,0.0,0.0,424.4,True,2026-05-02 00:06:42
34.06,1,9,2026-05-02 00:07:11,37.68875,-121.43688,192.0,0.0,38.2,-12.7,0.0,,0.0,0.0,0.0,10.4,1.0,298.3,0.0,245.0,-0.0,0.02,1.0,99.0,-26.0,35.0,0.0,29.85,2731.0,0.0,0.0,39.0,0.0,0.0,0.0,0.0,0.0,0.0,0.0,0.0,0.0,0.0,0.0,0.0,0.0,0.0,0.0,0.0,0.0,0.0,0.0,0.0,0.0,0.0,0.0,0.0,0.0,87.0,0.0,0.0,29.9,0.1,0.0,0.1,5.0,0.0,0.0,11.1,0.0,0.0,-0.3,14.2,11.7,0.0,0.0,0.0,0.0,113.0,94.0,123.0,104.0,113.0,99.0,118.0,101.0,0.0,0.0,-9.0,254.1,0.0,5.0,3.0,4.996,0.0,0.0,0.653,0.874,0.0,87.3,0.0,0.0,0.0,,0.0,95.0,188.6,0.0,0.0,0.0,0.0,235.4,201.2,253.4,219.2,235.4,210.2,244.4,213.8,0.0,0.0,189.14,0.0,242.15,147.15,94.13999999999999,0.0013194444444444445,0.0,0.0,424.4,True,2026-05-02 00:06:42
35.06,1,9,2026-05-02 00:07:12,37.68876,-121.43688,191.0,0.0,38.2,-12.7,0.0,,0.0,0.0,0.0,10.4,0.9,298.3,0.0,245.0,-0.0,0.02,1.0,99.0,-25.0,35.0,0.0,29.85,2731.0,0.0,0.0,39.0,0.0,0.0,0.0,0.0,0.0,0.0,0.0,0.0,0.0,0.0,0.0,0.0,0.0,0.0,0.0,0.0,0.0,0.0,0.0,0.0,0.0,0.0,0.0,0.0,0.0,87.0,0.0,0.0,29.9,0.1,0.0,0.1,5.0,0.0,0.0,11.1,0.0,0.0,-0.3,14.2,11.7,0.0,0.0,0.0,0.0,113.0,94.0,123.0,104.0,113.0,99.0,118.0,101.0,0.0,0.0,-9.0,254.1,0.0,5.0,3.0,4.996,0.0,0.0,0.653,0.873,0.0,87.3,0.0,0.0,0.0,,0.0,95.0,188.6,0.0,0.0,0.0,0.0,235.4,201.2,253.4,219.2,235.4,210.2,244.4,213.8,0.0,0.0,189.14,0.0,242.15,147.15,94.13999999999999,0.0013472222222222223,0.0,0.0,424.4,True,2026-05-02 00:06:42
36.06,1,9,2026-05-02 00:07:13,37.68876,-121.43688,191.0,0.0,38.2,-12.7,0.0,,0.0,0.0,0.0,10.4,1.0,298.3,0.0,244.0,-0.0,0.02,1.0,99.0,-27.0,35.0,0.0,29.85,2729.0,0.0,0.0,39.0,0.0,0.0,0.0,0.0,0.0,0.0,0.0,0.0,0.0,0.0,0.0,0.0,0.0,0.0,0.0,0.0,0.0,0.0,0.0,0.0,0.0,0.0,0.0,0.0,0.0,87.0,0.0,0.0,29.9,0.2,0.0,0.2,5.0,0.0,0.0,11.1,0.0,0.0,-0.3,14.2,11.7,0.0,0.0,0.0,0.0,113.0,94.0,123.0,104.0,113.0,99.0,118.0,101.0,0.0,0.0,-9.0,254.1,0.0,5.0,3.0,4.996,0.0,0.0,0.653,0.874,0.0,87.3,0.0,0.0,0.0,,0.0,95.0,188.6,0.0,0.0,0.0,0.0,235.4,201.2,253.4,219.2,235.4,210.2,244.4,213.8,0.0,0.0,189.14,0.0,242.15,147.15,94.13999999999999,0.001388888888888889,0.0,0.0,424.4,True,2026-05-02 00:06:42
37.06,1,9,2026-05-02 00:07:14,37.68876,-121.43688,191.0,0.0,38.2,-12.7,0.0,,0.0,0.0,0.0,10.4,0.9,298.3,0.0,244.0,0.0,0.02,1.0,99.0,-34.0,35.0,0.0,29.85,2729.0,0.0,0.0,39.0,0.0,0.0,0.0,0.0,0.0,0.0,0.0,0.0,0.0,0.0,0.0,0.0,0.0,0.0,0.0,0.0,0.0,0.0,0.0,0.0,0.0,0.0,0.0,0.0,0.0,87.0,0.0,0.0,29.9,0.2,0.0,0.2,5.0,0.0,0.0,11.1,0.0,0.0,-0.3,14.2,11.7,0.0,0.0,0.0,0.0,113.0,94.0,123.0,104.0,113.0,99.0,118.0,101.0,0.0,0.0,-9.0,254.1,0.0,5.0,3.0,4.996,0.0,0.0,0.653,0.873,0.0,87.3,0.0,0.0,0.0,,0.0,95.0,188.6,0.0,0.0,0.0,0.0,235.4,201.2,253.4,219.2,235.4,210.2,244.4,213.8,0.0,0.0,189.14,0.0,242.15,147.15,94.13999999999999,0.0014444444444444446,0.0,0.0,424.4,True,2026-05-02 00:06:42
38.06,1,9,2026-05-02 00:07:15,37.68876,-121.43688,191.0,0.0,38.2,-12.7,0.0,,0.0,0.0,0.0,10.4,0.9,298.3,0.0,244.0,0.0,0.02,1.0,99.0,-38.0,35.0,0.0,29.85,2729.0,0.0,0.0,39.0,0.0,0.0,0.0,0.0,0.0,0.0,0.0,0.0,0.0,0.0,0.0,0.0,0.0,0.0,0.0,0.0,0.0,0.0,0.0,0.0,0.0,0.0,0.0,0.0,0.0,87.0,0.0,0.0,29.9,0.2,0.0,0.2,5.0,0.0,0.0,11.1,0.0,0.0,-0.3,14.2,11.7,0.0,0.0,0.0,0.0,112.0,94.0,122.0,104.0,113.0,99.0,118.0,101.0,0.0,0.0,-9.0,254.1,0.0,5.0,3.0,4.998,0.0,0.0,0.654,0.874,0.0,87.3,0.0,0.0,0.0,,0.0,95.0,188.6,0.0,0.0,0.0,0.0,233.6,201.2,251.6,219.2,235.4,210.2,244.4,213.8,0.0,0.0,189.14,0.0,241.25,146.25,94.13999999999999,0.0015,0.0,0.0,424.4,True,2026-05-02 00:06:42
39.06,1,9,2026-05-02 00:07:16,37.68876,-121.43688,191.0,0.0,38.2,-12.7,0.0,,0.0,0.0,0.0,10.4,1.0,298.3,0.0,242.0,0.0,0.02,1.0,99.0,-38.0,36.0,0.0,29.85,2729.0,0.0,0.0,39.0,0.0,0.0,0.0,0.0,0.0,0.0,0.0,0.0,0.0,0.0,0.0,0.0,0.0,0.0,0.0,0.0,0.0,0.0,0.0,0.0,0.0,0.0,0.0,0.0,0.0,87.0,0.0,0.0,29.9,0.2,0.0,0.2,5.0,0.0,0.0,11.1,0.0,0.0,-0.3,14.2,11.7,0.0,0.0,0.0,0.0,112.0,94.0,122.0,104.0,113.0,99.0,118.0,101.0,0.0,0.0,-9.0,254.1,0.0,5.0,3.0,4.996,0.0,0.0,0.653,0.874,0.0,87.3,0.0,0.0,0.0,,0.0,96.8,188.6,0.0,0.0,0.0,0.0,233.6,201.2,251.6,219.2,235.4,210.2,244.4,213.8,0.0,0.0,189.14,0.0,241.25,144.45,92.33999999999999,0.0015555555555555557,0.0,0.0,424.4,True,2026-05-02 00:06:42
40.06,1,9,2026-05-02 00:07:17,37.68876,-121.43687,192.0,0.0,38.2,-12.7,0.0,,0.0,0.0,0.0,10.4,0.9,298.3,0.0,240.0,0.0,0.02,1.0,99.0,-57.0,35.0,0.0,29.85,2729.0,0.0,0.0,39.0,0.0,0.0,0.0,0.0,0.0,0.0,0.0,0.0,0.0,0.0,0.0,0.0,0.0,0.0,0.0,0.0,0.0,0.0,0.0,0.0,0.0,0.0,0.0,0.0,0.0,87.0,0.0,0.0,29.9,0.2,0.0,0.2,5.0,0.0,0.0,11.1,0.0,0.0,-0.3,14.2,11.7,0.0,0.0,0.0,0.0,112.0,94.0,122.0,104.0,113.0,99.0,118.0,101.0,0.0,0.0,-9.0,231.6,0.0,5.0,3.0,4.996,0.0,0.0,0.653,0.873,0.0,87.3,0.0,0.0,0.0,,0.0,95.0,188.6,0.0,0.0,0.0,0.0,233.6,201.2,251.6,219.2,235.4,210.2,244.4,213.8,0.0,0.0,189.14,0.0,241.25,146.25,94.13999999999999,0.0016111111111111113,0.0,0.0,424.4,True,2026-05-02 00:06:42
41.06,1,9,2026-05-02 00:07:18,37.68876,-121.43687,192.0,0.0,38.2,-12.7,0.0,,0.0,0.0,0.0,10.4,1.0,298.4,0.0,240.0,0.0,0.02,1.0,99.0,-66.0,36.0,0.0,29.85,2729.0,0.0,0.0,39.0,0.0,0.0,0.0,0.0,0.0,0.0,0.0,0.0,0.0,0.0,0.0,0.0,0.0,0.0,0.0,0.0,0.0,0.0,0.0,0.0,0.0,0.0,0.0,0.0,0.0,87.0,0.0,0.0,29.9,0.2,0.0,0.2,5.0,0.0,0.0,11.1,0.0,0.0,-0.3,14.2,11.7,0.0,0.0,0.0,0.0,112.0,94.0,122.0,104.0,113.0,99.0,118.0,101.0,0.0,0.0,-9.0,180.3,0.0,5.0,3.0,4.996,0.0,0.0,0.653,0.874,0.0,87.3,0.0,0.0,0.0,,0.0,96.8,188.6,0.0,0.0,0.0,0.0,233.6,201.2,251.6,219.2,235.4,210.2,244.4,213.8,0.0,0.0,189.14,0.0,241.25,144.45,92.33999999999999,0.0016666666666666668,0.0,0.0,424.4,True,2026-05-02 00:06:42
42.06,1,9,2026-05-02 00:07:19,37.68876,-121.43687,192.0,0.0,38.2,-12.7,0.0,,0.0,0.0,0.0,10.4,1.0,298.4,0.0,240.0,0.0,0.02,1.0,99.0,-35.0,36.0,0.0,29.85,2732.0,0.0,0.0,39.0,0.0,0.0,0.0,0.0,0.0,0.0,0.0,0.0,0.0,0.0,0.0,0.0,0.0,0.0,0.0,0.0,0.0,0.0,0.0,0.0,0.0,0.0,0.0,0.0,0.0,87.0,0.0,0.0,29.9,0.2,0.0,0.2,5.0,0.0,0.0,11.1,0.0,0.0,-0.3,14.2,11.7,0.0,0.0,0.0,0.0,112.0,94.0,122.0,104.0,113.0,99.0,118.0,101.0,0.0,0.0,-9.0,140.3,0.0,5.0,3.0,4.996,0.0,0.0,0.653,0.874,0.0,87.3,0.0,0.0,0.0,,0.0,96.8,188.6,0.0,0.0,0.0,0.0,233.6,201.2,251.6,219.2,235.4,210.2,244.4,213.8,0.0,0.0,189.14,0.0,241.25,144.45,92.33999999999999,0.0017222222222222224,0.0,0.0,424.4,True,2026-05-02 00:06:42
43.06,1,9,2026-05-02 00:07:20,37.68876,-121.43687,192.0,0.0,38.2,-12.7,0.0,,0.0,0.0,0.0,10.3,1.0,298.4,0.0,239.0,0.0,0.02,1.0,99.0,-62.0,36.0,0.0,29.85,2732.0,0.0,0.0,39.0,0.0,0.0,0.0,0.0,0.0,0.0,0.0,0.0,0.0,0.0,0.0,0.0,0.0,0.0,0.0,0.0,0.0,0.0,0.0,0.0,0.0,0.0,0.0,0.0,0.0,87.0,0.0,0.0,29.9,0.2,0.0,0.2,5.0,0.0,0.0,11.1,0.0,0.0,-0.3,14.2,11.7,0.0,0.0,0.0,0.0,112.0,94.0,122.0,104.0,113.0,99.0,118.0,100.0,0.0,0.0,-9.0,109.3,0.0,5.0,3.0,4.996,0.0,0.0,0.653,0.874,0.0,87.3,0.0,0.0,0.0,,0.0,96.8,188.6,0.0,0.0,0.0,0.0,233.6,201.2,251.6,219.2,235.4,210.2,244.4,212.0,0.0,0.0,189.14,0.0,241.25,144.45,92.33999999999999,0.0017777777777777779,0.0,0.0,424.4,True,2026-05-02 00:06:42
44.06,1,9,2026-05-02 00:07:21,37.68876,-121.43687,192.0,0.0,38.2,-12.7,0.0,,0.0,0.0,0.0,10.3,1.0,298.4,0.0,236.0,0.0,0.02,1.0,99.0,-88.0,36.0,0.0,29.85,2728.0,0.0,0.0,39.0,0.0,0.0,0.0,0.0,0.0,0.0,0.0,0.0,0.0,0.0,0.0,0.0,0.0,0.0,0.0,0.0,0.0,0.0,0.0,0.0,0.0,0.0,0.0,0.0,0.0,87.0,0.0,0.0,29.9,0.2,0.0,0.2,5.0,0.0,0.0,11.1,0.0,0.0,-0.3,14.2,11.7,0.0,0.0,0.0,0.0,112.0,94.0,122.0,103.0,113.0,99.0,118.0,100.0,0.0,0.0,-9.0,85.2,0.0,5.0,3.0,4.996,0.0,0.0,0.653,0.873,0.0,87.3,0.0,0.0,0.0,,0.0,96.8,188.6,0.0,0.0,0.0,0.0,233.6,201.2,251.6,217.4,235.4,210.2,244.4,212.0,0.0,0.0,189.14,0.0,241.25,144.45,92.33999999999999,0.0018333333333333335,0.0,0.0,424.4,True,2026-05-02 00:06:42
45.06,1,9,2026-05-02 00:07:22,37.68876,-121.43687,192.0,0.0,38.2,-12.7,0.0,,0.0,0.0,0.0,10.3,1.0,298.4,0.0,236.0,0.0,0.02,1.0,99.0,-31.0,36.0,0.0,29.85,2728.0,0.0,0.0,39.0,0.0,0.0,0.0,0.0,0.0,0.0,0.0,0.0,0.0,0.0,0.0,0.0,0.0,0.0,0.0,0.0,0.0,0.0,0.0,0.0,0.0,0.0,0.0,0.0,0.0,87.0,0.0,0.0,29.9,0.2,0.0,0.2,5.0,0.0,0.0,11.1,0.0,0.0,-0.3,14.2,11.7,0.0,0.0,0.0,0.0,112.0,94.0,122.0,104.0,113.0,99.0,118.0,101.0,0.0,0.0,-9.0,66.4,0.0,5.0,3.0,4.996,0.0,0.0,0.653,0.874,0.0,87.3,0.0,0.0,0.0,,0.0,96.8,188.6,0.0,0.0,0.0,0.0,233.6,201.2,251.6,219.2,235.4,210.2,244.4,213.8,0.0,0.0,189.14,0.0,241.25,144.45,92.33999999999999,0.001888888888888889,0.0,0.0,424.4,True,2026-05-02 00:06:42
46.06,1,9,2026-05-02 00:07:23,37.68875,-121.43687,192.0,0.0,38.2,-12.7,0.0,,0.0,0.0,0.0,10.3,1.0,298.4,0.0,236.0,0.0,0.02,1.0,99.0,-51.0,36.0,0.0,29.85,2728.0,0.0,0.0,39.0,0.0,0.0,0.0,0.0,0.0,0.0,0.0,0.0,0.0,0.0,0.0,0.0,0.0,0.0,0.0,0.0,0.0,0.0,0.0,0.0,0.0,0.0,0.0,0.0,0.0,87.0,0.0,0.0,29.9,0.2,0.0,0.2,5.0,0.0,0.0,11.1,0.0,0.0,-0.3,14.2,11.7,0.0,0.0,0.0,0.0,112.0,94.0,122.0,104.0,113.0,99.0,118.0,101.0,0.0,0.0,-9.0,51.8,0.0,5.0,3.0,4.996,0.0,0.0,0.653,0.874,0.0,87.3,0.0,0.0,0.0,,0.0,96.8,188.6,0.0,0.0,0.0,0.0,233.6,201.2,251.6,219.2,235.4,210.2,244.4,213.8,0.0,0.0,189.14,0.0,241.25,144.45,92.33999999999999,0.0019444444444444446,0.0,0.0,424.4,True,2026-05-02 00:06:42
47.06,1,9,2026-05-02 00:07:24,37.68875,-121.43687,191.0,0.0,38.2,-12.7,0.0,,0.0,0.0,0.0,10.3,1.0,298.5,0.0,235.0,0.0,0.02,1.0,99.0,-40.0,36.0,0.0,29.85,2728.0,0.0,0.0,39.0,0.0,0.0,0.0,0.0,0.0,0.0,0.0,0.0,0.0,0.0,0.0,0.0,0.0,0.0,0.0,0.0,0.0,0.0,0.0,0.0,0.0,0.0,0.0,0.0,0.0,87.0,0.0,0.0,29.9,0.2,0.0,0.2,5.0,0.0,0.0,11.1,0.0,0.0,-0.3,14.2,11.7,0.0,0.0,0.0,0.0,112.0,94.0,122.0,104.0,113.0,99.0,118.0,101.0,0.0,0.0,-9.0,40.5,0.0,5.0,3.0,4.996,0.0,0.0,0.654,0.874,0.0,87.3,0.0,0.0,0.0,,0.0,96.8,188.6,0.0,0.0,0.0,0.0,233.6,201.2,251.6,219.2,235.4,210.2,244.4,213.8,0.0,0.0,189.14,0.0,241.25,144.45,92.33999999999999,0.002,0.0,0.0,424.4,True,2026-05-02 00:06:42
48.06,1,9,2026-05-02 00:07:25,37.68875,-121.43687,191.0,0.0,38.2,-12.7,0.0,,0.0,0.0,0.0,10.4,1.0,298.5,0.0,234.0,0.0,0.02,1.0,99.0,-71.0,36.0,0.0,29.85,2728.0,0.0,0.0,39.0,0.0,0.0,0.0,0.0,0.0,0.0,0.0,0.0,0.0,0.0,0.0,0.0,0.0,0.0,0.0,0.0,0.0,0.0,0.0,0.0,0.0,0.0,0.0,0.0,0.0,87.0,0.0,0.0,29.9,0.2,0.0,0.2,5.0,0.0,0.0,11.1,0.0,0.0,-0.3,14.2,11.7,0.0,0.0,0.0,0.0,112.0,94.0,122.0,104.0,113.0,99.0,118.0,101.0,0.0,0.0,-9.0,31.7,0.0,5.0,3.0,4.996,0.0,0.0,0.653,0.874,0.0,87.3,0.0,0.0,0.0,,0.0,96.8,188.6,0.0,0.0,0.0,0.0,233.6,201.2,251.6,219.2,235.4,210.2,244.4,213.8,0.0,0.0,189.14,0.0,241.25,144.45,92.33999999999999,0.0020555555555555557,0.0,0.0,424.4,True,2026-05-02 00:06:42
49.06,1,9,2026-05-02 00:07:26,37.68875,-121.43687,191.0,0.0,38.2,-12.7,0.0,,0.0,0.0,0.0,10.4,1.1,298.5,0.0,232.0,0.0,0.02,1.0,99.0,-79.0,36.0,0.0,29.85,2728.0,0.0,0.0,39.0,0.0,0.0,0.0,0.0,0.0,0.0,0.0,0.0,0.0,0.0,0.0,0.0,0.0,0.0,0.0,0.0,0.0,0.0,0.0,0.0,0.0,0.0,0.0,0.0,0.0,87.0,0.0,0.0,29.9,0.2,0.0,0.2,5.0,0.0,0.0,11.1,0.0,0.0,-0.3,14.2,11.7,0.0,0.0,0.0,0.0,112.0,94.0,122.0,104.0,113.0,99.0,118.0,101.0,0.0,0.0,-9.0,24.8,0.0,5.0,3.0,4.996,0.0,0.0,0.653,0.875,0.0,87.3,0.0,0.0,0.0,,0.0,96.8,188.6,0.0,0.0,0.0,0.0,233.6,201.2,251.6,219.2,235.4,210.2,244.4,213.8,0.0,0.0,189.14,0.0,241.25,144.45,92.33999999999999,0.0021111111111111113,0.0,0.0,424.4,True,2026-05-02 00:06:42
50.06,1,9,2026-05-02 00:07:27,37.68875,-121.43687,191.0,0.0,38.2,-12.7,0.0,,0.0,0.0,0.0,10.4,1.1,298.6,0.0,231.0,0.0,0.02,1.0,99.0,-60.0,36.0,0.0,29.85,2724.0,0.0,0.0,39.0,0.0,0.0,0.0,0.0,0.0,0.0,0.0,0.0,0.0,0.0,0.0,0.0,0.0,0.0,0.0,0.0,0.0,0.0,0.0,0.0,0.0,0.0,0.0,0.0,0.0,87.0,0.0,0.0,29.9,0.2,0.0,0.2,5.0,0.0,0.0,11.1,0.0,0.0,-0.3,14.2,11.7,0.0,0.0,0.0,0.0,112.0,94.0,122.0,104.0,113.0,99.0,118.0,101.0,0.0,0.0,-9.0,19.5,0.0,5.0,3.0,4.996,0.0,0.0,0.653,0.876,0.0,87.3,0.0,0.0,0.0,,0.0,96.8,188.6,0.0,0.0,0.0,0.0,233.6,201.2,251.6,219.2,235.4,210.2,244.4,213.8,0.0,0.0,189.14,0.0,241.25,144.45,92.33999999999999,0.002166666666666667,0.0,0.0,424.4,True,2026-05-02 00:06:42
51.06,1,9,2026-05-02 00:07:28,37.68875,-121.43687,191.0,0.0,38.2,-12.7,0.0,,0.0,0.0,0.0,10.4,1.1,298.5,0.0,231.0,0.0,0.02,1.0,99.0,-28.0,36.0,0.0,29.85,2724.0,0.0,0.0,39.0,0.0,0.0,0.0,0.0,0.0,0.0,0.0,0.0,0.0,0.0,0.0,0.0,0.0,0.0,0.0,0.0,0.0,0.0,0.0,0.0,0.0,0.0,0.0,0.0,0.0,87.0,0.0,0.0,29.9,0.2,0.0,0.2,5.0,0.0,0.0,11.1,0.0,0.0,-0.3,14.2,11.7,0.0,0.0,0.0,0.0,112.0,94.0,122.0,104.0,112.0,99.0,118.0,101.0,0.0,0.0,-9.0,15.4,0.0,5.0,3.0,4.996,0.0,0.0,0.653,0.876,0.0,87.3,0.0,0.0,0.0,,0.0,96.8,188.6,0.0,0.0,0.0,0.0,233.6,201.2,251.6,219.2,233.6,210.2,244.4,213.8,0.0,0.0,189.14,0.0,240.8,144.0,92.33999999999999,0.0022222222222222222,0.0,0.0,424.4,True,2026-05-02 00:06:42
52.06,1,9,2026-05-02 00:07:29,37.68875,-121.43687,191.0,0.0,38.2,-12.7,0.0,,0.0,0.0,0.0,10.4,1.1,298.6,0.0,230.0,0.0,0.02,1.0,99.0,-25.0,36.0,0.0,29.85,2724.0,0.0,0.0,39.0,0.0,0.0,0.0,0.0,0.0,0.0,0.0,0.0,0.0,0.0,0.0,0.0,0.0,0.0,0.0,0.0,0.0,0.0,0.0,0.0,0.0,0.0,0.0,0.0,0.0,87.0,0.0,0.0,29.9,0.2,0.0,0.2,5.0,0.0,0.0,11.1,0.0,0.0,-0.3,14.2,11.7,0.0,0.0,0.0,0.0,112.0,94.0,122.0,104.0,112.0,99.0,118.0,101.0,0.0,0.0,-9.0,12.2,0.0,5.0,3.0,4.996,0.0,0.0,0.653,0.879,0.0,87.3,0.0,0.0,0.0,,0.0,96.8,188.6,0.0,0.0,0.0,0.0,233.6,201.2,251.6,219.2,233.6,210.2,244.4,213.8,0.0,0.0,189.14,0.0,240.8,144.0,92.33999999999999,0.002277777777777778,0.0,0.0,424.4,True,2026-05-02 00:06:42
53.06,1,9,2026-05-02 00:07:30,37.68875,-121.43687,191.0,0.0,38.2,-12.7,0.0,,0.0,0.0,0.0,10.3,1.1,298.6,0.0,230.0,0.0,0.02,1.0,99.0,-53.0,36.0,0.0,29.85,2725.0,0.0,0.0,39.0,0.0,0.0,0.0,0.0,0.0,0.0,0.0,0.0,0.0,0.0,0.0,0.0,0.0,0.0,0.0,0.0,0.0,0.0,0.0,0.0,0.0,0.0,0.0,0.0,0.0,87.0,0.0,0.0,29.9,0.2,0.0,0.2,5.0,0.0,0.0,11.1,0.0,0.0,-0.3,14.2,11.7,0.0,0.0,0.0,0.0,112.0,94.0,122.0,104.0,112.0,99.0,118.0,101.0,0.0,0.0,-9.0,9.7,0.0,5.0,3.0,4.996,0.0,0.0,0.653,0.879,0.0,87.3,0.0,0.0,0.0,,0.0,96.8,188.6,0.0,0.0,0.0,0.0,233.6,201.2,251.6,219.2,233.6,210.2,244.4,213.8,0.0,0.0,189.14,0.0,240.8,144.0,92.33999999999999,0.0023333333333333335,0.0,0.0,424.4,True,2026-05-02 00:06:42
54.06,1,9,2026-05-02 00:07:31,37.68875,-121.43687,191.0,0.0,38.2,-12.7,0.0,,0.0,0.0,0.0,10.4,1.1,298.6,0.0,230.0,-0.0,0.02,1.0,99.0,-12.0,36.0,0.0,29.85,2725.0,0.0,0.0,39.0,0.0,0.0,0.0,0.0,0.0,0.0,0.0,0.0,0.0,0.0,0.0,0.0,0.0,0.0,0.0,0.0,0.0,0.0,0.0,0.0,0.0,0.0,0.0,0.0,0.0,87.0,0.0,0.0,29.9,0.2,0.0,0.2,5.0,0.0,0.0,11.1,0.0,0.0,-0.3,14.2,11.7,0.0,0.0,0.0,0.0,112.0,94.0,122.0,104.0,112.0,99.0,118.0,101.0,0.0,0.0,-9.0,7.7,0.0,5.0,3.0,4.996,0.0,0.0,0.653,0.879,0.0,87.3,0.0,0.0,0.0,,0.0,96.8,188.6,0.0,0.0,0.0,0.0,233.6,201.2,251.6,219.2,233.6,210.2,244.4,213.8,0.0,0.0,189.14,0.0,240.8,144.0,92.33999999999999,0.002388888888888889,0.0,0.0,424.4,True,2026-05-02 00:06:42
55.06,1,9,2026-05-02 00:07:32,37.68875,-121.43687,191.0,0.0,38.2,-12.7,0.0,,0.0,0.0,0.0,10.4,1.1,298.6,0.0,230.0,0.0,0.02,1.0,99.0,-12.0,36.0,0.0,29.85,2725.0,0.0,0.0,39.0,0.0,0.0,0.0,0.0,0.0,0.0,0.0,0.0,0.0,0.0,0.0,0.0,0.0,0.0,0.0,0.0,0.0,0.0,0.0,0.0,0.0,0.0,0.0,0.0,0.0,87.0,0.0,0.0,29.9,0.2,0.0,0.2,5.0,0.0,0.0,11.1,0.0,0.0,-0.3,14.2,11.7,0.0,0.0,0.0,0.0,112.0,94.0,122.0,104.0,112.0,99.0,118.0,101.0,0.0,0.0,-9.0,6.2,0.0,5.0,3.0,4.996,0.0,0.0,0.653,0.879,0.0,87.3,0.0,0.0,0.0,,0.0,96.8,188.6,0.0,0.0,0.0,0.0,233.6,201.2,251.6,219.2,233.6,210.2,244.4,213.8,0.0,0.0,189.14,0.0,240.8,144.0,92.33999999999999,0.0024444444444444444,0.0,0.0,424.4,True,2026-05-02 00:06:42
56.06,1,9,2026-05-02 00:07:33,37.68875,-121.43687,191.0,0.0,38.2,-12.7,0.0,,0.0,0.0,0.0,10.3,1.1,298.6,0.0,230.0,0.0,0.02,1.0,99.0,-18.0,36.0,0.0,29.85,2732.0,0.0,0.0,39.0,0.0,0.0,0.0,0.0,0.0,0.0,0.0,0.0,0.0,0.0,0.0,0.0,0.0,0.0,0.0,0.0,0.0,0.0,0.0,0.0,0.0,0.0,0.0,0.0,0.0,87.0,0.0,0.0,29.9,0.2,0.0,0.2,5.0,0.0,0.0,11.1,0.0,0.0,-0.3,14.2,11.7,0.0,0.0,0.0,0.0,112.0,94.0,122.0,104.0,112.0,99.0,118.0,101.0,0.0,0.0,-9.0,5.1,0.0,5.0,3.0,4.996,0.0,0.0,0.653,0.879,0.0,87.3,0.0,0.0,0.0,,0.0,96.8,188.6,0.0,0.0,0.0,0.0,233.6,201.2,251.6,219.2,233.6,210.2,244.4,213.8,0.0,0.0,189.14,0.0,240.8,144.0,92.33999999999999,0.0025,0.0,0.0,424.4,True,2026-05-02 00:06:42
57.06,1,9,2026-05-02 00:07:34,37.68875,-121.43687,191.0,0.0,38.2,-12.7,0.0,,0.0,0.0,0.0,10.3,1.1,298.5,0.0,230.0,-0.0,0.02,1.0,99.0,-7.0,36.0,0.0,29.85,2732.0,0.0,0.0,39.0,0.0,0.0,0.0,0.0,0.0,0.0,0.0,0.0,0.0,0.0,0.0,0.0,0.0,0.0,0.0,0.0,0.0,0.0,0.0,0.0,0.0,0.0,0.0,0.0,0.0,87.0,0.0,0.0,29.9,0.2,0.0,0.2,5.0,0.0,0.0,11.1,0.0,0.0,-0.3,14.2,11.7,0.0,0.0,0.0,0.0,112.0,94.0,122.0,104.0,112.0,99.0,118.0,100.0,0.0,0.0,-9.0,4.1,0.0,5.0,3.0,4.996,0.0,0.0,0.653,0.884,0.0,87.3,0.0,0.0,0.0,,0.0,96.8,188.6,0.0,0.0,0.0,0.0,233.6,201.2,251.6,219.2,233.6,210.2,244.4,212.0,0.0,0.0,189.14,0.0,240.8,144.0,92.33999999999999,0.0025555555555555557,0.0,0.0,424.4,True,2026-05-02 00:06:42
58.06,1,9,2026-05-02 00:07:35,37.68875,-121.43687,191.0,0.0,38.2,-12.7,0.0,,0.0,0.0,0.0,10.3,1.0,298.5,0.0,230.0,-0.0,0.02,1.0,99.0,-10.0,36.0,0.0,29.85,2732.0,0.0,0.0,39.0,0.0,0.0,0.0,0.0,0.0,0.0,0.0,0.0,0.0,0.0,0.0,0.0,0.0,0.0,0.0,0.0,0.0,0.0,0.0,0.0,0.0,0.0,0.0,0.0,0.0,87.0,0.0,0.0,29.9,0.2,0.0,0.2,5.0,0.0,0.0,11.1,0.0,0.0,-0.3,14.2,11.7,0.0,0.0,0.0,0.0,112.0,94.0,122.0,104.0,112.0,99.0,118.0,100.0,0.0,0.0,-9.0,3.4,0.0,5.0,3.0,4.996,0.0,0.0,0.653,0.885,0.0,87.3,0.0,0.0,0.0,,0.0,96.8,188.6,0.0,0.0,0.0,0.0,233.6,201.2,251.6,219.2,233.6,210.2,244.4,212.0,0.0,0.0,189.14,0.0,240.8,144.0,92.33999999999999,0.0026111111111111114,0.0,0.0,424.4,True,2026-05-02 00:06:42
59.06,1,9,2026-05-02 00:07:36,37.68875,-121.43687,190.0,0.0,38.2,-12.7,0.0,,0.0,0.0,0.0,10.3,1.0,298.5,0.0,230.0,0.0,0.02,1.0,99.0,-5.0,36.0,0.0,29.85,2734.0,0.0,0.0,39.0,0.0,0.0,0.0,0.0,0.0,0.0,0.0,0.0,0.0,0.0,0.0,0.0,0.0,0.0,0.0,0.0,0.0,0.0,0.0,0.0,0.0,0.0,0.0,0.0,0.0,87.0,0.0,0.0,29.9,0.2,0.0,0.2,5.0,0.0,0.0,11.1,0.0,0.0,-0.3,14.2,11.7,0.0,0.0,0.0,0.0,112.0,95.0,122.0,103.0,112.0,99.0,118.0,100.0,0.0,0.0,-9.0,2.9,0.0,5.0,3.0,4.996,0.0,0.0,0.653,0.887,0.0,87.3,0.0,0.0,0.0,,0.0,96.8,188.6,0.0,0.0,0.0,0.0,233.6,203.0,251.6,217.4,233.6,210.2,244.4,212.0,0.0,0.0,189.14,0.0,240.8,144.0,92.33999999999999,0.002666666666666667,0.0,0.0,424.4,True,2026-05-02 00:06:42
60.06,1,9,2026-05-02 00:07:37,37.68875,-121.43687,190.0,0.0,38.2,-12.7,0.0,,0.0,0.0,0.0,10.3,1.0,298.5,0.0,230.0,0.0,0.02,1.0,99.0,2.0,36.0,0.0,29.85,2734.0,0.0,0.0,39.0,0.0,0.0,0.0,0.0,0.0,0.0,0.0,0.0,0.0,0.0,0.0,0.0,0.0,0.0,0.0,0.0,0.0,0.0,0.0,0.0,0.0,0.0,0.0,0.0,0.0,87.0,0.0,0.0,29.9,0.2,0.0,0.2,5.1,0.0,0.0,11.1,0.0,0.0,-0.3,14.2,11.7,0.0,0.0,0.0,0.0,112.0,95.0,122.0,103.0,112.0,99.0,118.0,100.0,0.0,0.0,-9.0,2.5,0.0,5.1,3.0,4.996,0.0,0.0,0.653,0.891,0.0,87.3,0.0,0.0,0.0,,0.0,96.8,188.6,0.0,0.0,0.0,0.0,233.6,203.0,251.6,217.4,233.6,210.2,244.4,212.0,0.0,0.0,189.14,0.0,240.8,144.0,92.33999999999999,0.0027222222222222222,0.0,0.0,424.4,True,2026-05-02 00:06:42
61.06,1,9,2026-05-02 00:07:38,37.68875,-121.43687,190.0,0.0,38.2,-12.7,0.0,,0.0,0.0,0.0,10.3,1.1,298.5,0.0,230.0,0.0,0.02,1.0,99.0,25.0,36.0,0.0,29.85,2734.0,0.0,0.0,39.0,0.0,0.0,0.0,0.0,0.0,0.0,0.0,0.0,0.0,0.0,0.0,0.0,0.0,0.0,0.0,0.0,0.0,0.0,0.0,0.0,0.0,0.0,0.0,0.0,0.0,87.0,0.0,0.0,29.9,0.2,0.0,0.2,5.1,0.0,0.0,11.1,0.0,0.0,-0.3,14.2,11.7,0.0,0.0,0.0,0.0,111.0,95.0,122.0,103.0,112.0,99.0,117.0,100.0,0.0,0.0,-9.0,2.1,0.0,5.1,3.0,4.996,0.0,0.0,0.653,0.894,0.0,87.3,0.0,0.0,0.0,,0.0,96.8,188.6,0.0,0.0,0.0,0.0,231.8,203.0,251.6,217.4,233.6,210.2,242.6,212.0,0.0,0.0,189.14,0.0,239.89999999999998,143.09999999999997,92.33999999999999,0.002777777777777778,0.0,0.0,424.4,True,2026-05-02 00:06:42
62.06,1,9,2026-05-02 00:07:39,37.68875,-121.43687,190.0,0.0,38.2,-12.7,0.0,,0.0,0.0,0.0,10.3,1.1,298.5,0.0,230.0,0.0,0.02,1.0,99.0,17.0,36.0,0.0,29.85,2734.0,0.0,0.0,39.0,0.0,0.0,0.0,0.0,0.0,0.0,0.0,0.0,0.0,0.0,0.0,0.0,0.0,0.0,0.0,0.0,0.0,0.0,0.0,0.0,0.0,0.0,0.0,0.0,0.0,87.0,0.0,0.0,29.9,0.2,0.0,0.2,5.1,0.0,0.0,11.1,0.0,0.0,-0.3,14.2,11.7,0.0,0.0,0.0,0.0,111.0,95.0,122.0,103.0,112.0,99.0,117.0,100.0,0.0,0.0,-9.0,1.9,0.0,5.1,3.0,4.996,0.0,0.0,0.653,0.9,0.0,87.3,0.0,0.0,0.0,,0.0,96.8,188.6,0.0,0.0,0.0,0.0,231.8,203.0,251.6,217.4,233.6,210.2,242.6,212.0,0.0,0.0,189.14,0.0,239.89999999999998,143.09999999999997,92.33999999999999,0.0028333333333333335,0.0,0.0,424.4,True,2026-05-02 00:06:42
63.06,1,9,2026-05-02 00:07:40,37.68875,-121.43687,191.0,0.0,38.2,-12.7,0.0,,0.0,0.0,0.0,10.4,1.1,298.6,0.0,230.0,0.0,0.02,1.0,99.0,28.0,36.0,0.0,29.85,2734.0,0.0,0.0,39.0,0.0,0.0,0.0,0.0,0.0,0.0,0.0,0.0,0.0,0.0,0.0,0.0,0.0,0.0,0.0,0.0,0.0,0.0,0.0,0.0,0.0,0.0,0.0,0.0,0.0,87.0,0.0,0.0,29.9,0.2,0.0,0.2,5.1,0.0,0.0,11.1,0.0,0.0,-0.3,14.2,11.7,0.0,0.0,0.0,0.0,111.0,95.0,122.0,103.0,112.0,99.0,117.0,100.0,0.0,0.0,-9.0,1.7,0.0,5.1,3.0,4.996,0.0,0.0,0.653,0.924,0.0,87.3,0.0,0.0,0.0,,0.0,96.8,188.6,0.0,0.0,0.0,0.0,231.8,203.0,251.6,217.4,233.6,210.2,242.6,212.0,0.0,0.0,189.14,0.0,239.89999999999998,143.09999999999997,92.33999999999999,0.002888888888888889,0.0,0.0,424.4,True,2026-05-02 00:06:42
64.06,1,9,2026-05-02 00:07:41,37.68875,-121.43687,191.0,0.0,38.2,-12.7,0.0,,0.0,0.0,0.0,10.4,1.0,298.6,0.0,230.0,0.1,0.02,1.0,99.0,45.0,36.0,0.0,29.85,2734.0,0.0,0.0,39.0,0.0,0.0,0.0,0.0,0.0,0.0,0.0,0.0,0.0,0.0,0.0,0.0,0.0,0.0,0.0,0.0,0.0,0.0,0.0,0.0,0.0,0.0,0.0,0.0,0.0,87.0,0.0,0.0,29.9,0.2,0.0,0.2,5.1,0.0,0.0,11.1,0.0,0.0,-0.3,14.2,11.7,0.0,0.0,0.0,0.0,111.0,95.0,122.0,103.0,112.0,99.0,117.0,100.0,0.0,0.0,-9.0,1.5,0.0,5.1,3.0,4.996,0.0,0.0,0.653,0.897,0.0,87.3,0.0,0.0,0.0,,0.0,96.8,188.6,0.0,0.0,0.0,0.0,231.8,203.0,251.6,217.4,233.6,210.2,242.6,212.0,0.0,0.0,189.14,0.0,239.89999999999998,143.09999999999997,92.33999999999999,0.002944444444444445,0.0,0.0,424.4,True,2026-05-02 00:06:42
65.06,1,9,2026-05-02 00:07:42,37.68875,-121.43687,191.0,0.0,38.2,-12.7,0.0,,0.0,0.0,0.0,10.4,1.1,298.6,0.0,230.0,0.0,0.02,1.0,99.0,46.0,36.0,0.0,29.85,2734.0,0.0,0.0,39.0,0.0,0.0,0.0,0.0,0.0,0.0,0.0,0.0,0.0,0.0,0.0,0.0,0.0,0.0,0.0,0.0,0.0,0.0,0.0,0.0,0.0,0.0,0.0,0.0,0.0,87.0,0.0,0.0,29.9,0.2,0.0,0.2,5.1,0.0,0.0,11.1,0.0,0.0,-0.3,14.2,11.7,0.0,0.0,0.0,0.0,111.0,95.0,121.0,103.0,112.0,99.0,117.0,100.0,0.0,0.0,-9.0,1.4,0.0,5.1,3.0,4.996,0.0,0.0,0.653,0.894,0.0,87.3,0.0,0.0,0.0,,0.0,96.8,188.6,0.0,0.0,0.0,0.0,231.8,203.0,249.8,217.4,233.6,210.2,242.6,212.0,0.0,0.0,189.14,0.0,239.45,142.64999999999998,92.33999999999999,0.003,0.0,0.0,424.4,True,2026-05-02 00:06:42
66.06,1,9,2026-05-02 00:07:43,37.68875,-121.43687,187.0,0.0,38.2,-12.7,0.0,,0.0,0.0,0.0,10.4,1.0,298.6,0.0,230.0,0.0,0.02,1.0,99.0,52.0,36.0,0.0,29.85,2734.0,0.0,0.0,39.0,0.0,0.0,0.0,0.0,0.0,0.0,0.0,0.0,0.0,0.0,0.0,0.0,0.0,0.0,0.0,0.0,0.0,0.0,0.0,0.0,0.0,0.0,0.0,0.0,0.0,87.0,0.0,0.0,29.9,0.0,0.0,0.0,5.1,0.0,0.0,42.0,0.0,0.0,-0.3,14.2,11.7,0.0,0.0,0.0,0.0,111.0,95.0,121.0,104.0,112.0,99.0,117.0,101.0,0.0,0.0,-9.0,1.3,0.0,5.1,3.0,4.996,0.0,0.0,0.653,0.896,0.0,87.3,0.0,0.0,0.0,,0.0,96.8,188.6,0.0,0.0,0.0,0.0,231.8,203.0,249.8,219.2,233.6,210.2,242.6,213.8,0.0,0.0,189.14,0.0,239.45,142.64999999999998,92.33999999999999,0.003027777777777778,0.0,0.0,424.4,True,2026-05-02 00:06:42
67.06,1,9,2026-05-02 00:07:44,37.68875,-121.43687,187.0,0.0,38.2,-12.7,0.0,,0.0,0.0,0.0,10.4,1.1,298.6,0.0,230.0,0.0,0.02,1.0,99.0,32.0,36.0,0.0,29.85,2734.0,0.0,0.0,39.0,0.0,0.0,0.0,0.0,0.0,0.0,0.0,0.0,0.0,0.0,0.0,0.0,0.0,0.0,0.0,0.0,0.0,0.0,0.0,0.0,0.0,0.0,0.0,0.0,0.0,87.0,0.0,0.0,29.9,0.0,0.0,0.0,5.1,0.0,0.0,42.0,0.0,0.0,-0.3,14.2,11.7,0.0,0.0,0.0,0.0,111.0,95.0,121.0,104.0,111.0,99.0,117.0,101.0,0.0,0.0,-9.0,1.3,0.0,5.1,3.0,4.996,0.0,0.0,0.653,0.898,0.0,87.3,0.0,0.0,0.0,,0.0,96.8,188.6,0.0,0.0,0.0,0.0,231.8,203.0,249.8,219.2,231.8,210.2,242.6,213.8,0.0,0.0,189.14,0.0,239.0,142.2,92.33999999999999,0.003027777777777778,0.0,0.0,424.4,True,2026-05-02 00:06:42
68.06,1,9,2026-05-02 00:07:45,37.68875,-121.43687,187.0,0.0,38.2,-12.7,0.0,,0.0,0.0,0.0,10.4,1.1,298.6,0.0,230.0,0.0,0.02,1.0,99.0,54.0,36.0,0.0,29.85,2734.0,0.0,0.0,39.0,0.0,0.0,0.0,0.0,0.0,0.0,0.0,0.0,0.0,0.0,0.0,0.0,0.0,0.0,0.0,0.0,0.0,0.0,0.0,0.0,0.0,0.0,0.0,0.0,0.0,87.0,0.0,0.0,29.9,0.0,0.0,0.0,5.1,0.0,0.0,42.0,0.0,0.0,-0.3,14.2,11.7,0.0,0.0,0.0,0.0,111.0,95.0,121.0,104.0,111.0,99.0,117.0,101.0,0.0,0.0,-9.0,1.2,0.0,5.1,3.0,4.996,0.0,0.0,0.653,0.909,0.0,87.3,0.0,0.0,0.0,,0.0,96.8,188.6,0.0,0.0,0.0,0.0,231.8,203.0,249.8,219.2,231.8,210.2,242.6,213.8,0.0,0.0,189.14,0.0,239.0,142.2,92.33999999999999,0.003027777777777778,0.0,0.0,424.4,True,2026-05-02 00:06:42
69.06,1,9,2026-05-02 00:07:46,37.68876,-121.43687,187.0,0.0,38.2,-12.7,0.0,,0.0,0.0,0.0,10.4,1.1,298.6,0.0,230.0,-0.0,0.02,1.0,99.0,22.0,36.0,0.0,29.85,2734.0,0.0,0.0,39.0,0.0,0.0,0.0,0.0,0.0,0.0,0.0,0.0,0.0,0.0,0.0,0.0,0.0,0.0,0.0,0.0,0.0,0.0,0.0,0.0,0.0,0.0,0.0,0.0,0.0,87.0,0.0,0.0,29.9,0.0,0.0,0.0,5.1,0.0,0.0,42.0,0.0,0.0,-0.3,14.2,11.7,0.0,0.0,0.0,0.0,111.0,95.0,121.0,104.0,111.0,99.0,117.0,101.0,0.0,0.0,-9.0,1.1,0.0,5.1,3.0,4.996,0.0,0.0,0.653,0.895,0.0,87.3,0.0,0.0,0.0,,0.0,96.8,188.6,0.0,0.0,0.0,0.0,231.8,203.0,249.8,219.2,231.8,210.2,242.6,213.8,0.0,0.0,189.14,0.0,239.0,142.2,92.33999999999999,0.003027777777777778,0.0,0.0,424.4,True,2026-05-02 00:06:42
70.06,1,9,2026-05-02 00:07:47,37.68876,-121.43687,188.0,0.0,38.2,-12.7,0.0,,0.0,0.0,0.0,10.4,1.1,298.6,0.0,230.0,0.0,0.02,1.0,99.0,15.0,36.0,0.0,29.85,2734.0,0.0,0.0,39.0,0.0,0.0,0.0,0.0,0.0,0.0,0.0,0.0,0.0,0.0,0.0,0.0,0.0,0.0,0.0,0.0,0.0,0.0,0.0,0.0,0.0,0.0,0.0,0.0,0.0,87.0,0.0,0.0,29.9,0.0,0.0,0.0,5.1,0.0,0.0,42.0,0.0,0.0,-0.3,14.2,11.7,0.0,0.0,0.0,0.0,111.0,95.0,121.0,104.0,111.0,99.0,117.0,101.0,0.0,0.0,-9.0,1.1,0.0,5.1,3.0,4.996,0.0,0.0,0.653,0.894,0.0,87.3,0.0,0.0,0.0,,0.0,96.8,188.6,0.0,0.0,0.0,0.0,231.8,203.0,249.8,219.2,231.8,210.2,242.6,213.8,0.0,0.0,189.14,0.0,239.0,142.2,92.33999999999999,0.003027777777777778,0.0,0.0,424.4,True,2026-05-02 00:06:42
71.06,1,9,2026-05-02 00:07:48,37.68876,-121.43687,191.0,0.0,38.2,-12.7,0.0,,0.0,0.0,0.0,10.4,1.0,298.6,0.0,230.0,0.0,0.02,1.0,99.0,12.0,36.0,0.0,29.85,2734.0,0.0,0.0,39.0,0.0,0.0,0.0,0.0,0.0,0.0,0.0,0.0,0.0,0.0,0.0,0.0,0.0,0.0,0.0,0.0,0.0,0.0,0.0,0.0,0.0,0.0,0.0,0.0,0.0,87.0,0.0,0.0,29.9,0.0,0.0,0.0,5.1,0.0,0.0,42.0,0.0,0.0,-0.3,14.2,11.7,0.0,0.0,0.0,0.0,111.0,95.0,121.0,104.0,111.0,99.0,117.0,101.0,0.0,0.0,-9.0,1.1,0.0,5.1,3.0,4.996,0.0,0.0,0.653,0.897,0.0,87.3,0.0,0.0,0.0,,0.0,96.8,188.6,0.0,0.0,0.0,0.0,231.8,203.0,249.8,219.2,231.8,210.2,242.6,213.8,0.0,0.0,189.14,0.0,239.0,142.2,92.33999999999999,0.003027777777777778,0.0,0.0,424.4,True,2026-05-02 00:06:42
72.06,1,9,2026-05-02 00:07:49,37.68876,-121.43687,191.0,0.0,38.2,-12.7,0.0,,0.0,0.0,0.0,10.4,1.0,298.6,0.0,230.0,0.0,0.02,1.0,99.0,32.0,36.0,0.0,29.85,2736.0,0.0,0.0,39.0,0.0,0.0,0.0,0.0,0.0,0.0,0.0,0.0,0.0,0.0,0.0,0.0,0.0,0.0,0.0,0.0,0.0,0.0,0.0,0.0,0.0,0.0,0.0,0.0,0.0,87.0,0.0,0.0,29.9,0.0,0.0,0.0,5.1,0.0,0.0,42.0,0.0,0.0,-0.3,14.2,11.7,0.0,0.0,0.0,0.0,111.0,95.0,121.0,103.0,111.0,99.0,117.0,101.0,0.0,0.0,-9.0,1.0,0.0,5.1,3.0,4.996,0.0,0.0,0.653,0.901,0.0,87.3,0.0,0.0,0.0,,0.0,96.8,188.6,0.0,0.0,0.0,0.0,231.8,203.0,249.8,217.4,231.8,210.2,242.6,213.8,0.0,0.0,189.14,0.0,239.0,142.2,92.33999999999999,0.003027777777777778,0.0,0.0,424.4,True,2026-05-02 00:06:42
73.06,1,9,2026-05-02 00:07:50,37.68876,-121.43687,191.0,0.0,38.2,-12.7,0.0,,0.0,0.0,0.0,10.4,1.1,298.6,0.0,230.0,0.0,0.02,1.0,99.0,15.0,36.0,0.0,29.85,2736.0,0.0,0.0,39.0,0.0,0.0,0.0,0.0,0.0,0.0,0.0,0.0,0.0,0.0,0.0,0.0,0.0,0.0,0.0,0.0,0.0,0.0,0.0,0.0,0.0,0.0,0.0,0.0,0.0,87.0,0.0,0.0,29.9,0.0,0.0,0.0,5.1,0.0,0.0,42.0,0.0,0.0,-0.3,14.2,11.7,0.0,0.0,0.0,0.0,111.0,95.0,121.0,103.0,111.0,99.0,117.0,101.0,0.0,0.0,-9.0,1.0,0.0,5.1,3.0,4.996,0.0,0.0,0.653,0.907,0.0,87.3,0.0,0.0,0.0,,0.0,96.8,188.6,0.0,0.0,0.0,0.0,231.8,203.0,249.8,217.4,231.8,210.2,242.6,213.8,0.0,0.0,189.14,0.0,239.0,142.2,92.33999999999999,0.003027777777777778,0.0,0.0,424.4,True,2026-05-02 00:06:42
74.06,1,9,2026-05-02 00:07:51,37.68876,-121.43687,191.0,0.0,38.2,-12.7,0.0,,0.0,0.0,0.0,10.5,1.0,298.6,0.0,230.0,-0.0,0.02,1.0,99.0,19.0,36.0,0.0,29.85,2736.0,0.0,0.0,39.0,0.0,0.0,0.0,0.0,0.0,0.0,0.0,0.0,0.0,0.0,0.0,0.0,0.0,0.0,0.0,0.0,0.0,0.0,0.0,0.0,0.0,0.0,0.0,0.0,0.0,87.0,0.0,0.0,29.9,0.0,0.0,0.0,5.1,0.0,0.0,42.0,0.0,0.0,-0.3,14.2,11.7,0.0,0.0,0.0,0.0,111.0,95.0,121.0,103.0,111.0,99.0,117.0,100.0,0.0,0.0,-9.0,1.0,0.0,5.1,3.0,4.996,0.0,0.0,0.653,0.907,0.0,87.3,0.0,0.0,0.0,,0.0,96.8,188.6,0.0,0.0,0.0,0.0,231.8,203.0,249.8,217.4,231.8,210.2,242.6,212.0,0.0,0.0,189.14,0.0,239.0,142.2,92.33999999999999,0.003027777777777778,0.0,0.0,424.4,True,2026-05-02 00:06:42
75.06,1,9,2026-05-02 00:07:52,37.68876,-121.43687,191.0,0.0,38.2,-12.7,0.0,,0.0,0.0,0.0,10.5,1.0,298.6,0.0,230.0,0.0,0.02,1.0,99.0,28.0,36.0,0.0,29.85,2736.0,0.0,0.0,39.0,0.0,0.0,0.0,0.0,0.0,0.0,0.0,0.0,0.0,0.0,0.0,0.0,0.0,0.0,0.0,0.0,0.0,0.0,0.0,0.0,0.0,0.0,0.0,0.0,0.0,87.0,0.0,0.0,29.9,0.0,0.0,0.0,5.1,0.0,0.0,42.0,0.0,0.0,-0.3,14.2,11.7,0.0,0.0,0.0,0.0,111.0,95.0,121.0,103.0,111.0,99.0,117.0,100.0,0.0,0.0,-9.0,1.0,0.0,5.1,3.0,4.996,0.0,0.0,0.653,0.901,0.0,87.3,0.0,0.0,0.0,,0.0,96.8,188.6,0.0,0.0,0.0,0.0,231.8,203.0,249.8,217.4,231.8,210.2,242.6,212.0,0.0,0.0,189.14,0.0,239.0,142.2,92.33999999999999,0.003027777777777778,0.0,0.0,424.4,True,2026-05-02 00:06:42
76.06,1,9,2026-05-02 00:07:53,37.68877,-121.43687,191.0,0.0,38.2,-12.7,0.0,,0.0,0.0,0.0,10.5,1.0,298.6,0.0,230.0,-0.0,0.02,1.0,99.0,25.0,36.0,0.0,29.85,2736.0,0.0,0.0,39.0,0.0,0.0,0.0,0.0,0.0,0.0,0.0,0.0,0.0,0.0,0.0,0.0,0.0,0.0,0.0,0.0,0.0,0.0,0.0,0.0,0.0,0.0,0.0,0.0,0.0,87.0,0.0,0.0,29.9,0.0,0.0,0.0,5.1,0.0,0.0,42.0,0.0,0.0,-0.4,14.2,11.7,0.0,0.0,0.0,0.0,111.0,95.0,121.0,103.0,111.0,99.0,117.0,100.0,0.0,0.0,-9.0,1.0,0.0,5.1,3.0,4.996,0.0,0.0,0.653,0.884,0.0,87.3,0.0,0.0,0.0,,0.0,96.8,188.6,0.0,0.0,0.0,0.0,231.8,203.0,249.8,217.4,231.8,210.2,242.6,212.0,0.0,0.0,189.14,0.0,239.0,142.2,92.33999999999999,0.003027777777777778,0.0,0.0,424.4,True,2026-05-02 00:06:42
77.06,1,9,2026-05-02 00:07:54,37.68877,-121.43687,191.0,0.0,38.2,-12.7,0.0,,0.0,0.0,0.0,10.5,1.1,298.6,0.0,230.0,-0.0,0.02,1.0,99.0,-15.0,36.0,0.0,29.85,2736.0,0.0,0.0,39.0,0.0,0.0,0.0,0.0,0.0,0.0,0.0,0.0,0.0,0.0,0.0,0.0,0.0,0.0,0.0,0.0,0.0,0.0,0.0,0.0,0.0,0.0,0.0,0.0,0.0,87.0,0.0,0.0,29.9,0.0,0.0,0.0,5.1,0.0,0.0,42.0,0.0,0.0,-0.4,14.2,11.7,0.0,0.0,0.0,0.0,111.0,95.0,121.0,103.0,111.0,99.0,117.0,100.0,0.0,0.0,-9.0,1.0,0.0,5.1,3.0,4.996,0.0,0.0,0.653,0.883,0.0,87.3,0.0,0.0,0.0,,0.0,96.8,188.6,0.0,0.0,0.0,0.0,231.8,203.0,249.8,217.4,231.8,210.2,242.6,212.0,0.0,0.0,189.14,0.0,239.0,142.2,92.33999999999999,0.003027777777777778,0.0,0.0,424.4,True,2026-05-02 00:06:42
78.06,1,9,2026-05-02 00:07:55,37.68877,-121.43687,191.0,0.0,38.2,-12.7,0.0,,0.0,0.0,0.0,10.5,1.0,298.7,0.0,230.0,0.0,0.02,1.0,99.0,4.0,36.0,0.0,29.85,2743.0,0.0,0.0,39.0,0.0,0.0,0.0,0.0,0.0,0.0,0.0,0.0,0.0,0.0,0.0,0.0,0.0,0.0,0.0,0.0,0.0,0.0,0.0,0.0,0.0,0.0,0.0,0.0,0.0,87.0,0.0,0.0,29.9,0.0,0.0,0.0,5.1,0.0,0.0,42.0,0.0,0.0,-0.4,14.2,11.7,0.0,0.0,0.0,0.0,111.0,95.0,121.0,103.0,111.0,99.0,117.0,100.0,0.0,0.0,-9.0,1.0,0.0,5.1,3.0,4.996,0.0,0.0,0.653,0.883,0.0,87.3,0.0,0.0,0.0,,0.0,96.8,188.6,0.0,0.0,0.0,0.0,231.8,203.0,249.8,217.4,231.8,210.2,242.6,212.0,0.0,0.0,189.14,0.0,239.0,142.2,92.33999999999999,0.003027777777777778,0.0,0.0,424.4,True,2026-05-02 00:06:42
79.06,1,9,2026-05-02 00:07:56,37.68877,-121.43687,191.0,0.0,38.2,-12.7,0.0,,0.0,0.0,0.0,10.5,1.0,298.7,0.0,230.0,0.0,0.02,1.0,99.0,-9.0,36.0,0.0,29.85,2743.0,0.0,0.0,39.0,0.0,0.0,0.0,0.0,0.0,0.0,0.0,0.0,0.0,0.0,0.0,0.0,0.0,0.0,0.0,0.0,0.0,0.0,0.0,0.0,0.0,0.0,0.0,0.0,0.0,87.0,0.0,0.0,29.9,0.0,0.0,0.0,5.1,0.0,0.0,42.0,0.0,0.0,-0.4,14.2,11.7,0.0,0.0,0.0,0.0,111.0,95.0,121.0,103.0,111.0,99.0,117.0,100.0,0.0,0.0,-9.0,1.0,0.0,5.1,3.0,4.996,0.0,0.0,0.653,0.883,0.0,87.3,0.0,0.0,0.0,,0.0,96.8,188.6,0.0,0.0,0.0,0.0,231.8,203.0,249.8,217.4,231.8,210.2,242.6,212.0,0.0,0.0,189.14,0.0,239.0,142.2,92.33999999999999,0.003027777777777778,0.0,0.0,424.4,True,2026-05-02 00:06:42
80.06,1,9,2026-05-02 00:07:57,37.68877,-121.43687,191.0,0.0,38.2,-12.7,0.0,,0.0,0.0,0.0,10.5,1.0,298.7,0.0,230.0,0.0,0.02,1.0,99.0,-48.0,36.0,0.0,29.85,2743.0,0.0,0.0,39.0,0.0,0.0,0.0,0.0,0.0,0.0,0.0,0.0,0.0,0.0,0.0,0.0,0.0,0.0,0.0,0.0,0.0,0.0,0.0,0.0,0.0,0.0,0.0,0.0,0.0,87.0,0.0,0.0,29.9,0.0,0.0,0.0,5.1,0.0,0.0,42.0,0.0,0.0,-0.4,14.2,11.7,0.0,0.0,0.0,0.0,111.0,95.0,121.0,103.0,111.0,99.0,116.0,100.0,0.0,0.0,-9.0,1.0,0.0,5.1,3.0,4.996,0.0,0.0,0.653,0.885,0.0,87.3,0.0,0.0,0.0,,0.0,96.8,188.6,0.0,0.0,0.0,0.0,231.8,203.0,249.8,217.4,231.8,210.2,240.8,212.0,0.0,0.0,189.14,0.0,238.55,141.75,92.33999999999999,0.003027777777777778,0.0,0.0,424.4,True,2026-05-02 00:06:42
81.06,1,9,2026-05-02 00:07:58,37.68877,-121.43687,190.0,0.0,38.2,-12.7,0.0,,0.0,0.0,0.0,10.5,1.1,298.7,0.0,230.0,-0.0,0.02,1.0,99.0,-45.0,36.0,0.0,29.85,2745.0,0.0,0.0,39.0,0.0,0.0,0.0,0.0,0.0,0.0,0.0,0.0,0.0,0.0,0.0,0.0,0.0,0.0,0.0,0.0,0.0,0.0,0.0,0.0,0.0,0.0,0.0,0.0,0.0,87.0,0.0,0.0,29.9,0.1,0.0,0.1,5.1,0.0,0.0,42.0,0.0,0.0,-0.4,14.2,11.7,0.0,0.0,0.0,0.0,111.0,95.0,121.0,103.0,111.0,99.0,117.0,101.0,0.0,0.0,-9.0,1.0,0.0,5.1,3.0,4.996,0.0,0.0,0.653,0.889,0.0,87.3,0.0,0.0,0.0,,0.0,96.8,188.6,0.0,0.0,0.0,0.0,231.8,203.0,249.8,217.4,231.8,210.2,242.6,213.8,0.0,0.0,189.14,0.0,239.0,142.2,92.33999999999999,0.003041666666666667,0.0,0.0,424.4,True,2026-05-02 00:06:42
82.06,1,9,2026-05-02 00:07:59,37.68877,-121.43687,190.0,0.0,38.2,-12.7,0.0,,0.0,0.0,0.0,10.5,1.1,298.7,0.0,230.0,0.0,0.02,1.0,99.0,-17.0,36.0,0.0,29.85,2745.0,0.0,0.0,39.0,0.0,0.0,0.0,0.0,0.0,0.0,0.0,0.0,0.0,0.0,0.0,0.0,0.0,0.0,0.0,0.0,0.0,0.0,0.0,0.0,0.0,0.0,0.0,0.0,0.0,87.0,0.0,0.0,29.9,0.1,0.0,0.1,5.1,0.0,0.0,42.0,0.0,0.0,-0.4,14.2,11.7,0.0,0.0,0.0,0.0,111.0,95.0,121.0,103.0,111.0,99.0,117.0,101.0,0.0,0.0,-9.0,1.0,0.0,5.1,3.0,4.996,0.0,0.0,0.653,0.906,0.0,87.3,0.0,0.0,0.0,,0.0,96.8,188.6,0.0,0.0,0.0,0.0,231.8,203.0,249.8,217.4,231.8,210.2,242.6,213.8,0.0,0.0,189.14,0.0,239.0,142.2,92.33999999999999,0.0030694444444444445,0.0,0.0,424.4,True,2026-05-02 00:06:42
83.06,1,9,2026-05-02 00:08:00,37.68877,-121.43687,190.0,0.0,38.2,-12.7,0.0,,0.0,0.0,0.0,10.5,1.1,298.7,0.0,230.0,0.0,0.02,1.0,99.0,-7.0,36.0,0.0,29.85,2745.0,0.0,0.0,39.0,0.0,0.0,0.0,0.0,0.0,0.0,0.0,0.0,0.0,0.0,0.0,0.0,0.0,0.0,0.0,0.0,0.0,0.0,0.0,0.0,0.0,0.0,0.0,0.0,0.0,87.0,0.0,0.0,29.9,0.1,0.0,0.1,5.1,0.0,0.0,42.0,0.0,0.0,-0.4,14.2,11.7,0.0,0.0,0.0,0.0,111.0,95.0,121.0,103.0,111.0,99.0,116.0,101.0,0.0,0.0,-9.0,1.0,0.0,5.1,3.0,4.996,0.0,0.0,0.653,0.886,0.0,87.3,0.0,0.0,0.0,,0.0,96.8,188.6,0.0,0.0,0.0,0.0,231.8,203.0,249.8,217.4,231.8,210.2,240.8,213.8,0.0,0.0,189.14,0.0,238.55,141.75,92.33999999999999,0.0030972222222222226,0.0,0.0,424.4,True,2026-05-02 00:06:42
84.06,1,9,2026-05-02 00:08:01,37.68877,-121.43687,190.0,0.0,38.2,-12.7,0.0,,0.0,0.0,0.0,10.5,1.1,298.7,0.0,230.0,0.0,0.02,1.0,99.0,-28.0,36.0,0.0,29.85,2745.0,0.0,0.0,39.0,0.0,0.0,0.0,0.0,0.0,0.0,0.0,0.0,0.0,0.0,0.0,0.0,0.0,0.0,0.0,0.0,0.0,0.0,0.0,0.0,0.0,0.0,0.0,0.0,0.0,87.0,0.0,0.0,29.9,0.1,0.0,0.1,5.1,0.0,0.0,42.0,0.0,0.0,-0.4,14.2,11.7,0.0,0.0,0.0,0.0,110.0,95.0,121.0,103.0,111.0,99.0,116.0,101.0,0.0,0.0,-9.0,1.0,0.0,5.1,3.0,4.996,0.0,0.0,0.653,0.894,0.0,87.3,0.0,0.0,0.0,,0.0,96.8,188.6,0.0,0.0,0.0,0.0,230.0,203.0,249.8,217.4,231.8,210.2,240.8,213.8,0.0,0.0,189.14,0.0,238.10000000000002,141.3,92.33999999999999,0.003125,0.0,0.0,424.4,True,2026-05-02 00:06:42
85.06,1,9,2026-05-02 00:08:02,37.68877,-121.43687,189.0,0.0,38.2,-12.7,0.0,,0.0,0.0,0.0,10.5,1.1,298.8,0.0,230.0,0.0,0.02,0.9,99.0,-11.0,36.0,0.0,29.85,2745.0,0.0,0.0,39.0,0.0,0.0,0.0,0.0,0.0,0.0,0.0,0.0,0.0,0.0,0.0,0.0,0.0,0.0,0.0,0.0,0.0,0.0,0.0,0.0,0.0,0.0,0.0,0.0,0.0,87.0,0.0,0.0,29.9,0.1,0.0,0.1,5.1,0.0,0.0,42.0,0.0,0.0,-0.4,14.2,11.7,0.0,0.0,0.0,0.0,110.0,95.0,121.0,103.0,111.0,99.0,116.0,101.0,0.0,0.0,-9.0,0.0,0.0,5.1,3.0,4.996,0.0,0.0,0.653,0.929,0.0,87.3,0.0,0.0,0.0,,0.0,96.8,188.6,0.0,0.0,0.0,0.0,230.0,203.0,249.8,217.4,231.8,210.2,240.8,213.8,0.0,0.0,189.14,0.0,238.10000000000002,141.3,92.33999999999999,0.003152777777777778,0.0,0.0,424.4,True,2026-05-02 00:06:42
86.06,1,9,2026-05-02 00:08:03,37.68877,-121.43687,189.0,0.0,38.2,-12.7,0.0,,0.0,0.0,0.0,10.5,1.1,298.8,0.0,230.0,0.0,0.02,1.0,99.0,-13.0,36.0,0.0,29.85,2745.0,0.0,0.0,39.0,0.0,0.0,0.0,0.0,0.0,0.0,0.0,0.0,0.0,0.0,0.0,0.0,0.0,0.0,0.0,0.0,0.0,0.0,0.0,0.0,0.0,0.0,0.0,0.0,0.0,87.0,0.0,0.0,29.9,0.1,0.0,0.1,5.1,0.0,0.0,42.0,0.0,0.0,-0.4,14.2,11.7,0.0,0.0,0.0,0.0,110.0,95.0,121.0,103.0,111.0,99.0,116.0,101.0,0.0,0.0,-9.0,0.0,0.0,5.1,3.0,4.996,0.0,0.0,0.653,0.944,0.0,87.3,0.0,0.0,0.0,,0.0,96.8,188.6,0.0,0.0,0.0,0.0,230.0,203.0,249.8,217.4,231.8,210.2,240.8,213.8,0.0,0.0,189.14,0.0,238.10000000000002,141.3,92.33999999999999,0.003180555555555556,0.0,0.0,424.4,True,2026-05-02 00:06:42
87.06,1,9,2026-05-02 00:08:04,37.68877,-121.43687,189.0,0.0,38.2,-12.7,0.0,,0.0,0.0,0.0,10.5,1.1,298.8,0.0,230.0,0.0,0.02,1.0,99.0,32.0,36.0,0.0,29.85,2745.0,0.0,0.0,39.0,0.0,0.0,0.0,0.0,0.0,0.0,0.0,0.0,0.0,0.0,0.0,0.0,0.0,0.0,0.0,0.0,0.0,0.0,0.0,0.0,0.0,0.0,0.0,0.0,0.0,87.0,0.0,0.0,29.9,0.1,0.0,0.1,5.1,0.0,0.0,42.0,0.0,0.0,-0.4,14.2,11.7,0.0,0.0,0.0,0.0,110.0,95.0,121.0,103.0,111.0,99.0,116.0,101.0,0.0,0.0,-9.0,0.0,0.0,5.1,3.0,4.996,0.0,0.0,0.653,0.913,0.0,87.3,0.0,0.0,0.0,,0.0,96.8,188.6,0.0,0.0,0.0,0.0,230.0,203.0,249.8,217.4,231.8,210.2,240.8,213.8,0.0,0.0,189.14,0.0,238.10000000000002,141.3,92.33999999999999,0.0032083333333333334,0.0,0.0,424.4,True,2026-05-02 00:06:42
88.06,1,9,2026-05-02 00:08:05,37.68877,-121.43687,189.0,0.0,38.2,-12.7,0.0,,0.0,0.0,0.0,10.5,1.1,298.7,0.0,230.0,-0.0,0.02,1.0,99.0,-23.0,36.0,0.0,29.85,2745.0,0.0,0.0,39.0,0.0,0.0,0.0,0.0,0.0,0.0,0.0,0.0,0.0,0.0,0.0,0.0,0.0,0.0,0.0,0.0,0.0,0.0,0.0,0.0,0.0,0.0,0.0,0.0,0.0,87.0,0.0,0.0,29.9,0.1,0.0,0.1,5.1,0.0,0.0,42.0,0.0,0.0,-0.4,14.2,11.7,0.0,0.0,0.0,0.0,110.0,95.0,120.0,104.0,110.0,99.0,116.0,101.0,0.0,0.0,-9.0,0.0,0.0,5.1,3.0,4.996,0.0,0.0,0.653,0.9,0.0,87.3,0.0,0.0,0.0,,0.0,96.8,188.6,0.0,0.0,0.0,0.0,230.0,203.0,248.0,219.2,230.0,210.2,240.8,213.8,0.0,0.0,189.14,0.0,237.2,140.39999999999998,92.33999999999999,0.0032361111111111115,0.0,0.0,424.4,True,2026-05-02 00:06:42
89.06,1,9,2026-05-02 00:08:06,37.68877,-121.43687,188.0,0.0,38.2,-12.7,0.0,,0.0,0.0,0.0,10.5,1.1,298.7,0.0,230.0,0.0,0.02,1.0,99.0,-25.0,36.0,0.0,29.85,2748.0,0.0,0.0,39.0,0.0,0.0,0.0,0.0,0.0,0.0,0.0,0.0,0.0,0.0,0.0,0.0,0.0,0.0,0.0,0.0,0.0,0.0,0.0,0.0,0.0,0.0,0.0,0.0,0.0,87.0,0.0,0.0,29.9,0.1,0.0,0.1,5.1,0.0,0.0,42.0,0.0,0.0,-0.4,14.2,11.7,0.0,0.0,0.0,0.0,110.0,95.0,120.0,104.0,110.0,99.0,116.0,101.0,0.0,0.0,-9.0,0.0,0.0,5.1,3.0,4.996,0.0,0.0,0.653,0.9,0.0,87.3,0.0,0.0,0.0,,0.0,96.8,188.6,0.0,0.0,0.0,0.0,230.0,203.0,248.0,219.2,230.0,210.2,240.8,213.8,0.0,0.0,189.14,0.0,237.2,140.39999999999998,92.33999999999999,0.003263888888888889,0.0,0.0,424.4,True,2026-05-02 00:06:42
