Session Time,GPS Fix Quality,Number of Satellites,GPS Date & Time,Latitude (deg),Longitude (deg),GPS Altitude (feet),Ground Speed (knots),Ground Track (deg),Mag Var (deg),Cross Track Error (NM),Destination Waypoint ID,Range to Destination (NM),Bearing to Destination (deg),System Time,Pitch (deg),Roll (deg),Magnetic Heading (deg),Indicated Airspeed (knots),Pressure Altitude (ft),Turn Rate (deg/s),Lateral Accel (g),Vertical Accel(g),Angle of Attack (%),Vertical Speed (ft/min),OAT (deg C),True Airspeed (knots),Barometer Setting (inHg),Density Altitude (ft),Wind Direction (deg),Wind Speed (knots),Heading Bug (deg),Altitude Bug (ft),Airspeed Bug (knots),Vertical Speed Bug (ft/min),Course (deg),CDI Source Type,CDI Source Port,CDI Scale (NM),CDI Deflection (%),Glideslope (%),AP Engaged,AP Roll Mode,AP Roll Force,AP Roll Position (steps),AP Roll Slip (bool),AP Pitch Force,AP Pitch Position (steps),AP Pitch Slip (bool),AP Yaw Force,AP Yaw Position,AP Yaw Slip (bool),Transponder Status,Transponder Reply (bool),Transponder Identing (bool),Transponder Code (octal),Oil Pressure (PSI),Oil Temp (deg C),RPM L,RPM R,Manifold Pressure (inHg),Fuel Flow 1 (gal/hr),Fuel Flow 2 (gal/hr),Total Fuel Flow (gal/hr),Fuel Pressure (PSI),Fuel Level L (gal),Fuel Level R (gal),Fuel Remaining (gal),Volts 1,Volts 2,Amps,Hobbs Time,Tach Time,Thermocouple 1 (deg C),Thermocouple 2 (deg C),Thermocouple 3 (deg C),Thermocouple 4 (deg C),CHT 4 (deg F),EGT 4 (deg F),CHT 3 (deg F),EGT 3 (deg F),CHT 2 (deg F),EGT 2 (deg F),CHT 1 (deg F),EGT 1 (deg F),Thermocouple 13 (deg C),Thermocouple 14 (deg C),ELEV POSITION (%),CO PPM PRESSURE (PSI),GP Input 3,FUEL PRESSURE (PSI),AILERN POSITION (%),CANOPY CONTACT (V),GP Input 7,GP Input 8,LEFT LEVEL (Sensor V),RIGHT LEVEL (Sensor V),OIL PRESSURE (PSI),OIL TEMPERATURE (deg C),GP Input 13,Contacts,Percent Power,EGT Leaning State,Unnamed: 103,RPM,Fuel Flow Integral,Max CHT,Engine Run,Flight ID
0.06,1,9,2026-01-04 22:43:52,37.08162,-121.59948,257.0,0.0,337.8,-12.7,0.0,0,0.0,0.0,0.0,0.0,0.0,0.0,0.0,0.0,0.0,0.0,0.0,0.0,0.0,13.0,0.0,0.0,0.0,0.0,0.0,230.0,0.0,110.0,0.0,0.0,0.0,0.0,0.0,0.0,0.0,0.0,0.0,0.0,0.0,0.0,0.0,0.0,0.0,0.0,0.0,0.0,0.0,0.0,0.0,0.0,0.0,0.0,0.0,0.0,0.0,0.0,0.0,0.0,0.0,0.0,0.0,38.2,0.0,0.0,0.0,0.6,0.2,0.0,0.0,0.0,0.0,0.0,0.0,0.0,0.0,0.0,0.0,0.0,0.0,0.0,0.0,0.0,0.0,0.0,0.0,0.0,0.0,0.0,0.0,0.0,0.0,0.0,0.0,0.0,0.0,0.0,0,0.0,0.0,0.0,242.6,True,2026-01-04 22:43:52 - Flight 2
1.06,1,9,2026-01-04 22:43:53,37.08162,-121.59948,256.0,0.0,337.8,-12.6,0.0,0,0.0,0.0,0.0,11.0,0.3,240.9,0.0,338.0,-0.0,0.01,0.9,0.0,-55.0,13.0,0.0,29.88,157.0,0.0,0.0,230.0,0.0,110.0,0.0,0.0,0.0,0.0,0.0,0.0,0.0,0.0,0.0,0.0,0.0,0.0,0.0,0.0,0.0,0.0,0.0,0.0,0.0,0.0,0.0,0.0,0.0,0.0,0.0,0.0,0.0,0.0,0.0,0.0,0.0,0.0,0.0,38.2,0.0,0.0,-0.2,0.6,0.2,0.0,0.0,0.0,0.0,55.4,55.4,53.6,55.4,55.4,55.4,53.6,55.4,0.0,0.0,-10.0,254.5,0.0,28.8,-1.0,4.998,0.0,0.0,0.656,0.703,0.0,53.2,0.0,0.0,0.0,0,0.0,0.0,0.0,242.6,True,2026-01-04 22:43:52 - Flight 2
2.06,1,9,2026-01-04 22:43:54,37.08162,-121.59949,255.0,0.0,337.8,-12.6,0.0,0,0.0,0.0,0.0,11.0,0.2,241.0,0.0,336.0,-0.0,0.01,1.0,0.0,-70.0,13.0,0.0,29.88,157.0,0.0,0.0,230.0,0.0,110.0,0.0,0.0,0.0,0.0,0.0,0.0,0.0,0.0,0.0,0.0,0.0,0.0,0.0,0.0,0.0,0.0,0.0,0.0,0.0,0.0,0.0,0.0,0.0,0.0,0.0,0.0,0.0,0.0,0.0,0.0,0.0,0.0,0.0,38.2,0.0,0.0,-0.3,0.6,0.2,0.0,0.0,0.0,0.0,55.4,57.2,55.4,55.4,55.4,57.2,55.4,57.2,0.0,0.0,-10.0,254.5,0.0,28.8,0.0,4.998,0.0,0.0,0.656,0.703,0.0,53.2,0.0,0.0,0.0,0,0.0,0.0,0.0,242.6,True,2026-01-04 22:43:52 - Flight 2
3.06,1,9,2026-01-04 22:43:55,37.08162,-121.59949,255.0,0.0,337.8,-12.6,0.0,0,0.0,0.0,0.0,11.0,0.2,241.0,0.0,335.0,-0.0,0.01,1.0,0.0,-82.0,13.0,0.0,29.88,157.0,0.0,0.0,230.0,0.0,110.0,0.0,0.0,0.0,0.0,0.0,0.0,0.0,0.0,0.0,0.0,0.0,0.0,0.0,0.0,0.0,0.0,0.0,0.0,0.0,0.0,0.0,0.0,0.0,0.0,0.0,0.0,0.0,0.0,0.0,0.0,0.0,0.0,0.0,38.2,0.0,0.0,-0.3,0.6,0.2,0.0,0.0,0.0,0.0,55.4,55.4,53.6,55.4,55.4,55.4,53.6,55.4,0.0,0.0,-10.0,254.5,0.0,27.4,0.0,4.998,0.0,0.0,0.656,0.703,0.0,12.0,0.0,0.0,0.0,0,0.0,0.0,0.0,242.6,True,2026-01-04 22:43:52 - Flight 2
4.06,1,9,2026-01-04 22:43:56,37.08162,-121.59949,254.0,0.0,337.8,-12.6,0.0,0,0.0,0.0,0.0,11.0,0.2,241.0,0.0,334.0,-0.0,0.0,1.0,0.0,-61.0,13.0,0.0,29.88,153.0,0.0,0.0,230.0,0.0,110.0,0.0,0.0,0.0,0.0,0.0,0.0,0.0,0.0,0.0,0.0,0.0,0.0,0.0,0.0,0.0,0.0,0.0,0.0,0.0,0.0,0.0,0.0,0.0,0.0,0.0,0.0,0.0,0.0,0.0,0.0,0.0,0.0,0.0,38.2,0.0,0.0,-0.3,0.6,0.2,0.0,0.0,0.0,0.0,55.4,57.2,55.4,55.4,55.4,57.2,55.4,57.2,0.0,0.0,-10.0,254.5,0.0,26.8,0.0,4.998,0.0,0.0,0.656,0.703,0.0,12.0,0.0,0.0,0.0,0,0.0,0.0,0.0,242.6,True,2026-01-04 22:43:52 - Flight 2
5.06,1,9,2026-01-04 22:43:57,37.08162,-121.59949,254.0,0.0,337.8,-12.6,0.0,0,0.0,0.0,0.0,11.0,0.3,241.0,0.0,334.0,-0.0,0.01,1.0,0.0,-51.0,13.0,0.0,29.88,153.0,0.0,0.0,230.0,0.0,0.0,0.0,0.0,0.0,0.0,0.0,0.0,0.0,0.0,0.0,0.0,0.0,0.0,0.0,0.0,0.0,0.0,0.0,0.0,0.0,0.0,0.0,0.0,0.0,12.0,0.0,0.0,30.0,0.0,0.0,0.0,26.5,0.0,0.0,38.2,0.0,0.0,-0.3,0.6,0.2,0.0,0.0,0.0,0.0,55.4,55.4,53.6,55.4,55.4,55.4,53.6,55.4,0.0,0.0,-10.0,254.5,0.0,26.5,0.0,4.998,0.0,0.0,0.656,0.703,0.0,12.0,0.0,0.0,0.0,0,0.0,0.0,0.0,242.6,True,2026-01-04 22:43:52 - Flight 2
6.06,1,9,2026-01-04 22:43:58,37.08162,-121.59949,253.0,0.0,337.8,-12.6,0.0,0,0.0,0.0,0.0,11.0,0.3,241.0,0.0,332.0,-0.0,0.0,1.0,0.0,-64.0,13.0,0.0,29.88,153.0,0.0,0.0,230.0,0.0,0.0,0.0,0.0,0.0,0.0,0.0,0.0,0.0,0.0,0.0,0.0,0.0,0.0,0.0,0.0,0.0,0.0,0.0,0.0,0.0,0.0,0.0,0.0,0.0,12.0,0.0,0.0,30.0,0.0,0.0,0.0,26.1,0.0,0.0,38.2,0.0,0.0,-0.3,0.6,0.2,0.0,0.0,0.0,0.0,55.4,55.4,53.6,55.4,55.4,55.4,53.6,55.4,0.0,0.0,-10.0,254.5,0.0,26.1,0.0,4.998,0.0,0.0,0.656,0.703,0.0,12.0,0.0,0.0,0.0,0,0.0,0.0,0.0,242.6,True,2026-01-04 22:43:52 - Flight 2
7.06,1,9,2026-01-04 22:43:59,37.08162,-121.59949,252.0,0.1,337.8,-12.6,0.0,0,0.0,0.0,0.0,11.0,0.3,241.0,0.0,331.0,-0.0,0.01,1.0,0.0,-56.0,13.0,0.0,29.88,149.0,0.0,0.0,230.0,0.0,0.0,0.0,0.0,0.0,0.0,0.0,0.0,0.0,0.0,0.0,0.0,0.0,0.0,0.0,0.0,0.0,0.0,0.0,0.0,0.0,0.0,0.0,0.0,0.0,12.0,0.0,0.0,30.0,0.0,0.0,0.0,25.7,0.0,0.0,38.2,0.0,0.0,-0.3,0.6,0.2,0.0,0.0,0.0,0.0,55.4,55.4,53.6,55.4,55.4,55.4,53.6,55.4,0.0,0.0,-10.0,254.5,0.0,25.7,0.0,4.998,0.0,0.0,0.656,0.703,0.0,12.0,0.0,0.0,0.0,0,0.0,0.0,0.0,242.6,True,2026-01-04 22:43:52 - Flight 2
8.06,1,9,2026-01-04 22:44:00,37.08161,-121.59949,252.0,0.0,337.8,-12.6,0.0,0,0.0,0.0,0.0,11.0,0.3,241.0,0.0,330.0,-0.0,0.01,1.0,0.0,-68.0,13.0,0.0,29.88,149.0,0.0,0.0,230.0,0.0,0.0,0.0,0.0,0.0,0.0,0.0,0.0,0.0,0.0,0.0,0.0,0.0,0.0,0.0,0.0,0.0,0.0,0.0,0.0,0.0,0.0,0.0,0.0,0.0,12.0,0.0,0.0,30.0,0.0,0.0,0.0,25.3,0.0,0.0,38.2,0.0,0.0,-0.3,0.6,0.2,0.0,0.0,0.0,0.0,55.4,55.4,53.6,55.4,55.4,55.4,53.6,55.4,0.0,0.0,-10.0,254.5,0.0,25.3,0.0,4.998,0.0,0.0,0.656,0.703,0.0,12.0,0.0,0.0,0.0,0,0.0,0.0,0.0,242.6,True,2026-01-04 22:43:52 - Flight 2
9.06,1,9,2026-01-04 22:44:01,37.08161,-121.59949,251.0,0.0,337.8,-12.6,0.0,0,0.0,0.0,0.0,11.0,0.2,241.1,0.0,329.0,-0.0,0.01,1.0,0.0,-64.0,13.0,0.0,29.88,149.0,0.0,0.0,230.0,0.0,0.0,0.0,0.0,0.0,0.0,0.0,0.0,0.0,0.0,0.0,0.0,0.0,0.0,0.0,0.0,0.0,0.0,0.0,0.0,0.0,0.0,0.0,0.0,0.0,12.0,0.0,0.0,30.0,0.0,0.0,0.0,24.9,0.0,0.0,38.2,0.0,0.0,-0.3,0.6,0.2,0.0,0.0,0.0,0.0,55.4,55.4,53.6,55.4,55.4,55.4,53.6,55.4,0.0,0.0,-10.0,254.5,0.0,24.9,0.0,4.998,0.0,0.0,0.656,0.703,0.0,12.0,0.0,0.0,0.0,0,0.0,0.0,0.0,242.6,True,2026-01-04 22:43:52 - Flight 2
10.06,1,9,2026-01-04 22:44:02,37.08161,-121.59949,251.0,0.0,337.8,-12.6,0.0,0,0.0,0.0,0.0,11.0,0.3,241.1,0.0,327.0,-0.0,0.01,1.0,0.0,-82.0,13.0,0.0,29.88,145.0,0.0,0.0,230.0,0.0,0.0,0.0,0.0,0.0,0.0,0.0,0.0,0.0,0.0,0.0,0.0,0.0,0.0,0.0,0.0,0.0,0.0,0.0,0.0,0.0,0.0,0.0,0.0,0.0,12.0,0.0,0.0,30.0,0.0,0.0,0.0,24.6,0.0,0.0,38.2,0.0,0.0,-0.3,0.6,0.2,0.0,0.0,0.0,0.0,55.4,55.4,53.6,55.4,55.4,55.4,53.6,55.4,0.0,0.0,-10.0,254.5,0.0,24.6,0.0,4.998,0.0,0.0,0.656,0.703,0.0,12.0,0.0,0.0,0.0,0,0.0,0.0,0.0,242.6,True,2026-01-04 22:43:52 - Flight 2
11.06,1,9,2026-01-04 22:44:03,37.08161,-121.59949,250.0,0.0,337.8,-12.6,0.0,0,0.0,0.0,0.0,11.0,0.3,241.1,0.0,327.0,-0.0,0.01,1.0,0.0,-50.0,13.0,0.0,29.88,145.0,0.0,0.0,230.0,0.0,0.0,0.0,0.0,0.0,0.0,0.0,0.0,0.0,0.0,0.0,0.0,0.0,0.0,0.0,0.0,0.0,0.0,0.0,0.0,0.0,0.0,0.0,0.0,0.0,12.0,0.0,0.0,30.0,0.0,0.0,0.0,24.2,0.0,0.0,38.2,0.0,0.0,-0.3,0.6,0.2,0.0,0.0,0.0,0.0,55.4,55.4,53.6,55.4,55.4,55.4,53.6,55.4,0.0,0.0,-10.0,254.5,0.0,24.2,0.0,4.998,0.0,0.0,0.656,0.703,0.0,12.0,0.0,0.0,0.0,0,0.0,0.0,0.0,242.6,True,2026-01-04 22:43:52 - Flight 2
12.06,1,9,2026-01-04 22:44:04,37.08161,-121.59949,249.0,0.0,337.8,-12.6,0.0,0,0.0,0.0,0.0,11.0,0.3,241.1,0.0,327.0,-0.0,0.01,1.0,0.0,-29.0,13.0,0.0,29.88,145.0,0.0,0.0,230.0,0.0,0.0,0.0,0.0,0.0,0.0,0.0,0.0,0.0,0.0,0.0,0.0,0.0,0.0,0.0,0.0,0.0,0.0,0.0,0.0,0.0,0.0,0.0,0.0,0.0,12.0,0.0,0.0,30.0,0.0,0.0,0.0,23.9,0.0,0.0,38.2,0.0,0.0,-0.3,0.6,0.2,0.0,0.0,0.0,0.0,55.4,55.4,53.6,55.4,55.4,55.4,53.6,55.4,0.0,0.0,-10.0,254.5,0.0,23.9,0.0,4.998,0.0,0.0,0.656,0.703,0.0,12.0,0.0,0.0,0.0,0,0.0,0.0,0.0,242.6,True,2026-01-04 22:43:52 - Flight 2
13.06,1,9,2026-01-04 22:44:05,37.08161,-121.59949,248.0,0.0,337.8,-12.6,0.0,0,0.0,0.0,0.0,11.0,0.3,241.1,0.0,327.0,-0.0,0.01,1.0,0.0,-5.0,13.0,0.0,29.88,144.0,0.0,0.0,230.0,0.0,0.0,0.0,0.0,0.0,0.0,0.0,0.0,0.0,0.0,0.0,0.0,0.0,0.0,0.0,0.0,0.0,0.0,0.0,0.0,0.0,0.0,0.0,0.0,0.0,12.0,0.0,0.0,30.0,0.0,0.0,0.0,23.6,0.0,0.0,38.2,0.0,0.0,-0.4,0.6,0.2,0.0,0.0,0.0,0.0,55.4,55.4,53.6,55.4,55.4,55.4,53.6,55.4,0.0,0.0,-10.0,254.5,0.0,23.6,0.0,4.998,0.0,0.0,0.656,0.703,0.0,12.0,0.0,0.0,0.0,0,0.0,0.0,0.0,242.6,True,2026-01-04 22:43:52 - Flight 2
14.06,1,9,2026-01-04 22:44:06,37.08161,-121.59949,248.0,0.0,337.8,-12.6,0.0,0,0.0,0.0,0.0,11.0,0.2,241.1,0.0,327.0,-0.0,0.0,1.0,0.0,-14.0,13.0,0.0,29.88,144.0,0.0,0.0,230.0,0.0,0.0,0.0,0.0,0.0,0.0,0.0,0.0,0.0,0.0,0.0,0.0,0.0,0.0,0.0,0.0,0.0,0.0,0.0,0.0,0.0,0.0,0.0,0.0,0.0,12.0,0.0,0.0,30.0,0.0,0.0,0.0,23.3,0.0,0.0,38.2,0.0,0.0,-0.4,0.6,0.2,0.0,0.0,0.0,0.0,55.4,55.4,53.6,55.4,55.4,55.4,53.6,55.4,0.0,0.0,-10.0,254.5,0.0,23.3,0.0,4.998,0.0,0.0,0.656,0.703,0.0,12.0,0.0,0.0,0.0,0,0.0,0.0,0.0,242.6,True,2026-01-04 22:43:52 - Flight 2
15.06,1,9,2026-01-04 22:44:07,37.08161,-121.59949,247.0,0.0,337.8,-12.6,0.0,0,0.0,0.0,0.0,11.1,0.2,241.1,0.0,327.0,-0.0,0.0,1.0,0.0,8.0,13.0,0.0,29.88,144.0,0.0,0.0,230.0,0.0,0.0,0.0,0.0,0.0,0.0,0.0,0.0,0.0,0.0,0.0,0.0,0.0,0.0,0.0,0.0,0.0,0.0,0.0,0.0,0.0,0.0,0.0,0.0,0.0,12.0,0.0,0.0,30.0,0.0,0.0,0.0,23.0,0.0,0.0,38.2,0.0,0.0,-0.4,0.6,0.2,0.0,0.0,0.0,0.0,55.4,55.4,53.6,55.4,55.4,55.4,53.6,55.4,0.0,0.0,-10.0,254.5,0.0,23.0,0.0,4.998,0.0,0.0,0.656,0.703,0.0,12.0,0.0,0.0,0.0,0,0.0,0.0,0.0,242.6,True,2026-01-04 22:43:52 - Flight 2
16.06,1,9,2026-01-04 22:44:08,37.08161,-121.59949,246.0,0.0,337.8,-12.6,0.0,0,0.0,0.0,0.0,11.0,0.3,241.0,0.0,327.0,-0.0,0.01,1.0,0.0,-8.0,13.0,0.0,29.88,144.0,0.0,0.0,230.0,0.0,0.0,0.0,0.0,0.0,0.0,0.0,0.0,0.0,0.0,0.0,0.0,0.0,0.0,0.0,0.0,0.0,0.0,0.0,0.0,0.0,0.0,0.0,0.0,0.0,12.0,0.0,0.0,30.0,0.0,0.0,0.0,22.7,0.0,0.0,38.2,0.0,0.0,-0.4,0.6,0.2,0.0,0.0,0.0,0.0,55.4,55.4,53.6,55.4,55.4,55.4,53.6,55.4,0.0,0.0,-10.0,254.5,0.0,22.7,0.0,4.998,0.0,0.0,0.656,0.703,0.0,12.0,0.0,0.0,0.0,0,0.0,0.0,0.0,242.6,True,2026-01-04 22:43:52 - Flight 2
17.06,1,9,2026-01-04 22:44:09,37.08161,-121.59949,245.0,0.0,337.8,-12.6,0.0,0,0.0,0.0,0.0,11.1,0.2,241.1,0.0,326.0,0.0,0.0,1.0,0.0,-25.0,13.0,0.0,29.88,144.0,0.0,0.0,230.0,0.0,0.0,0.0,0.0,0.0,0.0,0.0,0.0,0.0,0.0,0.0,0.0,0.0,0.0,0.0,0.0,0.0,0.0,0.0,0.0,0.0,0.0,0.0,0.0,0.0,12.0,0.0,0.0,30.0,0.0,0.0,0.0,22.4,0.0,0.0,38.2,0.0,0.0,-0.4,0.6,0.2,0.0,0.0,0.0,0.0,55.4,55.4,53.6,55.4,55.4,55.4,53.6,55.4,0.0,0.0,-10.0,254.5,0.0,22.4,0.0,4.998,0.0,0.0,0.656,0.703,0.0,12.0,0.0,0.0,0.0,0,0.0,0.0,0.0,242.6,True,2026-01-04 22:43:52 - Flight 2
18.06,1,9,2026-01-04 22:44:10,37.08161,-121.59949,244.0,0.0,337.8,-12.6,0.0,0,0.0,0.0,0.0,11.0,0.2,241.1,0.0,326.0,-0.0,0.0,1.0,0.0,-43.0,13.0,0.0,29.88,144.0,0.0,0.0,230.0,0.0,0.0,0.0,0.0,0.0,0.0,0.0,0.0,0.0,0.0,0.0,0.0,0.0,0.0,0.0,0.0,0.0,0.0,0.0,0.0,0.0,0.0,0.0,0.0,0.0,12.0,0.0,0.0,30.0,0.0,0.0,0.0,22.1,0.0,0.0,38.2,0.0,0.0,-0.4,0.6,0.2,0.0,0.0,0.0,0.0,55.4,55.4,53.6,55.4,55.4,55.4,53.6,55.4,0.0,0.0,-10.0,254.5,0.0,22.1,0.0,4.998,0.0,0.0,0.656,0.703,0.0,12.0,0.0,0.0,0.0,0,0.0,0.0,0.0,242.6,True,2026-01-04 22:43:52 - Flight 2
19.06,1,9,2026-01-04 22:44:11,37.08161,-121.59949,244.0,0.0,337.8,-12.6,0.0,0,0.0,0.0,0.0,11.0,0.2,241.1,0.0,326.0,-0.0,0.0,1.0,0.0,-40.0,13.0,0.0,29.88,142.0,0.0,0.0,230.0,0.0,0.0,0.0,0.0,0.0,0.0,0.0,0.0,0.0,0.0,0.0,0.0,0.0,0.0,0.0,0.0,0.0,0.0,0.0,0.0,0.0,0.0,0.0,0.0,0.0,12.0,0.0,0.0,30.0,0.0,0.0,0.0,21.8,0.0,0.0,38.2,0.0,0.0,-0.4,0.6,0.2,0.0,0.0,0.0,0.0,55.4,55.4,53.6,55.4,55.4,55.4,53.6,55.4,0.0,0.0,-10.0,254.5,0.0,21.8,0.0,4.998,0.0,0.0,0.656,0.703,0.0,12.0,0.0,0.0,0.0,0,0.0,0.0,0.0,242.6,True,2026-01-04 22:43:52 - Flight 2
20.06,1,9,2026-01-04 22:44:12,37.08161,-121.59949,244.0,0.0,337.8,-12.6,0.0,0,0.0,0.0,0.0,11.0,0.3,241.1,0.0,325.0,0.0,0.0,1.0,0.0,-18.0,13.0,0.0,29.88,142.0,0.0,0.0,230.0,0.0,0.0,0.0,0.0,0.0,0.0,0.0,0.0,0.0,0.0,0.0,0.0,0.0,0.0,0.0,0.0,0.0,0.0,0.0,0.0,0.0,0.0,0.0,0.0,0.0,12.0,0.0,0.0,30.0,0.0,0.0,0.0,21.6,0.0,0.0,38.2,0.0,0.0,-0.4,0.6,0.2,0.0,0.0,0.0,0.0,55.4,57.2,55.4,55.4,55.4,57.2,55.4,55.4,0.0,0.0,-10.0,254.5,0.0,21.6,0.0,4.998,0.0,0.0,0.656,0.703,0.0,12.0,0.0,0.0,0.0,0,0.0,0.0,0.0,242.6,True,2026-01-04 22:43:52 - Flight 2
21.06,1,9,2026-01-04 22:44:13,37.08161,-121.59949,244.0,0.1,337.8,-12.6,0.0,0,0.0,0.0,0.0,11.0,0.3,241.1,0.0,323.0,-0.0,0.01,1.0,0.0,-64.0,13.0,0.0,29.88,142.0,0.0,0.0,230.0,0.0,0.0,0.0,0.0,0.0,0.0,0.0,0.0,0.0,0.0,0.0,0.0,0.0,0.0,0.0,0.0,0.0,0.0,0.0,0.0,0.0,0.0,0.0,0.0,0.0,12.0,0.0,0.0,30.0,0.0,0.0,0.0,21.3,0.0,0.0,38.2,0.0,0.0,-0.4,0.6,0.2,0.0,0.0,0.0,0.0,55.4,55.4,53.6,55.4,55.4,55.4,53.6,55.4,0.0,0.0,-10.0,254.5,0.0,21.3,0.0,4.998,0.0,0.0,0.656,0.703,0.0,12.0,0.0,0.0,0.0,0,0.0,0.0,0.0,242.6,True,2026-01-04 22:43:52 - Flight 2
22.06,1,9,2026-01-04 22:44:14,37.08161,-121.59949,244.0,0.0,337.8,-12.6,0.0,0,0.0,0.0,0.0,11.0,0.3,241.1,0.0,323.0,0.0,0.0,1.0,0.0,-40.0,13.0,0.0,29.88,139.0,0.0,0.0,230.0,0.0,0.0,0.0,0.0,0.0,0.0,0.0,0.0,0.0,0.0,0.0,0.0,0.0,0.0,0.0,0.0,0.0,0.0,0.0,0.0,0.0,0.0,0.0,0.0,0.0,12.0,0.0,0.0,30.0,0.0,0.0,0.0,21.1,0.0,0.0,38.2,0.0,0.0,-0.4,0.6,0.2,0.0,0.0,0.0,0.0,55.4,57.2,55.4,55.4,55.4,57.2,55.4,57.2,0.0,0.0,-10.0,254.5,0.0,21.1,0.0,4.998,0.0,0.0,0.656,0.703,0.0,12.0,0.0,0.0,0.0,0,0.0,0.0,0.0,242.6,True,2026-01-04 22:43:52 - Flight 2
23.06,1,9,2026-01-04 22:44:15,37.08161,-121.59949,244.0,0.0,337.8,-12.6,0.0,0,0.0,0.0,0.0,11.0,0.3,241.1,0.0,322.0,-0.0,0.0,1.0,0.0,-65.0,13.0,0.0,29.88,139.0,0.0,0.0,230.0,0.0,0.0,0.0,0.0,0.0,0.0,0.0,0.0,0.0,0.0,0.0,0.0,0.0,0.0,0.0,0.0,0.0,0.0,0.0,0.0,0.0,0.0,0.0,0.0,0.0,12.0,0.0,0.0,30.0,0.0,0.0,0.0,20.8,0.0,0.0,38.2,0.0,0.0,-0.4,0.6,0.2,0.0,0.0,0.0,0.0,55.4,55.4,53.6,55.4,55.4,55.4,53.6,55.4,0.0,0.0,-10.0,254.5,0.0,20.8,0.0,4.998,0.0,0.0,0.656,0.703,0.0,12.0,0.0,0.0,0.0,0,0.0,0.0,0.0,242.6,True,2026-01-04 22:43:52 - Flight 2
24.06,1,9,2026-01-04 22:44:16,37.08161,-121.59949,244.0,0.0,337.8,-12.6,0.0,0,0.0,0.0,0.0,11.0,0.3,241.1,0.0,321.0,-0.0,0.0,1.0,0.0,-48.0,13.0,0.0,29.88,139.0,0.0,0.0,230.0,0.0,0.0,0.0,0.0,0.0,0.0,0.0,0.0,0.0,0.0,0.0,0.0,0.0,0.0,0.0,0.0,0.0,0.0,0.0,0.0,0.0,0.0,0.0,0.0,0.0,12.0,0.0,0.0,30.0,0.0,0.0,0.0,20.6,0.0,0.0,38.2,0.0,0.0,-0.4,0.6,0.2,0.0,0.0,0.0,0.0,55.4,55.4,53.6,55.4,55.4,55.4,53.6,55.4,0.0,0.0,-10.0,254.5,0.0,20.6,0.0,4.998,0.0,0.0,0.656,0.703,0.0,12.0,0.0,0.0,0.0,0,0.0,0.0,0.0,242.6,True,2026-01-04 22:43:52 - Flight 2
25.06,1,9,2026-01-04 22:44:17,37.08161,-121.59949,244.0,0.0,337.8,-12.6,0.0,0,0.0,0.0,0.0,11.0,0.1,241.1,0.0,320.0,-0.0,0.0,1.0,0.0,-55.0,13.0,0.0,29.88,136.0,0.0,0.0,230.0,0.0,0.0,0.0,0.0,0.0,0.0,0.0,0.0,0.0,0.0,0.0,0.0,0.0,0.0,0.0,0.0,0.0,0.0,0.0,0.0,0.0,0.0,0.0,0.0,0.0,12.0,0.0,0.0,30.0,0.0,0.0,0.0,20.4,0.0,0.0,38.2,0.0,0.0,-0.4,0.6,0.2,0.0,0.0,0.0,0.0,55.4,57.2,55.4,55.4,55.4,57.2,55.4,57.2,0.0,0.0,-10.0,254.5,0.0,20.4,0.0,4.998,0.0,0.0,0.656,0.703,0.0,12.0,0.0,0.0,0.0,0,0.0,0.0,0.0,242.6,True,2026-01-04 22:43:52 - Flight 2
26.06,1,10,2026-01-04 22:44:18,37.08163,-121.59949,248.0,0.0,337.8,-12.6,0.0,0,0.0,0.0,0.0,11.0,0.2,241.1,0.0,320.0,-0.1,0.01,1.0,0.0,-15.0,13.0,0.0,29.88,136.0,0.0,0.0,230.0,0.0,0.0,0.0,0.0,0.0,0.0,0.0,0.0,0.0,0.0,0.0,0.0,0.0,0.0,0.0,0.0,0.0,0.0,0.0,0.0,0.0,0.0,0.0,0.0,0.0,12.0,0.0,0.0,30.0,0.0,0.0,0.0,20.1,0.0,0.0,38.2,0.0,0.0,-0.4,0.6,0.2,0.0,0.0,0.0,0.0,55.4,57.2,55.4,55.4,55.4,57.2,55.4,57.2,0.0,0.0,-10.0,254.5,0.0,20.1,0.0,1.499,0.0,0.0,0.656,0.703,0.0,12.0,0.0,0.0,0.0,0,0.0,0.0,0.0,242.6,True,2026-01-04 22:43:52 - Flight 2
27.06,1,10,2026-01-04 22:44:19,37.08162,-121.59949,248.0,0.1,337.8,-12.6,0.0,0,0.0,0.0,0.0,11.0,0.2,241.2,0.0,319.0,-0.0,0.01,1.0,0.0,-46.0,13.0,0.0,29.88,136.0,0.0,0.0,230.0,0.0,0.0,0.0,0.0,0.0,0.0,0.0,0.0,0.0,0.0,0.0,0.0,0.0,0.0,0.0,0.0,0.0,0.0,0.0,0.0,0.0,0.0,0.0,0.0,0.0,12.0,0.0,0.0,30.0,0.0,0.0,0.0,19.9,0.0,0.0,38.2,0.0,0.0,-0.4,0.6,0.2,0.0,0.0,0.0,0.0,55.4,57.2,55.4,55.4,55.4,57.2,55.4,55.4,0.0,0.0,-10.0,254.5,0.0,19.9,0.0,0.001,0.0,0.0,0.656,0.703,0.0,12.0,0.0,0.0,0.0,0,0.0,0.0,0.0,242.6,True,2026-01-04 22:43:52 - Flight 2
28.06,1,10,2026-01-04 22:44:20,37.08162,-121.59949,249.0,0.0,337.8,-12.6,0.0,0,0.0,0.0,0.0,11.0,0.3,241.1,0.0,318.0,-0.0,0.01,1.0,0.0,-38.0,13.0,0.0,29.88,133.0,0.0,0.0,230.0,0.0,0.0,0.0,0.0,0.0,0.0,0.0,0.0,0.0,0.0,0.0,0.0,0.0,0.0,0.0,0.0,0.0,0.0,0.0,0.0,0.0,0.0,0.0,0.0,0.0,12.0,0.0,0.0,30.0,0.0,0.0,0.0,19.7,0.0,0.0,38.2,0.0,0.0,-0.4,0.6,0.2,0.0,0.0,0.0,0.0,55.4,57.2,55.4,55.4,55.4,57.2,55.4,55.4,0.0,0.0,-10.0,254.5,0.0,19.7,0.0,0.0,0.0,0.0,0.656,0.703,0.0,12.0,0.0,0.0,0.0,0,0.0,0.0,0.0,242.6,True,2026-01-04 22:43:52 - Flight 2
29.06,1,10,2026-01-04 22:44:21,37.08162,-121.59949,251.0,0.0,337.8,-12.6,0.0,0,0.0,0.0,0.0,11.0,0.3,241.2,0.0,316.0,0.0,0.01,1.0,0.0,-78.0,13.0,0.0,29.88,134.0,0.0,0.0,230.0,0.0,0.0,0.0,0.0,0.0,0.0,0.0,0.0,0.0,0.0,0.0,0.0,0.0,0.0,0.0,0.0,0.0,0.0,0.0,0.0,0.0,0.0,0.0,0.0,0.0,12.0,0.0,0.0,30.0,0.0,0.0,0.0,19.5,0.0,0.0,38.2,0.0,0.0,-0.4,0.6,0.2,0.0,0.0,0.0,0.0,55.4,55.4,53.6,55.4,55.4,55.4,53.6,55.4,0.0,0.0,-10.0,254.5,0.0,19.5,0.0,0.0,0.0,0.0,0.656,0.703,0.0,12.0,0.0,0.0,0.0,0,0.0,0.0,0.0,242.6,True,2026-01-04 22:43:52 - Flight 2
30.06,1,10,2026-01-04 22:44:22,37.08162,-121.59950,253.0,0.0,337.8,-12.6,0.0,0,0.0,0.0,0.0,11.0,0.2,241.1,0.0,314.0,-0.0,0.01,1.0,0.0,-82.0,13.0,0.0,29.88,134.0,0.0,0.0,230.0,0.0,0.0,0.0,0.0,0.0,0.0,0.0,0.0,0.0,0.0,0.0,0.0,0.0,0.0,0.0,0.0,0.0,0.0,0.0,0.0,0.0,0.0,0.0,0.0,0.0,12.0,0.0,0.0,30.0,0.0,0.0,0.0,19.3,0.0,0.0,38.2,0.0,0.0,-0.4,0.6,0.2,0.0,0.0,0.0,0.0,55.4,57.2,55.4,55.4,55.4,57.2,55.4,55.4,0.0,0.0,-10.0,254.5,0.0,19.3,0.0,0.0,0.0,0.0,0.656,0.703,0.0,12.0,0.0,0.0,0.0,0,0.0,0.0,0.0,242.6,True,2026-01-04 22:43:52 - Flight 2
31.06,1,10,2026-01-04 22:44:23,37.08162,-121.59950,256.0,0.0,337.8,-12.6,0.0,0,0.0,0.0,0.0,11.1,0.2,241.1,0.0,313.0,-0.0,0.01,1.0,0.0,-59.0,13.0,0.0,29.88,134.0,0.0,0.0,230.0,0.0,0.0,0.0,0.0,0.0,0.0,0.0,0.0,0.0,0.0,0.0,0.0,0.0,0.0,0.0,0.0,0.0,0.0,0.0,0.0,0.0,0.0,0.0,0.0,0.0,12.0,0.0,0.0,30.0,0.0,0.0,0.0,19.1,0.0,0.0,38.2,0.0,0.0,-0.4,0.6,0.2,0.0,0.0,0.0,0.0,55.4,55.4,53.6,55.4,55.4,55.4,53.6,55.4,0.0,0.0,-10.0,254.4,0.0,19.1,0.0,0.0,0.0,0.0,0.656,0.703,0.0,12.0,0.0,0.0,0.0,0,0.0,0.0,0.0,242.6,True,2026-01-04 22:43:52 - Flight 2
32.06,1,10,2026-01-04 22:44:24,37.08162,-121.59950,258.0,0.0,337.8,-12.6,0.0,0,0.0,0.0,0.0,11.1,0.2,241.1,0.0,311.0,-0.1,0.01,1.0,0.0,-98.0,13.0,0.0,29.88,133.0,0.0,0.0,230.0,0.0,0.0,0.0,0.0,0.0,0.0,0.0,0.0,0.0,0.0,0.0,0.0,0.0,0.0,0.0,0.0,0.0,0.0,0.0,0.0,0.0,0.0,0.0,0.0,0.0,12.0,0.0,0.0,30.0,0.0,0.0,0.0,18.9,0.0,0.0,38.2,0.0,0.0,-0.4,0.6,0.2,0.0,0.0,0.0,0.0,55.4,57.2,55.4,55.4,55.4,57.2,55.4,55.4,0.0,0.0,-10.0,254.4,0.0,18.9,0.0,0.0,0.0,0.0,0.656,0.703,0.0,12.0,0.0,0.0,0.0,0,0.0,0.0,0.0,242.6,True,2026-01-04 22:43:52 - Flight 2
33.06,1,10,2026-01-04 22:44:25,37.08162,-121.59951,261.0,0.0,337.8,-12.6,0.0,0,0.0,0.0,0.0,11.0,0.2,241.1,0.0,309.0,-0.0,0.01,1.0,0.0,-117.0,13.0,0.0,29.88,131.0,0.0,0.0,230.0,0.0,0.0,0.0,0.0,0.0,0.0,0.0,0.0,0.0,0.0,0.0,0.0,0.0,0.0,0.0,0.0,0.0,0.0,0.0,0.0,0.0,0.0,0.0,0.0,0.0,12.0,0.0,0.0,30.0,0.0,0.0,0.0,18.7,0.0,0.0,38.2,0.0,0.0,-0.4,0.6,0.2,0.0,0.0,0.0,0.0,55.4,57.2,55.4,55.4,55.4,57.2,55.4,55.4,0.0,0.0,-10.0,254.4,0.0,18.7,0.0,0.0,0.0,0.0,0.656,0.703,0.0,12.0,0.0,0.0,0.0,0,0.0,0.0,0.0,242.6,True,2026-01-04 22:43:52 - Flight 2
34.06,1,10,2026-01-04 22:44:26,37.08162,-121.59951,264.0,0.0,337.8,-12.6,0.0,0,0.0,0.0,0.0,11.0,0.2,241.2,0.0,308.0,-0.0,0.0,1.0,0.0,-106.0,13.0,0.0,29.88,129.0,0.0,0.0,230.0,0.0,0.0,0.0,0.0,0.0,0.0,0.0,0.0,0.0,0.0,0.0,0.0,0.0,0.0,0.0,0.0,0.0,0.0,0.0,0.0,0.0,0.0,0.0,0.0,0.0,12.0,0.0,0.0,30.0,0.0,0.0,0.0,18.5,0.0,0.0,38.2,0.0,0.0,-0.4,0.6,0.2,0.0,0.0,0.0,0.0,55.4,57.2,55.4,55.4,55.4,57.2,55.4,55.4,0.0,0.0,-10.0,254.4,0.0,18.5,0.0,0.0,0.0,0.0,0.656,0.703,0.0,12.0,0.0,0.0,0.0,0,0.0,0.0,0.0,242.6,True,2026-01-04 22:43:52 - Flight 2
35.06,1,10,2026-01-04 22:44:27,37.08162,-121.59952,266.0,0.0,337.8,-12.6,0.0,0,0.0,0.0,0.0,11.0,0.2,241.2,0.0,305.0,-0.0,0.0,1.0,0.0,-124.0,13.0,0.0,29.88,126.0,0.0,0.0,230.0,0.0,0.0,0.0,0.0,0.0,0.0,0.0,0.0,0.0,0.0,0.0,0.0,0.0,0.0,0.0,0.0,0.0,0.0,0.0,0.0,0.0,0.0,0.0,0.0,0.0,12.0,0.0,0.0,30.0,0.0,0.0,0.0,18.3,0.0,0.0,38.2,0.0,0.0,-0.4,0.6,0.2,0.0,0.0,0.0,0.0,55.4,57.2,55.4,55.4,55.4,57.2,55.4,57.2,0.0,0.0,-10.0,254.4,0.0,18.3,0.0,0.0,0.0,0.0,0.656,0.703,0.0,12.0,0.0,0.0,0.0,0,0.0,0.0,0.0,242.6,True,2026-01-04 22:43:52 - Flight 2
36.06,1,10,2026-01-04 22:44:28,37.08162,-121.59952,269.0,0.0,337.8,-12.6,0.0,0,0.0,0.0,0.0,11.0,0.2,241.2,0.0,303.0,-0.0,0.0,1.0,0.0,-101.0,13.0,0.0,29.88,124.0,0.0,0.0,230.0,0.0,0.0,0.0,0.0,0.0,0.0,0.0,0.0,0.0,0.0,0.0,0.0,0.0,0.0,0.0,0.0,0.0,0.0,0.0,0.0,0.0,0.0,0.0,0.0,0.0,12.0,0.0,0.0,30.0,0.0,0.0,0.0,18.1,0.0,0.0,38.2,0.0,0.0,-0.4,0.6,0.2,0.0,0.0,0.0,0.0,55.4,57.2,55.4,57.2,55.4,57.2,55.4,57.2,0.0,0.0,-10.0,254.4,0.0,18.1,0.0,0.0,0.0,0.0,0.656,0.703,0.0,12.0,0.0,0.0,0.0,0,0.0,0.0,0.0,242.6,True,2026-01-04 22:43:52 - Flight 2
37.06,1,10,2026-01-04 22:44:29,37.08162,-121.59952,272.0,0.0,337.8,-12.6,0.0,0,0.0,0.0,0.0,11.0,0.2,241.2,0.0,303.0,-0.0,0.01,1.0,0.0,-78.0,13.0,0.0,29.88,124.0,0.0,0.0,230.0,0.0,0.0,0.0,0.0,0.0,0.0,0.0,0.0,0.0,0.0,0.0,0.0,0.0,0.0,0.0,0.0,0.0,0.0,0.0,0.0,0.0,0.0,0.0,0.0,0.0,12.0,0.0,0.0,30.0,0.0,0.0,0.0,17.9,0.0,0.0,38.2,0.0,0.0,-0.4,0.6,0.2,0.0,0.0,0.0,0.0,55.4,57.2,55.4,57.2,55.4,57.2,55.4,57.2,0.0,0.0,-10.0,254.4,0.0,17.9,0.0,0.0,0.0,0.0,0.656,0.703,0.0,12.0,0.0,0.0,0.0,0,0.0,0.0,0.0,242.6,True,2026-01-04 22:43:52 - Flight 2
38.06,1,10,2026-01-04 22:44:30,37.08162,-121.59953,275.0,0.0,337.8,-12.6,0.0,0,0.0,0.0,0.0,11.1,0.2,241.2,0.0,303.0,-0.0,0.0,1.0,0.0,-66.0,13.0,0.0,29.88,123.0,0.0,0.0,230.0,0.0,0.0,0.0,0.0,0.0,0.0,0.0,0.0,0.0,0.0,0.0,0.0,0.0,0.0,0.0,0.0,0.0,0.0,0.0,0.0,0.0,0.0,0.0,0.0,0.0,12.0,0.0,0.0,30.0,0.0,0.0,0.0,17.8,0.0,0.0,38.2,0.0,0.0,-0.4,0.6,0.2,0.0,0.0,0.0,0.0,55.4,57.2,55.4,55.4,55.4,57.2,55.4,55.4,0.0,0.0,-10.0,254.4,0.0,17.8,0.0,0.0,0.0,0.0,0.656,0.703,0.0,12.0,0.0,0.0,0.0,0,0.0,0.0,0.0,242.6,True,2026-01-04 22:43:52 - Flight 2
39.06,1,10,2026-01-04 22:44:31,37.08162,-121.59962,353.0,0.0,337.8,-12.6,0.0,0,0.0,0.0,0.0,11.1,0.2,241.2,0.0,303.0,-0.0,0.0,1.0,0.0,-22.0,13.0,0.0,29.88,123.0,0.0,0.0,230.0,0.0,0.0,0.0,0.0,0.0,0.0,0.0,0.0,0.0,0.0,0.0,0.0,0.0,0.0,0.0,0.0,0.0,0.0,0.0,0.0,0.0,0.0,0.0,0.0,0.0,12.0,0.0,0.0,30.0,0.0,0.0,0.0,17.6,0.0,0.0,38.2,0.0,0.0,-0.4,0.6,0.2,0.0,0.0,0.0,0.0,55.4,57.2,55.4,55.4,55.4,57.2,55.4,55.4,0.0,0.0,-10.0,254.4,0.0,17.6,0.0,0.0,0.0,0.0,0.656,0.703,0.0,12.0,0.0,0.0,0.0,0,0.0,0.0,0.0,242.6,True,2026-01-04 22:43:52 - Flight 2
40.06,1,10,2026-01-04 22:44:32,37.08162,-121.59962,351.0,0.0,337.8,-12.6,0.0,0,0.0,0.0,0.0,11.1,0.1,241.2,0.0,303.0,-0.0,0.01,1.0,0.0,-5.0,13.0,0.0,29.88,123.0,0.0,0.0,230.0,0.0,0.0,0.0,0.0,0.0,0.0,0.0,0.0,0.0,0.0,0.0,0.0,0.0,0.0,0.0,0.0,0.0,0.0,0.0,0.0,0.0,0.0,0.0,0.0,0.0,12.0,0.0,0.0,30.0,0.0,0.0,0.0,17.4,0.0,0.0,38.2,0.0,0.0,-0.4,0.6,0.2,0.0,0.0,0.0,0.0,55.4,57.2,55.4,55.4,55.4,57.2,55.4,55.4,0.0,0.0,-10.0,254.4,0.0,17.4,0.0,0.0,0.0,0.0,0.656,0.703,0.0,12.0,0.0,0.0,0.0,0,0.0,0.0,0.0,242.6,True,2026-01-04 22:43:52 - Flight 2
41.06,1,10,2026-01-04 22:44:33,37.08162,-121.59962,349.0,0.0,337.8,-12.6,0.0,0,0.0,0.0,0.0,11.1,0.2,241.2,0.0,303.0,-0.0,0.0,1.0,0.0,-18.0,13.0,0.0,29.88,125.0,0.0,0.0,230.0,0.0,0.0,0.0,0.0,0.0,0.0,0.0,0.0,0.0,0.0,0.0,0.0,0.0,0.0,0.0,0.0,0.0,0.0,0.0,0.0,0.0,0.0,0.0,0.0,0.0,12.0,0.0,0.0,30.0,0.0,0.0,0.0,17.3,0.0,0.0,38.2,0.0,0.0,-0.4,0.6,0.2,0.0,0.0,0.0,0.0,55.4,57.2,55.4,57.2,55.4,57.2,55.4,57.2,0.0,0.0,-9.0,254.4,0.0,17.3,0.0,0.0,0.0,0.0,0.656,0.703,0.0,12.0,0.0,0.0,0.0,0,0.0,0.0,0.0,242.6,True,2026-01-04 22:43:52 - Flight 2
42.06,1,10,2026-01-04 22:44:34,37.08162,-121.59962,348.0,0.0,337.8,-12.6,0.0,0,0.0,0.0,0.0,11.1,0.2,241.2,0.0,300.0,-0.0,0.0,1.0,0.0,-55.0,13.0,0.0,29.88,120.0,0.0,0.0,230.0,0.0,0.0,0.0,0.0,0.0,0.0,0.0,0.0,0.0,0.0,0.0,0.0,0.0,0.0,0.0,0.0,0.0,0.0,0.0,0.0,0.0,0.0,0.0,0.0,0.0,12.0,0.0,0.0,30.0,0.0,0.0,0.0,17.1,0.0,0.0,38.2,0.0,0.0,-0.4,0.6,0.2,0.0,0.0,0.0,0.0,55.4,57.2,55.4,55.4,55.4,57.2,55.4,55.4,0.0,0.0,-10.0,230.5,0.0,17.1,0.0,0.0,0.0,0.0,0.656,0.703,0.0,12.0,0.0,0.0,0.0,0,0.0,0.0,0.0,242.6,True,2026-01-04 22:43:52 - Flight 2
43.06,1,10,2026-01-04 22:44:35,37.08162,-121.59962,346.0,0.0,337.8,-12.6,0.0,0,0.0,0.0,0.0,11.0,0.2,241.2,0.0,299.0,-0.0,0.0,1.0,0.0,-41.0,13.0,0.0,29.88,120.0,0.0,0.0,230.0,0.0,0.0,0.0,0.0,0.0,0.0,0.0,0.0,0.0,0.0,0.0,0.0,0.0,0.0,0.0,0.0,0.0,0.0,0.0,0.0,0.0,0.0,0.0,0.0,0.0,12.0,0.0,0.0,30.0,0.0,0.0,0.0,16.9,0.0,0.0,38.2,0.0,0.0,-0.4,0.6,0.2,0.0,0.0,0.0,0.0,55.4,57.2,55.4,55.4,55.4,57.2,55.4,55.4,0.0,0.0,-10.0,179.4,0.0,16.9,0.0,0.0,0.0,0.0,0.656,0.703,0.0,12.0,0.0,0.0,0.0,0,0.0,0.0,0.0,242.6,True,2026-01-04 22:43:52 - Flight 2
44.06,1,10,2026-01-04 22:44:36,37.08162,-121.59961,344.0,0.0,337.8,-12.6,0.0,0,0.0,0.0,0.0,11.1,0.2,241.2,0.0,299.0,-0.0,0.01,1.0,0.0,-59.0,13.0,0.0,29.88,118.0,0.0,0.0,230.0,0.0,0.0,0.0,0.0,0.0,0.0,0.0,0.0,0.0,0.0,0.0,0.0,0.0,0.0,0.0,0.0,0.0,0.0,0.0,0.0,0.0,0.0,0.0,0.0,0.0,12.0,0.0,0.0,30.0,0.0,0.0,0.0,16.8,0.0,0.0,38.2,0.0,0.0,-0.4,0.6,0.2,0.0,0.0,0.0,0.0,55.4,57.2,55.4,55.4,55.4,57.2,55.4,57.2,0.0,0.0,-10.0,139.7,0.0,16.8,0.0,0.0,0.0,0.0,0.656,0.703,0.0,12.0,0.0,0.0,0.0,0,0.0,0.0,0.0,242.6,True,2026-01-04 22:43:52 - Flight 2
45.06,1,10,2026-01-04 22:44:37,37.08162,-121.59961,342.0,0.0,337.8,-12.6,0.0,0,0.0,0.0,0.0,11.1,0.2,241.2,0.0,299.0,-0.0,0.0,1.0,0.0,-40.0,13.0,0.0,29.88,118.0,0.0,0.0,230.0,0.0,0.0,0.0,0.0,0.0,0.0,0.0,0.0,0.0,0.0,0.0,0.0,0.0,0.0,0.0,0.0,0.0,0.0,0.0,0.0,0.0,0.0,0.0,0.0,0.0,12.0,0.0,0.0,30.0,0.5,0.0,0.5,5.3,0.0,0.0,38.2,0.0,0.0,-0.4,0.6,0.2,0.0,0.0,0.0,0.0,55.4,57.2,55.4,55.4,55.4,57.2,55.4,55.4,0.0,0.0,-10.0,108.8,0.0,5.3,0.0,0.0,0.0,0.0,0.656,0.703,0.0,12.0,0.0,0.0,0.0,0,0.0,0.0,6.944444444444444e-05,242.6,True,2026-01-04 22:43:52 - Flight 2
46.06,1,10,2026-01-04 22:44:38,37.08162,-121.59960,340.0,0.0,337.8,-12.6,0.0,0,0.0,0.0,0.0,11.1,0.2,241.2,0.0,299.0,-0.0,0.0,1.0,0.0,-5.0,13.0,0.0,29.88,118.0,0.0,0.0,230.0,0.0,0.0,0.0,0.0,0.0,0.0,0.0,0.0,0.0,0.0,0.0,0.0,0.0,0.0,0.0,0.0,0.0,0.0,0.0,0.0,0.0,0.0,0.0,0.0,0.0,12.0,0.0,0.0,30.0,0.6,0.0,0.6,3.9,0.0,0.0,38.2,0.0,0.0,-0.4,0.6,0.2,0.0,0.0,0.0,0.0,55.4,57.2,55.4,55.4,55.4,57.2,55.4,55.4,0.0,0.0,-10.0,84.8,0.0,3.9,0.0,0.0,0.0,0.0,0.656,0.703,0.0,12.0,0.0,0.0,0.0,0,0.0,0.0,0.00022222222222222223,242.6,True,2026-01-04 22:43:52 - Flight 2
47.06,1,10,2026-01-04 22:44:39,37.08162,-121.59960,338.0,0.0,337.8,-12.6,0.0,0,0.0,0.0,0.0,11.1,0.2,241.2,0.0,299.0,-0.0,0.0,1.0,0.0,-2.0,13.0,0.0,29.88,119.0,0.0,0.0,230.0,0.0,0.0,0.0,0.0,0.0,0.0,0.0,0.0,0.0,0.0,0.0,0.0,0.0,0.0,0.0,0.0,0.0,0.0,0.0,0.0,0.0,0.0,0.0,0.0,0.0,12.0,0.0,0.0,30.0,1.5,0.0,1.5,24.2,0.0,0.0,38.2,0.0,0.0,-0.4,0.6,0.2,0.0,0.0,0.0,0.0,55.4,57.2,55.4,57.2,55.4,57.2,55.4,57.2,0.0,0.0,-10.0,66.1,0.0,24.2,0.0,0.0,0.0,0.0,0.656,0.703,0.0,12.0,0.0,0.0,0.0,0,0.0,0.0,0.0005138888888888889,242.6,True,2026-01-04 22:43:52 - Flight 2
48.06,1,10,2026-01-04 22:44:40,37.08162,-121.59959,336.0,0.0,337.8,-12.6,0.0,0,0.0,0.0,0.0,11.1,0.2,241.2,0.0,299.0,-0.1,0.0,1.0,0.0,25.0,13.0,0.0,29.88,118.0,0.0,0.0,230.0,0.0,0.0,0.0,0.0,0.0,0.0,0.0,0.0,0.0,0.0,0.0,0.0,0.0,0.0,0.0,0.0,0.0,0.0,0.0,0.0,0.0,0.0,0.0,0.0,0.0,12.0,0.0,0.0,30.0,2.3,0.0,2.3,30.9,0.0,0.0,38.2,0.0,0.0,-0.3,0.6,0.2,0.0,0.0,0.0,0.0,55.4,57.2,55.4,55.4,55.4,57.2,55.4,55.4,0.0,0.0,-10.0,51.6,0.0,30.9,0.0,0.0,0.0,0.0,0.656,0.703,0.0,12.0,0.0,0.0,0.0,0,0.0,0.0,0.0010416666666666667,242.6,True,2026-01-04 22:43:52 - Flight 2
49.06,1,10,2026-01-04 22:44:41,37.08162,-121.59959,334.0,0.0,337.8,-12.6,0.0,0,0.0,0.0,0.0,11.1,0.2,241.3,0.0,299.0,-0.0,0.01,1.0,0.0,15.0,13.0,0.0,29.88,118.0,0.0,0.0,230.0,0.0,0.0,0.0,0.0,0.0,0.0,0.0,0.0,0.0,0.0,0.0,0.0,0.0,0.0,0.0,0.0,0.0,0.0,0.0,0.0,0.0,0.0,0.0,0.0,0.0,12.0,0.0,0.0,30.0,2.9,0.0,2.9,32.1,0.0,0.0,38.2,0.0,0.0,-0.3,0.6,0.2,0.0,0.0,0.0,0.0,55.4,57.2,55.4,57.2,55.4,57.2,55.4,57.2,0.0,0.0,-10.0,40.3,0.0,32.1,0.0,0.0,0.0,0.0,0.656,0.703,0.0,12.0,0.0,0.0,0.0,0,0.0,0.0,0.0017638888888888888,242.6,True,2026-01-04 22:43:52 - Flight 2
50.06,1,10,2026-01-04 22:44:42,37.08162,-121.59959,332.0,0.0,337.8,-12.6,0.0,0,0.0,0.0,0.0,11.1,0.2,241.3,0.0,299.0,-0.0,0.0,1.0,0.0,8.0,13.0,0.0,29.88,118.0,0.0,0.0,230.0,0.0,0.0,0.0,0.0,0.0,0.0,0.0,0.0,0.0,0.0,0.0,0.0,0.0,0.0,0.0,0.0,0.0,0.0,0.0,0.0,0.0,0.0,0.0,0.0,0.0,12.0,0.0,0.0,30.0,2.9,0.0,2.9,33.6,0.0,0.0,38.2,0.0,0.0,-0.3,0.6,0.2,0.0,0.0,0.0,0.0,55.4,57.2,55.4,57.2,55.4,57.2,55.4,57.2,0.0,0.0,-10.0,31.5,0.0,33.6,0.0,0.0,0.0,0.0,0.656,0.703,0.0,12.0,0.0,0.0,0.0,0,0.0,0.0,0.0025694444444444445,242.6,True,2026-01-04 22:43:52 - Flight 2
51.06,1,10,2026-01-04 22:44:43,37.08162,-121.59959,330.0,0.0,337.8,-12.6,0.0,0,0.0,0.0,0.0,11.1,0.2,241.3,0.0,299.0,-0.0,0.0,1.0,0.0,20.0,13.0,0.0,29.88,119.0,0.0,0.0,230.0,0.0,0.0,0.0,0.0,0.0,0.0,0.0,0.0,0.0,0.0,0.0,0.0,0.0,0.0,0.0,0.0,0.0,0.0,0.0,0.0,0.0,0.0,0.0,0.0,0.0,12.0,0.0,0.0,30.0,2.6,0.0,2.6,32.9,0.0,0.0,38.2,0.0,0.0,-0.3,0.6,0.2,0.0,0.0,0.0,0.0,55.4,57.2,55.4,55.4,55.4,57.2,55.4,55.4,0.0,0.0,-10.0,24.7,0.0,32.9,0.0,0.0,0.0,0.0,0.656,0.703,0.0,12.0,0.0,0.0,0.0,0,0.0,0.0,0.0033333333333333335,242.6,True,2026-01-04 22:43:52 - Flight 2
52.06,1,10,2026-01-04 22:44:44,37.08162,-121.59959,328.0,0.0,337.8,-12.6,0.0,0,0.0,0.0,0.0,11.1,0.1,241.3,0.0,299.0,-0.0,0.0,1.0,0.0,47.0,13.0,0.0,29.88,119.0,0.0,0.0,230.0,0.0,0.0,0.0,0.0,0.0,0.0,0.0,0.0,0.0,0.0,0.0,0.0,0.0,0.0,0.0,0.0,0.0,0.0,0.0,0.0,0.0,0.0,0.0,0.0,0.0,12.0,0.0,0.0,30.0,2.6,0.0,2.6,32.6,0.0,0.0,38.2,0.0,0.0,-0.3,0.6,0.2,0.0,0.0,0.0,0.0,55.4,57.2,55.4,57.2,55.4,57.2,55.4,57.2,0.0,0.0,-10.0,19.4,0.0,32.6,0.0,0.0,0.0,0.0,0.656,0.703,0.0,12.0,0.0,0.0,0.0,0,0.0,0.0,0.004055555555555556,242.6,True,2026-01-04 22:43:52 - Flight 2
53.06,1,10,2026-01-04 22:44:45,37.08162,-121.59958,326.0,0.0,337.8,-12.6,0.0,0,0.0,0.0,0.0,11.1,0.1,241.3,0.0,299.0,-0.0,0.0,1.0,0.0,18.0,13.0,0.0,29.88,119.0,0.0,0.0,230.0,0.0,0.0,0.0,0.0,0.0,0.0,0.0,0.0,0.0,0.0,0.0,0.0,0.0,0.0,0.0,0.0,0.0,0.0,0.0,0.0,0.0,0.0,0.0,0.0,0.0,12.0,0.0,0.0,30.0,0.0,0.0,0.0,32.4,0.0,0.0,38.2,0.0,0.0,-0.4,0.6,0.2,0.0,0.0,0.0,0.0,55.4,57.2,55.4,55.4,55.4,57.2,55.4,55.4,0.0,0.0,-10.0,15.3,0.0,32.4,1.0,0.0,0.0,0.0,0.656,0.703,0.0,12.0,0.0,0.0,0.0,0,0.0,0.0,0.004416666666666668,242.6,True,2026-01-04 22:43:52 - Flight 2
54.06,1,10,2026-01-04 22:44:46,37.08162,-121.59958,324.0,0.0,337.8,-12.6,0.0,0,0.0,0.0,0.0,11.1,0.1,241.3,0.0,299.0,-0.0,0.0,1.0,0.0,41.0,13.0,0.0,29.88,119.0,0.0,0.0,230.0,0.0,0.0,0.0,0.0,0.0,0.0,0.0,0.0,0.0,0.0,0.0,0.0,0.0,0.0,0.0,0.0,0.0,0.0,0.0,0.0,0.0,0.0,0.0,0.0,0.0,12.0,0.0,0.0,30.0,0.0,0.0,0.0,32.2,0.0,0.0,38.2,0.0,0.0,-0.4,0.6,0.2,0.0,0.0,0.0,0.0,55.4,57.2,55.4,57.2,55.4,57.2,55.4,57.2,0.0,0.0,-10.0,12.1,0.0,32.2,1.0,0.0,0.0,0.0,0.656,0.703,0.0,12.0,0.0,0.0,0.0,0,0.0,0.0,0.004416666666666668,242.6,True,2026-01-04 22:43:52 - Flight 2
55.06,1,10,2026-01-04 22:44:47,37.08162,-121.59958,322.0,0.0,337.8,-12.6,0.0,0,0.0,0.0,0.0,11.1,0.2,241.3,0.0,299.0,-0.0,0.0,1.0,0.0,16.0,13.0,0.0,29.88,119.0,0.0,0.0,230.0,0.0,0.0,0.0,0.0,0.0,0.0,0.0,0.0,0.0,0.0,0.0,0.0,0.0,0.0,0.0,0.0,0.0,0.0,0.0,0.0,0.0,0.0,0.0,0.0,0.0,12.0,0.0,0.0,30.0,0.0,0.0,0.0,32.0,0.0,0.0,38.2,0.0,0.0,-0.4,0.6,0.2,0.0,0.0,0.0,0.0,55.4,57.2,55.4,57.2,55.4,57.2,55.4,57.2,0.0,0.0,-10.0,9.6,0.0,32.0,1.0,0.0,0.0,0.0,0.656,0.703,0.0,12.0,0.0,0.0,0.0,0,0.0,0.0,0.004416666666666668,242.6,True,2026-01-04 22:43:52 - Flight 2
56.06,1,10,2026-01-04 22:44:48,37.08162,-121.59957,321.0,0.0,337.8,-12.6,0.0,0,0.0,0.0,0.0,11.1,0.2,241.2,0.0,299.0,-0.0,0.01,1.0,0.0,47.0,13.0,0.0,29.88,119.0,0.0,0.0,230.0,0.0,0.0,0.0,0.0,0.0,0.0,0.0,0.0,0.0,0.0,0.0,0.0,0.0,0.0,0.0,0.0,0.0,0.0,0.0,0.0,0.0,0.0,0.0,0.0,0.0,12.0,0.0,0.0,30.0,0.0,0.0,0.0,31.9,0.0,0.0,38.2,0.0,0.0,-0.4,0.6,0.2,0.0,0.0,0.0,0.0,55.4,57.2,55.4,57.2,55.4,57.2,55.4,57.2,0.0,0.0,-10.0,7.7,0.0,31.9,1.0,0.0,0.0,0.0,0.656,0.703,0.0,12.0,0.0,0.0,0.0,0,0.0,0.0,0.004416666666666668,242.6,True,2026-01-04 22:43:52 - Flight 2
57.06,1,10,2026-01-04 22:44:49,37.0816,-121.59956,327.0,0.0,337.8,-12.6,0.0,0,0.0,0.0,0.0,11.1,0.2,241.2,0.0,299.0,-0.0,0.0,1.0,0.0,23.0,13.0,0.0,29.88,119.0,0.0,0.0,230.0,0.0,0.0,0.0,0.0,0.0,0.0,0.0,0.0,0.0,0.0,0.0,0.0,0.0,0.0,0.0,0.0,0.0,0.0,0.0,0.0,0.0,0.0,0.0,0.0,0.0,12.0,0.0,0.0,30.0,0.0,0.0,0.0,31.7,0.0,0.0,38.2,0.0,0.0,-0.4,0.6,0.2,0.0,0.0,0.0,0.0,55.4,57.2,55.4,55.4,55.4,57.2,55.4,55.4,0.0,0.0,-10.0,6.2,0.0,31.7,1.0,0.0,0.0,0.0,0.656,0.703,0.0,12.0,0.0,0.0,0.0,0,0.0,0.0,0.004416666666666668,242.6,True,2026-01-04 22:43:52 - Flight 2
58.06,1,10,2026-01-04 22:44:50,37.0816,-121.59956,325.0,0.0,337.8,-12.6,0.0,0,0.0,0.0,0.0,11.0,0.3,241.2,0.0,299.0,-0.0,0.01,1.0,0.0,43.0,13.0,0.0,29.88,119.0,0.0,0.0,230.0,0.0,0.0,0.0,0.0,0.0,0.0,0.0,0.0,0.0,0.0,0.0,0.0,0.0,0.0,0.0,0.0,0.0,0.0,0.0,0.0,0.0,0.0,0.0,0.0,0.0,12.0,0.0,0.0,30.0,0.0,0.0,0.0,31.6,0.0,0.0,38.2,0.0,0.0,-0.4,0.6,0.2,0.0,0.0,0.0,0.0,55.4,57.2,55.4,55.4,55.4,57.2,55.4,55.4,0.0,0.0,-10.0,5.0,0.0,31.6,1.0,0.0,0.0,0.0,0.656,0.703,0.0,12.0,0.0,0.0,0.0,0,0.0,0.0,0.004416666666666668,242.6,True,2026-01-04 22:43:52 - Flight 2
59.06,1,10,2026-01-04 22:44:51,37.0816,-121.59956,324.0,0.0,337.8,-12.6,0.0,0,0.0,0.0,0.0,11.1,0.2,241.2,0.0,299.0,-0.0,0.01,1.0,0.0,14.0,13.0,0.0,29.88,119.0,0.0,0.0,230.0,0.0,0.0,0.0,0.0,0.0,0.0,0.0,0.0,0.0,0.0,0.0,0.0,0.0,0.0,0.0,0.0,0.0,0.0,0.0,0.0,0.0,0.0,0.0,0.0,0.0,12.0,0.0,0.0,30.0,0.0,0.0,0.0,31.4,0.0,0.0,38.2,0.0,0.0,-0.4,0.6,0.2,0.0,0.0,0.0,0.0,55.4,57.2,55.4,55.4,55.4,57.2,55.4,55.4,0.0,0.0,-10.0,4.1,0.0,31.4,1.0,0.0,0.0,0.0,0.656,0.703,0.0,12.0,0.0,0.0,0.0,0,0.0,0.0,0.004416666666666668,242.6,True,2026-01-04 22:43:52 - Flight 2
60.06,1,10,2026-01-04 22:44:52,37.0816,-121.59956,323.0,0.0,337.8,-12.6,0.0,0,0.0,0.0,0.0,11.1,0.2,241.2,0.0,299.0,-0.0,0.01,1.0,0.0,11.0,13.0,0.0,29.88,119.0,0.0,0.0,230.0,0.0,0.0,0.0,0.0,0.0,0.0,0.0,0.0,0.0,0.0,0.0,0.0,0.0,0.0,0.0,0.0,0.0,0.0,0.0,0.0,0.0,0.0,0.0,0.0,0.0,12.0,0.0,0.0,30.0,0.0,0.0,0.0,31.3,0.0,0.0,38.2,0.0,0.0,-0.4,0.6,0.2,0.0,0.0,0.0,0.0,55.4,57.2,55.4,57.2,55.4,57.2,55.4,57.2,0.0,0.0,-10.0,3.4,0.0,31.3,1.0,0.0,0.0,0.0,0.656,0.703,0.0,12.0,0.0,0.0,0.0,0,0.0,0.0,0.004416666666666668,242.6,True,2026-01-04 22:43:52 - Flight 2
61.06,1,10,2026-01-04 22:44:53,37.0816,-121.59956,322.0,0.0,337.8,-12.6,0.0,0,0.0,0.0,0.0,11.1,0.2,241.2,0.0,299.0,-0.0,0.0,1.0,0.0,5.0,13.0,0.0,29.88,119.0,0.0,0.0,230.0,0.0,0.0,0.0,0.0,0.0,0.0,0.0,0.0,0.0,0.0,0.0,0.0,0.0,0.0,0.0,0.0,0.0,0.0,0.0,0.0,0.0,0.0,0.0,0.0,0.0,12.0,0.0,0.0,30.0,0.0,0.0,0.0,31.1,0.0,0.0,38.2,0.0,0.0,-0.4,0.6,0.2,0.0,0.0,0.0,0.0,55.4,57.2,55.4,55.4,55.4,57.2,55.4,55.4,0.0,0.0,-10.0,2.9,0.0,31.1,1.0,0.0,0.0,0.0,0.656,0.703,0.0,12.0,0.0,0.0,0.0,0,0.0,0.0,0.004416666666666668,242.6,True,2026-01-04 22:43:52 - Flight 2
62.06,1,10,2026-01-04 22:44:54,37.0816,-121.59956,321.0,0.0,337.8,-12.6,0.0,0,0.0,0.0,0.0,11.1,0.2,241.2,0.0,299.0,-0.0,0.0,1.0,0.0,-14.0,13.0,0.0,29.88,119.0,0.0,0.0,230.0,0.0,0.0,0.0,0.0,0.0,0.0,0.0,0.0,0.0,0.0,0.0,0.0,0.0,0.0,0.0,0.0,0.0,0.0,0.0,0.0,0.0,0.0,0.0,0.0,0.0,12.0,0.0,0.0,30.0,0.0,0.0,0.0,31.0,0.0,0.0,38.2,0.0,0.0,-0.4,0.6,0.2,0.0,0.0,0.0,0.0,55.4,57.2,55.4,55.4,55.4,57.2,55.4,55.4,0.0,0.0,-10.0,2.4,0.0,31.0,1.0,0.0,0.0,0.0,0.656,0.703,0.0,12.0,0.0,0.0,0.0,0,0.0,0.0,0.004416666666666668,242.6,True,2026-01-04 22:43:52 - Flight 2
63.06,1,10,2026-01-04 22:44:55,37.0816,-121.59956,321.0,0.0,337.8,-12.6,0.0,0,0.0,0.0,0.0,11.1,0.2,241.2,0.0,299.0,-0.0,0.01,1.0,0.0,-18.0,13.0,0.0,29.88,119.0,0.0,0.0,230.0,0.0,0.0,0.0,0.0,0.0,0.0,0.0,0.0,0.0,0.0,0.0,0.0,0.0,0.0,0.0,0.0,0.0,0.0,0.0,0.0,0.0,0.0,0.0,0.0,0.0,12.0,0.0,0.0,30.0,0.0,0.0,0.0,30.9,0.0,0.0,38.2,0.0,0.0,-0.4,0.6,0.2,0.0,0.0,0.0,0.0,55.4,57.2,55.4,55.4,55.4,57.2,55.4,55.4,0.0,0.0,-10.0,2.1,0.0,30.9,1.0,0.0,0.0,0.0,0.656,0.703,0.0,12.0,0.0,0.0,0.0,0,0.0,0.0,0.004416666666666668,242.6,True,2026-01-04 22:43:52 - Flight 2
64.06,1,10,2026-01-04 22:44:56,37.0816,-121.59956,320.0,0.0,337.8,-12.6,0.0,0,0.0,0.0,0.0,11.1,0.2,241.1,0.0,299.0,-0.0,0.0,1.0,0.0,-15.0,13.0,0.0,29.88,121.0,0.0,0.0,230.0,0.0,0.0,0.0,0.0,0.0,0.0,0.0,0.0,0.0,0.0,0.0,0.0,0.0,0.0,0.0,0.0,0.0,0.0,0.0,0.0,0.0,0.0,0.0,0.0,0.0,12.0,0.0,0.0,30.0,0.0,0.0,0.0,30.8,0.0,0.0,38.2,0.0,0.0,-0.4,0.6,0.2,0.0,0.0,0.0,0.0,55.4,57.2,55.4,55.4,55.4,57.2,55.4,55.4,0.0,0.0,-10.0,1.9,0.0,30.8,1.0,0.0,0.0,0.0,0.656,0.703,0.0,12.0,0.0,0.0,0.0,0,0.0,0.0,0.004416666666666668,242.6,True,2026-01-04 22:43:52 - Flight 2
65.06,1,10,2026-01-04 22:44:57,37.0816,-121.59956,320.0,0.0,337.8,-12.6,0.0,0,0.0,0.0,0.0,11.1,0.2,241.2,0.0,299.0,-0.0,0.0,1.0,0.0,-3.0,13.0,0.0,29.88,121.0,0.0,0.0,230.0,0.0,0.0,0.0,0.0,0.0,0.0,0.0,0.0,0.0,0.0,0.0,0.0,0.0,0.0,0.0,0.0,0.0,0.0,0.0,0.0,0.0,0.0,0.0,0.0,0.0,12.0,0.0,0.0,30.0,0.0,0.0,0.0,30.6,0.0,0.0,38.2,0.0,0.0,-0.4,0.6,0.2,0.0,0.0,0.0,0.0,55.4,57.2,55.4,55.4,55.4,57.2,55.4,55.4,0.0,0.0,-10.0,1.7,0.0,30.6,1.0,0.0,0.0,0.0,0.656,0.703,0.0,12.0,0.0,0.0,0.0,0,0.0,0.0,0.004416666666666668,242.6,True,2026-01-04 22:43:52 - Flight 2
66.06,1,10,2026-01-04 22:44:58,37.0816,-121.59956,320.0,0.0,337.8,-12.6,0.0,0,0.0,0.0,0.0,11.1,0.2,241.2,0.0,299.0,-0.0,0.0,1.0,0.0,-34.0,13.0,0.0,29.88,121.0,0.0,0.0,230.0,0.0,0.0,0.0,0.0,0.0,0.0,0.0,0.0,0.0,0.0,0.0,0.0,0.0,0.0,0.0,0.0,0.0,0.0,0.0,0.0,0.0,0.0,0.0,0.0,0.0,12.0,0.0,0.0,30.0,0.0,0.0,0.0,30.5,0.0,0.0,38.2,0.0,0.0,-0.4,0.6,0.2,0.0,0.0,0.0,0.0,55.4,57.2,55.4,55.4,55.4,57.2,55.4,55.4,0.0,0.0,-10.0,1.5,0.0,30.5,1.0,0.0,0.0,0.0,0.656,0.703,0.0,12.0,0.0,0.0,0.0,0,0.0,0.0,0.004416666666666668,242.6,True,2026-01-04 22:43:52 - Flight 2
67.06,1,10,2026-01-04 22:44:59,37.0816,-121.59956,320.0,0.0,337.8,-12.6,0.0,0,0.0,0.0,0.0,11.1,0.2,241.2,0.0,299.0,-0.0,0.0,1.0,0.0,-33.0,13.0,0.0,29.88,119.0,0.0,0.0,230.0,0.0,0.0,0.0,0.0,0.0,0.0,0.0,0.0,0.0,0.0,0.0,0.0,0.0,0.0,0.0,0.0,0.0,0.0,0.0,0.0,0.0,0.0,0.0,0.0,0.0,12.0,0.0,0.0,30.0,0.0,0.0,0.0,30.4,0.0,0.0,38.2,0.0,0.0,-0.4,0.6,0.2,0.0,0.0,0.0,0.0,55.4,57.2,55.4,55.4,55.4,57.2,55.4,55.4,0.0,0.0,-10.0,1.4,0.0,30.4,1.0,0.0,0.0,0.0,0.656,0.703,0.0,12.0,0.0,0.0,0.0,0,0.0,0.0,0.004416666666666668,242.6,True,2026-01-04 22:43:52 - Flight 2
68.06,1,10,2026-01-04 22:45:00,37.0816,-121.59956,320.0,0.0,337.8,-12.6,0.0,0,0.0,0.0,0.0,11.1,0.2,241.2,0.0,299.0,-0.0,0.0,1.0,0.0,-50.0,13.0,0.0,29.88,121.0,0.0,0.0,230.0,0.0,0.0,0.0,0.0,0.0,0.0,0.0,0.0,0.0,0.0,0.0,0.0,0.0,0.0,0.0,0.0,0.0,0.0,0.0,0.0,0.0,0.0,0.0,0.0,0.0,12.0,0.0,0.0,30.0,0.0,0.0,0.0,30.3,0.0,0.0,38.2,0.0,0.0,-0.4,0.6,0.2,0.0,0.0,0.0,0.0,55.4,57.2,55.4,55.4,55.4,57.2,55.4,55.4,0.0,0.0,-10.0,1.3,0.0,30.3,1.0,0.0,0.0,0.0,0.656,0.703,0.0,12.0,0.0,0.0,0.0,0,0.0,0.0,0.004416666666666668,242.6,True,2026-01-04 22:43:52 - Flight 2
69.06,1,10,2026-01-04 22:45:01,37.0816,-121.59956,320.0,0.0,337.8,-12.6,0.0,0,0.0,0.0,0.0,11.1,0.2,241.3,0.0,299.0,0.0,0.0,1.0,0.0,-25.0,13.0,0.0,29.88,121.0,0.0,0.0,230.0,0.0,0.0,0.0,0.0,0.0,0.0,0.0,0.0,0.0,0.0,0.0,0.0,0.0,0.0,0.0,0.0,0.0,0.0,0.0,0.0,0.0,0.0,0.0,0.0,0.0,12.0,0.0,0.0,30.0,0.0,0.0,0.0,30.2,0.0,0.0,38.2,0.0,0.0,-0.4,0.6,0.2,0.0,0.0,0.0,0.0,55.4,57.2,55.4,55.4,55.4,57.2,55.4,55.4,0.0,0.0,-10.0,1.2,0.0,30.2,1.0,0.0,0.0,0.0,0.656,0.703,0.0,12.0,0.0,0.0,0.0,0,0.0,0.0,0.004416666666666668,242.6,True,2026-01-04 22:43:52 - Flight 2
70.06,1,10,2026-01-04 22:45:02,37.0816,-121.59956,321.0,0.0,337.8,-12.6,0.0,0,0.0,0.0,0.0,11.1,0.2,241.3,0.0,299.0,-0.0,0.0,1.0,0.0,-20.0,13.0,0.0,29.88,121.0,0.0,0.0,230.0,0.0,0.0,0.0,0.0,0.0,0.0,0.0,0.0,0.0,0.0,0.0,0.0,0.0,0.0,0.0,0.0,0.0,0.0,0.0,0.0,0.0,0.0,0.0,0.0,0.0,12.0,0.0,0.0,30.0,0.0,0.0,0.0,30.0,0.0,0.0,38.2,0.0,0.0,-0.4,0.6,0.2,0.0,0.0,0.0,0.0,55.4,57.2,55.4,55.4,55.4,57.2,55.4,55.4,0.0,0.0,-10.0,1.2,0.0,30.0,1.0,0.0,0.0,0.0,0.656,0.703,0.0,12.0,0.0,0.0,0.0,0,0.0,0.0,0.004416666666666668,242.6,True,2026-01-04 22:43:52 - Flight 2
71.06,1,10,2026-01-04 22:45:03,37.0816,-121.59956,321.0,0.0,337.8,-12.6,0.0,0,0.0,0.0,0.0,11.1,0.2,241.3,0.0,299.0,-0.0,0.0,1.0,0.0,-37.0,13.0,0.0,29.88,121.0,0.0,0.0,230.0,0.0,0.0,0.0,0.0,0.0,0.0,0.0,0.0,0.0,0.0,0.0,0.0,0.0,0.0,0.0,0.0,0.0,0.0,0.0,0.0,0.0,0.0,0.0,0.0,0.0,12.0,0.0,0.0,30.0,0.0,0.0,0.0,29.9,0.0,0.0,38.2,0.0,0.0,-0.4,0.6,0.2,0.0,0.0,0.0,0.0,55.4,57.2,55.4,57.2,55.4,57.2,55.4,57.2,0.0,0.0,-10.0,1.1,0.0,29.9,1.0,0.0,0.0,0.0,0.656,0.703,0.0,12.0,0.0,0.0,0.0,0,0.0,0.0,0.004416666666666668,242.6,True,2026-01-04 22:43:52 - Flight 2
72.06,1,10,2026-01-04 22:45:04,37.0816,-121.59956,321.0,0.0,337.8,-12.6,0.0,0,0.0,0.0,0.0,11.1,0.3,241.2,0.0,299.0,-0.0,0.0,1.0,0.0,-45.0,13.0,0.0,29.88,121.0,0.0,0.0,230.0,0.0,0.0,0.0,0.0,0.0,0.0,0.0,0.0,0.0,0.0,0.0,0.0,0.0,0.0,0.0,0.0,0.0,0.0,0.0,0.0,0.0,0.0,0.0,0.0,0.0,12.0,0.0,0.0,30.0,0.0,0.0,0.0,29.8,0.0,0.0,38.2,0.0,0.0,-0.4,0.6,0.2,0.0,0.0,0.0,0.0,55.4,57.2,55.4,55.4,55.4,57.2,55.4,55.4,0.0,0.0,-10.0,1.1,0.0,29.8,1.0,0.0,0.0,0.0,0.656,0.703,0.0,12.0,0.0,0.0,0.0,0,0.0,0.0,0.004416666666666668,242.6,True,2026-01-04 22:43:52 - Flight 2
73.06,1,10,2026-01-04 22:45:05,37.0816,-121.59956,322.0,0.1,337.8,-12.6,0.0,0,0.0,0.0,0.0,11.1,0.3,241.3,0.0,299.0,-0.0,0.0,1.0,0.0,-37.0,13.0,0.0,29.88,121.0,0.0,0.0,230.0,0.0,0.0,0.0,0.0,0.0,0.0,0.0,0.0,0.0,0.0,0.0,0.0,0.0,0.0,0.0,0.0,0.0,0.0,0.0,0.0,0.0,0.0,0.0,0.0,0.0,12.0,0.0,0.0,30.0,0.0,0.0,0.0,29.7,0.0,0.0,38.2,0.0,0.0,-0.4,0.6,0.2,0.0,0.0,0.0,0.0,55.4,57.2,55.4,55.4,55.4,57.2,55.4,55.4,0.0,0.0,-10.0,1.1,0.0,29.7,1.0,0.0,0.0,0.0,0.656,0.703,0.0,12.0,0.0,0.0,0.0,0,0.0,0.0,0.004416666666666668,242.6,True,2026-01-04 22:43:52 - Flight 2
74.06,1,10,2026-01-04 22:45:06,37.0816,-121.59956,322.0,0.0,337.8,-12.6,0.0,0,0.0,0.0,0.0,11.2,0.3,241.3,0.0,299.0,-0.0,0.0,1.0,0.0,-30.0,13.0,0.0,29.88,121.0,0.0,0.0,230.0,0.0,0.0,0.0,0.0,0.0,0.0,0.0,0.0,0.0,0.0,0.0,0.0,0.0,0.0,0.0,0.0,0.0,0.0,0.0,0.0,0.0,0.0,0.0,0.0,0.0,12.0,0.0,0.0,30.0,0.0,0.0,0.0,29.6,0.0,0.0,38.2,0.0,0.0,-0.4,0.6,0.2,0.0,0.0,0.0,0.0,55.4,57.2,55.4,57.2,55.4,57.2,55.4,57.2,0.0,0.0,-10.0,1.0,0.0,29.6,1.0,0.0,0.0,0.0,0.656,0.703,0.0,12.0,0.0,0.0,0.0,0,0.0,0.0,0.004416666666666668,242.6,True,2026-01-04 22:43:52 - Flight 2
75.06,1,10,2026-01-04 22:45:07,37.0816,-121.59956,322.0,0.1,337.8,-12.6,0.0,0,0.0,0.0,0.0,11.2,0.2,241.3,0.0,298.0,-0.0,0.0,1.0,0.0,-31.0,13.0,0.0,29.88,121.0,0.0,0.0,230.0,0.0,0.0,0.0,0.0,0.0,0.0,0.0,0.0,0.0,0.0,0.0,0.0,0.0,0.0,0.0,0.0,0.0,0.0,0.0,0.0,0.0,0.0,0.0,0.0,0.0,12.0,0.0,0.0,30.0,0.0,0.0,0.0,29.6,0.0,0.0,38.2,0.0,0.0,-0.4,0.6,0.2,0.0,0.0,0.0,0.0,55.4,57.2,55.4,57.2,55.4,57.2,55.4,57.2,0.0,0.0,-10.0,1.0,0.0,29.6,1.0,0.0,0.0,0.0,0.656,0.703,0.0,12.0,0.0,0.0,0.0,0,0.0,0.0,0.004416666666666668,242.6,True,2026-01-04 22:43:52 - Flight 2
76.06,1,10,2026-01-04 22:45:08,37.0816,-121.59956,323.0,0.0,337.8,-12.6,0.0,0,0.0,0.0,0.0,11.2,0.2,241.4,0.0,298.0,-0.0,0.0,1.0,0.0,-38.0,13.0,0.0,29.88,121.0,0.0,0.0,230.0,0.0,0.0,0.0,0.0,0.0,0.0,0.0,0.0,0.0,0.0,0.0,0.0,0.0,0.0,0.0,0.0,0.0,0.0,0.0,0.0,0.0,0.0,0.0,0.0,0.0,12.0,0.0,0.0,30.0,0.0,0.0,0.0,29.5,0.0,0.0,38.2,0.0,0.0,-0.4,0.6,0.2,0.0,0.0,0.0,0.0,55.4,57.2,55.4,57.2,55.4,57.2,55.4,57.2,0.0,0.0,-10.0,1.0,0.0,29.5,1.0,0.0,0.0,0.0,0.656,0.703,0.0,12.0,0.0,0.0,0.0,0,0.0,0.0,0.004416666666666668,242.6,True,2026-01-04 22:43:52 - Flight 2
77.06,1,10,2026-01-04 22:45:09,37.0816,-121.59956,323.0,0.0,337.8,-12.6,0.0,0,0.0,0.0,0.0,11.2,0.2,241.4,0.0,298.0,-0.0,0.0,1.0,0.0,-35.0,13.0,0.0,29.88,128.0,0.0,0.0,230.0,0.0,0.0,0.0,0.0,0.0,0.0,0.0,0.0,0.0,0.0,0.0,0.0,0.0,0.0,0.0,0.0,0.0,0.0,0.0,0.0,0.0,0.0,0.0,0.0,0.0,12.0,0.0,0.0,30.0,0.0,0.0,0.0,29.4,0.0,0.0,38.2,0.0,0.0,-0.4,0.6,0.2,0.0,0.0,0.0,0.0,55.4,57.2,55.4,57.2,55.4,57.2,55.4,57.2,0.0,0.0,-10.0,1.0,0.0,29.4,1.0,0.0,0.0,0.0,0.656,0.703,0.0,12.0,0.0,0.0,0.0,0,0.0,0.0,0.004416666666666668,242.6,True,2026-01-04 22:43:52 - Flight 2
78.06,1,10,2026-01-04 22:45:10,37.0816,-121.59956,324.0,0.0,337.8,-12.6,0.0,0,0.0,0.0,0.0,11.2,0.2,241.4,0.0,297.0,-0.0,0.01,1.0,0.0,-24.0,13.0,0.0,29.88,127.0,0.0,0.0,230.0,0.0,0.0,0.0,0.0,0.0,0.0,0.0,0.0,0.0,0.0,0.0,0.0,0.0,0.0,0.0,0.0,0.0,0.0,0.0,0.0,0.0,0.0,0.0,0.0,0.0,12.0,0.0,0.0,30.0,0.0,0.0,0.0,29.3,0.0,0.0,38.2,0.0,0.0,-0.4,0.6,0.2,0.0,0.0,0.0,0.0,55.4,57.2,55.4,57.2,55.4,57.2,55.4,57.2,0.0,0.0,-10.0,1.0,0.0,29.3,1.0,0.0,0.0,0.0,0.656,0.703,0.0,12.0,0.0,0.0,0.0,0,0.0,0.0,0.004416666666666668,242.6,True,2026-01-04 22:43:52 - Flight 2
79.06,1,10,2026-01-04 22:45:11,37.0816,-121.59956,324.0,0.0,337.8,-12.6,0.0,0,0.0,0.0,0.0,11.2,0.2,241.4,0.0,297.0,0.0,0.0,1.0,0.0,-7.0,13.0,0.0,29.88,127.0,0.0,0.0,230.0,0.0,0.0,0.0,0.0,0.0,0.0,0.0,0.0,0.0,0.0,0.0,0.0,0.0,0.0,0.0,0.0,0.0,0.0,0.0,0.0,0.0,0.0,0.0,0.0,0.0,12.0,0.0,0.0,30.0,0.0,0.0,0.0,29.2,0.0,0.0,38.2,0.0,0.0,-0.4,0.6,0.2,0.0,0.0,0.0,0.0,55.4,57.2,55.4,57.2,55.4,57.2,55.4,57.2,0.0,0.0,-10.0,1.0,0.0,29.2,1.0,0.0,0.0,0.0,0.656,0.703,0.0,12.1,0.0,0.0,0.0,0,0.0,0.0,0.004416666666666668,242.6,True,2026-01-04 22:43:52 - Flight 2
80.06,1,10,2026-01-04 22:45:12,37.0816,-121.59956,324.0,0.0,337.8,-12.6,0.0,0,0.0,0.0,0.0,11.2,0.2,241.4,0.0,297.0,0.0,0.0,1.0,0.0,22.0,13.0,0.0,29.88,127.0,0.0,0.0,230.0,0.0,0.0,0.0,0.0,0.0,0.0,0.0,0.0,0.0,0.0,0.0,0.0,0.0,0.0,0.0,0.0,0.0,0.0,0.0,0.0,0.0,0.0,0.0,0.0,0.0,12.0,0.0,0.0,30.0,0.0,0.0,0.0,29.1,0.0,0.0,38.2,0.0,0.0,-0.4,0.6,0.2,0.0,0.0,0.0,0.0,55.4,57.2,55.4,57.2,55.4,57.2,55.4,57.2,0.0,0.0,-10.0,1.0,0.0,29.1,1.0,0.0,0.0,0.0,0.656,0.703,0.0,12.1,0.0,0.0,0.0,0,0.0,0.0,0.004416666666666668,242.6,True,2026-01-04 22:43:52 - Flight 2
81.06,1,10,2026-01-04 22:45:13,37.0816,-121.59956,325.0,0.0,337.8,-12.6,0.0,0,0.0,0.0,0.0,11.2,0.3,241.4,0.0,297.0,-0.0,0.0,1.0,0.0,40.0,13.0,0.0,29.88,127.0,0.0,0.0,230.0,0.0,0.0,0.0,0.0,0.0,0.0,0.0,0.0,0.0,0.0,0.0,0.0,0.0,0.0,0.0,0.0,0.0,0.0,0.0,0.0,0.0,0.0,0.0,0.0,0.0,12.0,0.0,0.0,30.0,0.0,0.0,0.0,29.0,0.0,0.0,38.2,0.0,0.0,-0.4,0.6,0.2,0.0,0.0,0.0,0.0,55.4,57.2,55.4,57.2,55.4,57.2,55.4,57.2,0.0,0.0,-10.0,1.0,0.0,29.0,1.0,0.0,0.0,0.0,0.656,0.703,0.0,12.0,0.0,0.0,0.0,0,0.0,0.0,0.004416666666666668,242.6,True,2026-01-04 22:43:52 - Flight 2
82.06,2,10,2026-01-04 22:45:14,37.08161,-121.59956,325.0,0.0,337.8,-12.6,0.0,0,0.0,0.0,0.0,11.2,0.3,241.5,0.0,297.0,-0.0,0.01,1.0,0.0,15.0,13.0,0.0,29.88,127.0,0.0,0.0,230.0,0.0,0.0,0.0,0.0,0.0,0.0,0.0,0.0,0.0,0.0,0.0,0.0,0.0,0.0,0.0,0.0,0.0,0.0,0.0,0.0,0.0,0.0,0.0,0.0,0.0,11.0,193.0,193.0,29.9,0.0,0.0,0.0,29.1,0.0,0.0,38.2,0.0,0.0,-0.4,0.6,0.2,0.0,0.0,0.0,0.0,50.0,53.6,50.0,50.0,50.0,50.0,50.0,50.0,0.0,0.0,-10.0,1.0,0.0,29.1,1.0,0.0,0.0,0.0,0.656,0.702,0.0,10.6,0.0,0.0,0.0,0,0.0,193.0,0.004416666666666668,242.6,True,2026-01-04 22:43:52 - Flight 2
83.06,2,10,2026-01-04 22:45:15,37.08161,-121.59956,326.0,0.0,337.8,-12.6,0.0,0,0.0,0.0,0.0,11.1,0.3,241.5,0.0,297.0,0.0,0.0,1.0,0.0,12.0,13.0,0.0,29.88,127.0,0.0,0.0,230.0,0.0,0.0,0.0,0.0,0.0,0.0,0.0,0.0,0.0,0.0,0.0,0.0,0.0,0.0,0.0,0.0,0.0,0.0,0.0,0.0,0.0,0.0,0.0,0.0,1.0,12.0,840.0,840.0,22.8,0.9,0.0,0.9,23.3,0.0,0.0,38.2,0.0,0.0,-0.5,0.6,0.2,0.0,0.0,0.0,0.0,55.4,107.6,53.6,98.6,55.4,89.6,53.6,93.2,0.0,0.0,-10.0,1.0,0.0,23.3,1.0,0.0,0.0,0.0,0.665,0.703,0.6,11.8,0.0,0.0,0.0,0,0.0,840.0,0.004541666666666668,242.6,True,2026-01-04 22:43:52 - Flight 2
84.06,2,10,2026-01-04 22:45:16,37.08161,-121.59956,326.0,0.1,337.8,-12.6,0.0,0,0.0,0.0,0.0,11.2,0.3,241.5,0.0,297.0,0.0,0.0,1.0,0.0,78.0,13.0,0.0,29.88,129.0,0.0,0.0,230.0,0.0,0.0,0.0,0.0,0.0,0.0,0.0,0.0,0.0,0.0,0.0,0.0,0.0,0.0,0.0,0.0,0.0,0.0,0.0,0.0,0.0,0.0,0.0,0.0,3.0,12.0,988.0,988.0,17.5,1.7,0.0,1.7,23.4,0.0,0.0,38.2,0.0,0.0,-0.4,0.6,0.2,0.0,0.0,0.0,0.0,57.2,203.0,55.4,145.4,55.4,159.8,55.4,149.0,0.0,0.0,-10.0,1.0,0.0,23.4,1.0,0.0,0.0,0.0,0.659,0.703,2.6,12.1,0.0,0.0,0.0,0,0.0,988.0,0.0049027777777777785,242.6,True,2026-01-04 22:43:52 - Flight 2
85.06,2,10,2026-01-04 22:45:17,37.08161,-121.59956,326.0,0.1,337.8,-12.6,0.0,0,0.0,0.0,0.0,11.2,0.3,241.5,0.0,297.0,-0.0,0.01,1.0,0.0,38.0,13.0,0.0,29.88,129.0,0.0,0.0,230.0,0.0,0.0,0.0,0.0,0.0,0.0,0.0,0.0,0.0,0.0,0.0,0.0,0.0,0.0,0.0,0.0,0.0,0.0,0.0,0.0,0.0,0.0,0.0,0.0,5.0,12.0,1020.0,1020.0,16.4,2.3,0.0,2.3,23.8,0.0,0.0,38.2,0.0,0.0,-0.4,0.6,0.2,0.0,0.0,0.0,0.0,57.2,302.0,55.4,185.0,57.2,228.2,57.2,201.2,0.0,0.0,-10.0,1.0,0.0,23.8,1.0,0.0,0.0,0.0,0.662,0.703,5.4,12.1,0.0,0.0,0.0,0,0.0,1020.0,0.005458333333333334,242.6,True,2026-01-04 22:43:52 - Flight 2
86.06,2,10,2026-01-04 22:45:18,37.08161,-121.59956,326.0,0.0,337.8,-12.6,0.0,0,0.0,0.0,0.0,11.2,0.4,241.5,0.0,297.0,-0.0,0.01,1.0,0.0,8.0,13.0,0.0,29.88,129.0,0.0,0.0,230.0,0.0,0.0,0.0,0.0,0.0,0.0,0.0,0.0,0.0,0.0,0.0,0.0,0.0,0.0,0.0,0.0,0.0,0.0,0.0,0.0,0.0,0.0,0.0,0.0,9.0,12.0,1039.0,1039.0,16.0,2.7,0.0,2.7,24.0,0.0,0.0,38.2,0.0,0.0,-0.4,0.6,0.2,0.0,0.0,0.0,0.0,59.0,384.8,57.2,230.0,57.2,287.6,59.0,253.4,0.0,0.0,-10.0,1.0,0.0,24.0,1.0,0.0,0.0,0.0,0.659,0.703,9.0,12.1,0.0,0.0,0.0,0,0.0,1039.0,0.006152777777777779,242.6,True,2026-01-04 22:43:52 - Flight 2
87.06,2,10,2026-01-04 22:45:19,37.0816,-121.59956,336.0,0.1,337.8,-12.6,0.0,0,0.0,0.0,0.0,11.2,0.3,241.4,0.0,297.0,-0.0,0.0,1.0,0.0,-5.0,13.0,0.0,29.88,129.0,0.0,0.0,230.0,0.0,0.0,0.0,0.0,0.0,0.0,0.0,0.0,0.0,0.0,0.0,0.0,0.0,0.0,0.0,0.0,0.0,0.0,0.0,0.0,0.0,0.0,0.0,0.0,14.0,12.0,1071.0,1071.0,15.7,2.9,0.0,2.9,24.1,0.0,0.0,38.2,0.0,0.0,-0.4,0.6,0.2,0.0,0.0,0.0,0.0,59.0,458.6,57.2,278.6,59.0,343.4,60.8,300.2,0.0,0.0,-10.0,0.0,0.0,24.1,1.0,0.0,0.0,0.0,0.662,0.703,13.7,12.1,0.0,0.0,0.0,0,0.0,1071.0,0.006930555555555556,242.6,True,2026-01-04 22:43:52 - Flight 2
88.06,2,10,2026-01-04 22:45:20,37.0816,-121.59956,336.0,0.0,337.8,-12.6,0.0,0,0.0,0.0,0.0,11.2,0.4,241.4,0.0,297.0,-0.0,0.0,0.9,0.0,-9.0,13.0,0.0,29.88,129.0,0.0,0.0,230.0,0.0,0.0,0.0,0.0,0.0,0.0,0.0,0.0,0.0,0.0,0.0,0.0,0.0,0.0,0.0,0.0,0.0,0.0,0.0,0.0,0.0,0.0,0.0,0.0,20.0,12.0,1125.0,1125.0,15.2,3.1,0.0,3.1,24.3,0.0,0.0,38.2,0.0,0.0,-0.4,0.6,0.2,0.0,0.0,0.0,0.0,60.8,518.0,59.0,343.4,59.0,395.6,62.6,345.2,0.0,0.0,-10.0,0.0,0.0,24.3,1.0,0.0,0.0,0.0,0.658,0.703,19.9,12.1,0.0,0.0,0.0,0,0.0,1125.0,0.00776388888888889,242.6,True,2026-01-04 22:43:52 - Flight 2
89.06,2,10,2026-01-04 22:45:21,37.0816,-121.59957,334.0,0.0,337.8,-12.6,0.0,0,0.0,0.0,0.0,11.1,0.4,241.4,0.0,297.0,-0.0,0.01,1.0,0.0,2.0,13.0,0.0,29.88,129.0,0.0,0.0,230.0,0.0,0.0,0.0,0.0,0.0,0.0,0.0,0.0,0.0,0.0,0.0,0.0,0.0,0.0,0.0,0.0,0.0,0.0,0.0,0.0,0.0,0.0,0.0,0.0,28.0,12.0,1152.0,1152.0,14.8,3.2,0.0,3.2,24.4,0.0,0.0,38.2,0.0,0.0,-0.4,0.6,0.2,0.0,0.0,0.0,0.0,60.8,572.0,59.0,399.2,60.8,444.2,62.6,388.4,0.0,0.0,-10.0,0.0,0.0,24.4,2.0,0.0,0.0,0.0,0.662,0.703,28.1,12.1,0.0,0.0,0.0,0,0.0,1152.0,0.00863888888888889,242.6,True,2026-01-04 22:43:52 - Flight 2
90.06,2,10,2026-01-04 22:45:22,37.0816,-121.59957,333.0,0.0,337.8,-12.6,0.0,0,0.0,0.0,0.0,11.1,0.4,241.4,0.0,297.0,-0.0,0.0,1.0,0.0,34.0,13.0,0.0,29.88,129.0,0.0,0.0,230.0,0.0,0.0,0.0,0.0,0.0,0.0,0.0,0.0,0.0,0.0,0.0,0.0,0.0,0.0,0.0,0.0,0.0,0.0,0.0,0.0,0.0,0.0,0.0,0.0,38.0,12.0,1152.0,1152.0,14.3,3.3,0.0,3.3,24.6,0.0,0.0,38.2,0.0,0.0,-0.4,0.6,0.2,0.0,0.0,0.0,0.0,60.8,620.6,59.0,447.8,60.8,491.0,64.4,429.8,0.0,0.0,-10.0,0.0,0.0,24.6,1.0,0.0,0.0,0.0,0.663,0.703,38.3,12.1,0.0,0.0,0.0,0,0.0,1152.0,0.009541666666666669,242.6,True,2026-01-04 22:43:52 - Flight 2
91.06,2,10,2026-01-04 22:45:23,37.0816,-121.59957,332.0,0.0,337.8,-12.6,0.0,0,0.0,0.0,0.0,11.1,0.4,241.3,0.0,297.0,-0.0,0.01,1.0,0.0,41.0,13.0,0.0,29.88,129.0,0.0,0.0,230.0,0.0,0.0,0.0,0.0,0.0,0.0,0.0,0.0,0.0,0.0,0.0,0.0,0.0,0.0,0.0,0.0,0.0,0.0,0.0,0.0,0.0,0.0,0.0,0.0,49.0,12.0,1120.0,1120.0,13.9,3.3,0.0,3.3,24.8,0.0,0.0,38.2,0.0,0.0,-0.4,0.6,0.2,0.0,0.0,0.0,0.0,62.6,658.4,60.8,491.0,62.6,534.2,64.4,467.6,0.0,0.0,-10.0,0.0,0.0,24.8,1.0,0.0,0.0,0.0,0.66,0.703,49.3,12.2,0.0,0.0,0.0,0,0.0,1120.0,0.010458333333333335,242.6,True,2026-01-04 22:43:52 - Flight 2
92.06,2,10,2026-01-04 22:45:24,37.0816,-121.59957,332.0,0.0,337.8,-12.6,0.0,0,0.0,0.0,0.0,11.1,0.4,241.3,0.0,297.0,-0.0,0.0,1.0,0.0,60.0,13.0,0.0,29.88,129.0,0.0,0.0,230.0,0.0,0.0,0.0,0.0,0.0,0.0,0.0,0.0,0.0,0.0,0.0,0.0,0.0,0.0,0.0,0.0,0.0,0.0,0.0,0.0,0.0,0.0,0.0,0.0,59.0,12.0,1112.0,1112.0,13.7,3.3,0.0,3.3,24.9,0.0,0.0,38.2,0.0,0.0,-0.4,0.6,0.2,0.0,0.0,0.0,0.0,62.6,692.6,60.8,532.4,62.6,572.0,66.2,501.8,0.0,0.0,-10.0,0.0,0.0,24.9,2.0,0.0,0.0,0.0,0.657,0.703,59.3,12.2,0.0,0.0,0.0,0,0.0,1112.0,0.011375000000000001,242.6,True,2026-01-04 22:43:52 - Flight 2
93.06,2,10,2026-01-04 22:45:25,37.0816,-121.59957,331.0,0.0,337.8,-12.6,0.0,0,0.0,0.0,0.0,11.1,0.4,241.3,0.0,297.0,-0.0,0.0,1.0,0.0,63.0,13.0,0.0,29.88,129.0,0.0,0.0,230.0,0.0,0.0,0.0,0.0,0.0,0.0,0.0,0.0,0.0,0.0,0.0,0.0,0.0,0.0,0.0,0.0,0.0,0.0,0.0,0.0,0.0,0.0,0.0,0.0,67.0,12.0,1086.0,1086.0,13.4,3.2,0.0,3.2,25.0,0.0,0.0,38.2,0.0,0.0,-0.4,0.6,0.2,0.0,0.0,0.0,0.0,64.4,721.4,62.6,568.4,64.4,608.0,66.2,534.2,0.0,0.0,-10.0,0.0,0.0,25.0,1.0,0.0,0.0,0.0,0.654,0.703,66.6,12.2,0.0,0.0,0.0,0,0.0,1086.0,0.01227777777777778,242.6,True,2026-01-04 22:43:52 - Flight 2
94.06,2,10,2026-01-04 22:45:26,37.0816,-121.59957,331.0,0.0,337.8,-12.6,0.0,0,0.0,0.0,0.0,11.2,0.4,241.4,0.0,297.0,0.0,-0.0,0.9,0.0,28.0,13.0,0.0,29.88,129.0,0.0,0.0,230.0,0.0,0.0,0.0,0.0,0.0,0.0,0.0,0.0,0.0,0.0,0.0,0.0,0.0,0.0,0.0,0.0,0.0,0.0,0.0,0.0,0.0,0.0,0.0,0.0,71.0,12.0,1067.0,1067.0,13.3,3.2,0.0,3.2,25.0,0.0,0.0,38.2,0.0,0.0,-0.4,0.6,0.2,0.0,0.0,0.0,0.0,64.4,746.6,62.6,600.8,64.4,640.4,68.0,563.0,0.0,0.0,-10.0,0.0,0.0,25.0,1.0,0.0,0.0,0.0,0.656,0.703,71.0,12.2,0.0,0.0,0.0,0,0.0,1067.0,0.013166666666666669,242.6,True,2026-01-04 22:43:52 - Flight 2
95.06,2,10,2026-01-04 22:45:27,37.0816,-121.59957,332.0,0.0,337.8,-12.6,0.0,0,0.0,0.0,0.0,11.1,0.4,241.4,0.0,297.0,-0.0,0.0,1.0,0.0,39.0,13.0,0.0,29.88,129.0,0.0,0.0,230.0,0.0,0.0,0.0,0.0,0.0,0.0,0.0,0.0,0.0,0.0,0.0,0.0,0.0,0.0,0.0,0.0,0.0,0.0,0.0,0.0,0.0,0.0,0.0,0.0,73.0,12.0,1044.0,1044.0,13.3,3.1,0.0,3.1,25.1,0.0,0.0,38.2,0.0,0.0,-0.4,0.6,0.2,0.0,0.0,0.0,0.0,66.2,768.2,64.4,629.6,66.2,665.6,69.8,590.0,0.0,0.0,-10.0,0.0,0.0,25.1,1.0,0.0,0.0,0.0,0.657,0.703,73.2,12.2,0.0,0.0,0.0,0,0.0,1044.0,0.01404166666666667,242.6,True,2026-01-04 22:43:52 - Flight 2
96.06,2,10,2026-01-04 22:45:28,37.0816,-121.59957,333.0,0.0,337.8,-12.6,0.0,0,0.0,0.0,0.0,11.2,0.3,241.4,0.0,297.0,-0.0,0.0,1.0,0.0,26.0,13.0,0.0,29.88,129.0,0.0,0.0,230.0,0.0,0.0,0.0,0.0,0.0,0.0,0.0,0.0,0.0,0.0,0.0,0.0,0.0,0.0,0.0,0.0,0.0,0.0,0.0,0.0,0.0,0.0,0.0,0.0,74.0,12.0,1009.0,1009.0,13.2,3.0,0.0,3.0,25.1,0.0,0.0,38.2,0.0,0.0,-0.4,0.6,0.2,0.0,0.0,0.0,0.0,68.0,784.4,64.4,656.6,66.2,689.0,69.8,613.4,0.0,0.0,-10.0,0.0,0.0,25.1,1.0,0.0,0.0,0.0,0.656,0.703,74.2,12.2,0.0,0.0,0.0,0,0.0,1009.0,0.014888888888888892,242.6,True,2026-01-04 22:43:52 - Flight 2
97.06,2,10,2026-01-04 22:45:29,37.0816,-121.59957,333.0,0.0,337.8,-12.6,0.0,0,0.0,0.0,0.0,11.2,0.2,241.4,0.0,297.0,-0.0,0.0,1.0,0.0,40.0,13.0,0.0,29.88,129.0,0.0,0.0,230.0,0.0,0.0,0.0,0.0,0.0,0.0,0.0,0.0,0.0,0.0,0.0,0.0,0.0,0.0,0.0,0.0,0.0,0.0,0.0,0.0,0.0,0.0,0.0,0.0,75.0,12.0,1006.0,1006.0,13.1,2.9,0.0,2.9,25.1,0.0,0.0,38.2,0.0,0.0,-0.4,0.6,0.2,0.0,0.0,0.0,0.0,68.0,800.6,66.2,681.8,68.0,708.8,71.6,635.0,0.0,0.0,-10.0,0.0,0.0,25.1,2.0,0.0,0.0,0.0,0.656,0.703,74.8,12.2,0.0,0.0,0.0,0,0.0,1006.0,0.015708333333333338,242.6,True,2026-01-04 22:43:52 - Flight 2
98.06,2,10,2026-01-04 22:45:30,37.0816,-121.59956,330.0,0.1,337.8,-12.6,0.0,0,0.0,0.0,0.0,11.2,0.3,241.5,0.0,298.0,-0.0,0.0,1.0,0.0,35.0,13.0,0.0,29.88,129.0,0.0,0.0,230.0,0.0,0.0,0.0,0.0,0.0,0.0,0.0,0.0,0.0,0.0,0.0,0.0,0.0,0.0,0.0,0.0,0.0,0.0,0.0,0.0,0.0,0.0,0.0,0.0,75.0,12.0,1001.0,1001.0,13.1,2.9,0.0,2.9,25.2,0.0,0.0,38.2,0.0,0.0,-0.4,0.6,0.2,0.0,0.0,0.0,0.0,69.8,815.0,66.2,703.4,68.0,725.0,71.6,654.8,0.0,0.0,-10.0,0.0,0.0,25.2,1.0,0.0,0.0,0.0,0.656,0.703,75.0,12.3,0.0,0.0,0.0,0,0.0,1001.0,0.016513888888888894,242.6,True,2026-01-04 22:43:52 - Flight 2
99.06,2,10,2026-01-04 22:45:31,37.0816,-121.59957,332.0,0.0,337.8,-12.6,0.0,0,0.0,0.0,0.0,11.2,0.3,241.4,0.0,299.0,-0.0,0.0,1.0,0.0,39.0,13.0,0.0,29.88,131.0,0.0,0.0,230.0,0.0,0.0,0.0,0.0,0.0,0.0,0.0,0.0,0.0,0.0,0.0,0.0,0.0,0.0,0.0,0.0,0.0,0.0,0.0,0.0,0.0,0.0,0.0,0.0,75.0,12.0,1007.0,1007.0,13.1,2.8,0.0,2.8,25.2,0.0,0.0,38.2,0.0,0.0,-0.4,0.6,0.2,0.0,0.0,0.0,0.0,69.8,827.6,68.0,721.4,69.8,743.0,73.4,676.4,0.0,0.0,-10.0,0.0,0.0,25.2,1.0,0.0,0.0,0.0,0.654,0.703,75.2,12.3,0.0,0.0,0.0,0,0.0,1007.0,0.01730555555555556,242.6,True,2026-01-04 22:43:52 - Flight 2
100.06,2,10,2026-01-04 22:45:32,37.0816,-121.59957,332.0,0.0,337.8,-12.6,0.0,0,0.0,0.0,0.0,11.2,0.3,241.4,0.0,299.0,-0.0,0.0,0.9,0.0,52.0,13.0,0.0,29.88,131.0,0.0,0.0,230.0,0.0,0.0,0.0,0.0,0.0,0.0,0.0,0.0,0.0,0.0,0.0,0.0,0.0,0.0,0.0,0.0,0.0,0.0,0.0,0.0,0.0,0.0,0.0,0.0,75.0,12.0,987.0,987.0,13.1,2.8,0.0,2.8,25.2,0.0,0.0,38.2,0.0,0.0,-0.4,0.6,0.2,0.0,0.0,0.0,0.0,71.6,836.6,69.8,735.8,69.8,757.4,73.4,692.6,0.0,0.0,-10.0,0.0,0.0,25.2,2.0,0.0,0.0,0.0,0.653,0.703,75.2,12.3,0.0,0.0,0.0,0,0.0,987.0,0.018083333333333337,242.6,True,2026-01-04 22:43:52 - Flight 2
101.06,2,10,2026-01-04 22:45:33,37.0816,-121.59957,331.0,0.0,337.8,-12.6,0.0,0,0.0,0.0,0.0,11.1,0.3,241.4,0.0,301.0,-0.0,0.0,1.0,0.0,57.0,13.0,0.0,29.88,131.0,0.0,0.0,230.0,0.0,0.0,0.0,0.0,0.0,0.0,0.0,0.0,0.0,0.0,0.0,0.0,0.0,0.0,0.0,0.0,0.0,0.0,0.0,0.0,0.0,0.0,0.0,0.0,75.0,12.0,976.0,976.0,13.1,2.7,0.0,2.7,25.2,0.0,0.0,38.2,0.0,0.0,-0.4,0.6,0.2,0.0,0.0,0.0,0.0,71.6,847.4,69.8,752.0,71.6,770.0,75.2,710.6,0.0,0.0,-10.0,0.0,0.0,25.2,2.0,0.0,0.0,0.0,0.654,0.703,75.3,12.3,0.0,0.0,0.0,0,0.0,976.0,0.018847222222222227,242.6,True,2026-01-04 22:43:52 - Flight 2
102.06,2,10,2026-01-04 22:45:34,37.0816,-121.59957,330.0,0.0,337.8,-12.6,0.0,0,0.0,0.0,0.0,11.1,0.3,241.4,0.0,301.0,0.0,0.0,1.0,0.0,44.0,13.0,0.0,29.88,134.0,0.0,0.0,230.0,0.0,0.0,0.0,0.0,0.0,0.0,0.0,0.0,0.0,0.0,0.0,0.0,0.0,0.0,0.0,0.0,0.0,0.0,0.0,0.0,0.0,0.0,0.0,0.0,75.0,12.0,985.0,985.0,13.1,2.7,0.0,2.7,25.3,0.0,0.0,38.2,0.0,0.0,-0.4,0.6,0.2,0.0,0.0,0.0,0.0,73.4,856.4,71.6,764.6,71.6,780.8,75.2,725.0,0.0,0.0,-10.0,0.0,0.0,25.3,2.0,0.0,0.0,0.0,0.654,0.703,75.4,12.3,0.0,0.0,0.0,0,0.0,985.0,0.019597222222222228,242.6,True,2026-01-04 22:43:52 - Flight 2
103.06,2,10,2026-01-04 22:45:35,37.0816,-121.59957,330.0,0.0,337.8,-12.6,0.0,0,0.0,0.0,0.0,11.2,0.3,241.4,0.0,302.0,0.0,0.0,1.0,0.0,42.0,13.0,0.0,29.88,134.0,0.0,0.0,230.0,0.0,0.0,0.0,0.0,0.0,0.0,0.0,0.0,0.0,0.0,0.0,0.0,0.0,0.0,0.0,0.0,0.0,0.0,0.0,0.0,0.0,0.0,0.0,0.0,75.0,12.0,956.0,956.0,13.0,2.6,0.0,2.6,25.3,0.0,0.0,38.2,0.0,0.0,-0.4,0.6,0.2,0.0,0.0,0.0,0.0,75.2,867.2,71.6,773.6,73.4,789.8,77.0,739.4,0.0,0.0,-10.0,0.0,0.0,25.3,2.0,0.0,0.0,0.0,0.654,0.703,75.4,12.4,0.0,0.0,0.0,0,0.0,956.0,0.02033333333333334,242.6,True,2026-01-04 22:43:52 - Flight 2
104.06,2,10,2026-01-04 22:45:36,37.08158,-121.59956,332.0,0.0,337.8,-12.6,0.0,0,0.0,0.0,0.0,11.2,0.3,241.4,0.0,303.0,-0.0,0.01,1.0,0.0,34.0,13.0,0.0,29.88,134.0,0.0,0.0,230.0,0.0,0.0,0.0,0.0,0.0,0.0,0.0,0.0,0.0,0.0,0.0,0.0,0.0,0.0,0.0,0.0,0.0,0.0,0.0,0.0,0.0,0.0,0.0,0.0,75.0,12.0,951.0,951.0,13.1,2.6,0.0,2.6,25.3,0.0,0.0,38.2,0.0,0.0,-0.4,0.6,0.2,0.0,0.0,0.0,0.0,75.2,874.4,73.4,784.4,73.4,800.6,77.0,753.8,0.0,0.0,-10.0,0.0,0.0,25.3,2.0,0.0,0.0,0.0,0.66,0.703,75.4,12.4,0.0,0.0,0.0,0,0.0,951.0,0.02105555555555556,242.6,True,2026-01-04 22:43:52 - Flight 2
105.06,2,10,2026-01-04 22:45:37,37.08158,-121.59956,332.0,0.0,337.8,-12.6,0.0,0,0.0,0.0,0.0,11.1,0.3,241.4,0.0,303.0,-0.0,0.0,1.0,0.0,12.0,13.0,0.0,29.88,136.0,0.0,0.0,230.0,0.0,0.0,0.0,0.0,0.0,0.0,0.0,0.0,0.0,0.0,0.0,0.0,0.0,0.0,0.0,0.0,0.0,0.0,0.0,0.0,0.0,0.0,0.0,0.0,75.0,12.0,938.0,938.0,13.1,2.6,0.0,2.6,25.3,0.0,0.0,38.2,0.0,0.0,-0.4,0.6,0.2,0.0,0.0,0.0,0.0,77.0,881.6,73.4,793.4,75.2,807.8,78.8,766.4,0.0,0.0,-10.0,0.0,0.0,25.3,2.0,0.0,0.0,0.0,0.657,0.703,75.4,12.4,0.0,0.0,0.0,0,0.0,938.0,0.02177777777777778,242.6,True,2026-01-04 22:43:52 - Flight 2
