Session Time,GPS Fix Quality,Number of Satellites,GPS Date & Time,Latitude (deg),Longitude (deg),GPS Altitude (feet),Ground Speed (knots),Ground Track (deg),Mag Var (deg),Cross Track Error (NM),Destination Waypoint ID,Range to Destination (NM),Bearing to Destination (deg),System Time,Pitch (deg),Roll (deg),Magnetic Heading (deg),Indicated Airspeed (knots),Pressure Altitude (ft),Turn Rate (deg/s),Lateral Accel (g),Vertical Accel(g),Angle of Attack (%),Vertical Speed (ft/min),OAT (deg C),True Airspeed (knots),Barometer Setting (inHg),Density Altitude (ft),Wind Direction (deg),Wind Speed (knots),Heading Bug (deg),Altitude Bug (ft),Airspeed Bug (knots),Vertical Speed Bug (ft/min),Course (deg),CDI Source Type,CDI Source Port,CDI Scale (NM),CDI Deflection (%),Glideslope (%),AP Engaged,AP Roll Mode,AP Roll Force,AP Roll Position (steps),AP Roll Slip (bool),AP Pitch Force,AP Pitch Position (steps),AP Pitch Slip (bool),AP Yaw Force,AP Yaw Position,AP Yaw Slip (bool),Transponder Status,Transponder Reply (bool),Transponder Identing (bool),Transponder Code (octal),Oil Pressure (PSI),Oil Temp (deg C),RPM L,RPM R,Manifold Pressure (inHg),Fuel Flow 1 (gal/hr),Fuel Flow 2 (gal/hr),Total Fuel Flow (gal/hr),Fuel Pressure (PSI),Fuel Level L (gal),Fuel Level R (gal),Fuel Remaining (gal),Volts 1,Volts 2,Amps,Hobbs Time,Tach Time,Thermocouple 1 (deg C),Thermocouple 2 (deg C),Thermocouple 3 (deg C),Thermocouple 4 (deg C),CHT 4 (deg C),EGT 4 (deg C),CHT 3 (deg C),EGT 3 (deg C),CHT 2 (deg C),EGT 2 (deg C),CHT 1 (deg C),EGT 1 (deg C),Thermocouple 13 (deg C),Thermocouple 14 (deg C),ELEV POSITION (%),CO PPM PRESSURE (PSI),GP Input 3,FUEL PRESSURE (PSI),AILERN POSITION (%),CANOPY CONTACT (V),GP Input 7,GP Input 8,LEFT LEVEL (Sensor V),RIGHT LEVEL (Sensor V),OIL PRESSURE (PSI),OIL TEMPERATURE (deg C),GP Input 13,Contacts,Percent Power,EGT Leaning State,Unnamed: 103,OAT (deg F),Oil Temp (deg F),Thermocouple 1 (deg F),Thermocouple 2 (deg F),Thermocouple 3 (deg F),Thermocouple 4 (deg F),CHT 4 (deg F),EGT 4 (deg F),CHT 3 (deg F),EGT 3 (deg F),CHT 2 (deg F),EGT 2 (deg F),CHT 1 (deg F),EGT 1 (deg F),Thermocouple 13 (deg F),Thermocouple 14 (deg F),OIL TEMPERATURE (deg F),RPM,AVG_CHT,CHT_Delta_T,OIL_Delta_T,Fuel Flow Integral,Distance Traveled,Max CHT,Engine Run,Flight ID,Fuel Flow,MPG
4.06,1,9,2026-04-09 22:15:49,37.08161,-121.59965,285.0,0.0,239.3,-12.6,,,,,0.0,10.7,-0.8,8.2,0.0,301.0,0.1,-0.01,1.0,,-108.0,28.0,0.0,30.09,1930.0,,,317.0,,125.0,-700.0,,0.0,0.0,,,,,,,,,,,,,,,,,,,,,0.0,0.0,,0.0,,0.0,,,,23.4,0.0,0.0,-0.2,9.2,7.4,,,,,24.0,25.0,24.0,25.0,24.0,25.0,24.0,25.0,,,9.0,254.3,,0.0,11.0,0.001,,,0.653,1.412,0.0,23.2,,,,,,82.4,,,,,,75.2,77.0,75.2,77.0,75.2,77.0,75.2,77.0,,,73.75999999999999,0.0,75.2,-7.200000000000003,,0.0,0.0,397.4,True,2026-04-09 22:15:49,0.0,0.0
5.06,1,9,2026-04-09 22:15:50,37.08161,-121.59965,260.0,0.0,239.3,-12.6,,,,,0.0,10.7,-0.8,8.3,0.0,298.0,0.1,-0.01,1.0,99.0,-151.0,28.0,0.0,30.09,1930.0,,,317.0,,,,,0.0,0.0,,,,,,,,,,,,,,,,,,,0.0,23.0,0.0,0.0,30.0,0.0,,0.0,0.0,,,23.4,0.0,0.0,-0.2,9.2,7.4,,,,,24.0,25.0,24.0,25.0,24.0,25.0,24.0,25.0,,,9.0,254.3,,0.0,11.0,0.001,,,0.653,1.411,0.0,23.2,,,,,,82.4,73.4,,,,,75.2,77.0,75.2,77.0,75.2,77.0,75.2,77.0,,,73.75999999999999,0.0,75.2,-7.200000000000003,-9.0,0.0,0.0,397.4,True,2026-04-09 22:15:49,0.0,0.0
6.06,1,9,2026-04-09 22:15:51,37.08161,-121.59965,261.0,0.0,239.3,-12.6,,,,,0.0,10.8,-0.8,8.3,0.0,296.0,0.1,-0.01,1.0,99.0,-114.0,28.0,0.0,30.09,1930.0,,,317.0,,,,,0.0,0.0,,,,,,,,,,,,,,,,,,,0.0,23.0,0.0,0.0,30.0,0.0,,0.0,0.0,,,23.4,0.0,0.0,-0.2,9.2,7.4,,,,,24.0,25.0,24.0,25.0,24.0,25.0,25.0,25.0,,,9.0,254.3,,0.0,11.0,0.001,,,0.653,1.411,0.0,23.1,,,,,,82.4,73.4,,,,,75.2,77.0,75.2,77.0,75.2,77.0,77.0,77.0,,,73.58,0.0,75.64999999999999,-6.750000000000014,-9.0,0.0,0.0,397.4,True,2026-04-09 22:15:49,0.0,0.0
7.06,1,9,2026-04-09 22:15:52,37.08161,-121.59965,262.0,0.0,239.3,-12.6,,,,,0.0,10.8,-0.8,8.2,0.0,294.0,0.1,-0.01,1.0,99.0,-137.0,28.0,0.0,30.09,1931.0,,,317.0,,,,,0.0,0.0,,,,,,,,,,,,,,,,,,,0.0,23.0,0.0,0.0,30.0,0.0,,0.0,0.0,,,23.4,0.0,0.0,-0.2,9.2,7.4,,,,,24.0,25.0,24.0,25.0,24.0,25.0,24.0,25.0,,,9.0,254.3,,0.0,11.0,0.001,,,0.653,1.411,0.0,23.1,,,,,,82.4,73.4,,,,,75.2,77.0,75.2,77.0,75.2,77.0,75.2,77.0,,,73.58,0.0,75.2,-7.200000000000003,-9.0,0.0,0.0,397.4,True,2026-04-09 22:15:49,0.0,0.0
8.06,1,9,2026-04-09 22:15:53,37.08161,-121.59965,262.0,0.0,239.3,-12.6,,,,,0.0,10.8,-0.8,8.2,0.0,293.0,0.1,-0.01,1.0,99.0,-117.0,28.0,0.0,30.09,1931.0,,,317.0,,,,,0.0,0.0,,,,,,,,,,,,,,,,,,,0.0,23.0,0.0,0.0,30.0,0.0,,0.0,0.0,,,23.4,0.0,0.0,-0.2,9.2,7.4,,,,,24.0,25.0,24.0,25.0,24.0,25.0,25.0,25.0,,,9.0,254.3,,0.0,11.0,0.001,,,0.653,1.411,0.0,23.1,,,,,,82.4,73.4,,,,,75.2,77.0,75.2,77.0,75.2,77.0,77.0,77.0,,,73.58,0.0,75.64999999999999,-6.750000000000014,-9.0,0.0,0.0,397.4,True,2026-04-09 22:15:49,0.0,0.0
9.06,1,9,2026-04-09 22:15:54,37.08161,-121.59965,261.0,0.0,239.3,-12.6,,,,,0.0,10.7,-0.9,8.1,0.0,291.0,0.0,-0.01,1.0,99.0,-101.0,28.0,0.0,30.09,1931.0,,,317.0,,,,,0.0,0.0,,,,,,,,,,,,,,,,,,,0.0,23.0,0.0,0.0,30.0,0.0,,0.0,0.0,,,23.4,0.0,0.0,-0.2,9.2,7.4,,,,,24.0,25.0,24.0,25.0,24.0,25.0,24.0,25.0,,,9.0,254.3,,0.0,11.0,0.001,,,0.653,1.411,0.0,23.1,,,,,,82.4,73.4,,,,,75.2,77.0,75.2,77.0,75.2,77.0,75.2,77.0,,,73.58,0.0,75.2,-7.200000000000003,-9.0,0.0,0.0,397.4,True,2026-04-09 22:15:49,0.0,0.0
10.06,1,9,2026-04-09 22:15:55,37.08161,-121.59966,260.0,0.0,239.3,-12.6,,,,,0.0,10.8,-0.8,8.1,0.0,290.0,0.1,-0.01,1.0,99.0,-82.0,28.0,0.0,30.09,1934.0,,,317.0,,,,,0.0,0.0,,,,,,,,,,,,,,,,,,,0.0,23.0,0.0,0.0,30.0,0.0,,0.0,0.0,,,23.4,0.0,0.0,-0.2,9.2,7.4,,,,,24.0,25.0,24.0,25.0,24.0,25.0,25.0,25.0,,,9.0,254.3,,0.0,11.0,0.001,,,0.653,1.411,0.0,23.1,,,,,,82.4,73.4,,,,,75.2,77.0,75.2,77.0,75.2,77.0,77.0,77.0,,,73.58,0.0,75.64999999999999,-6.750000000000014,-9.0,0.0,0.0,397.4,True,2026-04-09 22:15:49,0.0,0.0
11.06,1,9,2026-04-09 22:15:56,37.08161,-121.59966,258.0,0.0,239.3,-12.6,,,,,0.0,10.8,-0.8,8.1,0.0,290.0,0.1,-0.01,1.0,99.0,-62.0,28.0,0.0,30.09,1934.0,,,317.0,,,,,0.0,0.0,,,,,,,,,,,,,,,,,,,0.0,23.0,0.0,0.0,30.0,0.0,,0.0,0.0,,,23.4,0.0,0.0,-0.2,9.2,7.4,,,,,24.0,25.0,24.0,25.0,24.0,25.0,25.0,25.0,,,9.0,254.2,,0.0,11.0,0.001,,,0.653,1.411,0.0,23.0,,,,,,82.4,73.4,,,,,75.2,77.0,75.2,77.0,75.2,77.0,77.0,77.0,,,73.4,0.0,75.64999999999999,-6.750000000000014,-9.0,0.0,0.0,397.4,True,2026-04-09 22:15:49,0.0,0.0
12.06,1,9,2026-04-09 22:15:57,37.08161,-121.59966,258.0,0.0,239.3,-12.6,,,,,0.0,10.7,-0.8,8.1,0.0,290.0,0.1,-0.01,1.0,99.0,-35.0,28.0,0.0,30.09,1934.0,,,317.0,,,,,0.0,0.0,,,,,,,,,,,,,,,,,,,0.0,23.0,0.0,0.0,30.0,0.0,,0.0,0.0,,,23.4,0.0,0.0,-0.2,9.2,7.4,,,,,24.0,25.0,24.0,26.0,24.0,25.0,25.0,26.0,,,9.0,254.2,,0.0,11.0,0.001,,,0.653,1.411,0.0,23.0,,,,,,82.4,73.4,,,,,75.2,77.0,75.2,78.8,75.2,77.0,77.0,78.8,,,73.4,0.0,75.64999999999999,-6.750000000000014,-9.0,0.0,0.0,397.4,True,2026-04-09 22:15:49,0.0,0.0
13.06,1,9,2026-04-09 22:15:58,37.08161,-121.59966,257.0,0.0,239.3,-12.6,,,,,0.0,10.8,-0.9,8.0,0.0,290.0,0.0,-0.01,1.0,99.0,-23.0,28.0,0.0,30.09,1934.0,,,317.0,,,,,0.0,0.0,,,,,,,,,,,,,,,,,,,0.0,23.0,0.0,0.0,30.0,0.0,,0.0,0.0,,,23.4,0.0,0.0,-0.2,9.2,7.4,,,,,24.0,25.0,24.0,25.0,24.0,25.0,25.0,25.0,,,9.0,254.2,,0.0,11.0,0.001,,,0.653,1.411,0.0,23.0,,,,,,82.4,73.4,,,,,75.2,77.0,75.2,77.0,75.2,77.0,77.0,77.0,,,73.4,0.0,75.64999999999999,-6.750000000000014,-9.0,0.0,0.0,397.4,True,2026-04-09 22:15:49,0.0,0.0
14.06,1,9,2026-04-09 22:15:59,37.08161,-121.59966,257.0,0.1,239.3,-12.6,,,,,0.0,10.8,-0.9,8.0,0.0,289.0,0.1,-0.01,1.0,99.0,-48.0,28.0,0.0,30.09,1934.0,,,317.0,,,,,0.0,0.0,,,,,,,,,,,,,,,,,,,0.0,23.0,0.0,0.0,30.0,0.0,,0.0,0.0,,,23.4,0.0,0.0,-0.2,9.2,7.4,,,,,24.0,25.0,24.0,25.0,24.0,25.0,25.0,25.0,,,9.0,254.2,,0.0,11.0,0.001,,,0.653,1.411,0.0,23.0,,,,,,82.4,73.4,,,,,75.2,77.0,75.2,77.0,75.2,77.0,77.0,77.0,,,73.4,0.0,75.64999999999999,-6.750000000000014,-9.0,0.0,0.08433333333333333,397.4,True,2026-04-09 22:15:49,0.0,0.0
15.06,1,9,2026-04-09 22:16:00,37.08161,-121.59966,258.0,0.0,239.3,-12.6,,,,,0.0,10.7,-0.9,8.0,0.0,286.0,0.1,-0.01,1.0,99.0,-86.0,28.0,0.0,30.09,1934.0,,,317.0,,,,,0.0,0.0,,,,,,,,,,,,,,,,,,,0.0,23.0,0.0,0.0,30.0,0.0,,0.0,0.0,,,23.4,0.0,0.0,-0.2,9.2,7.4,,,,,24.0,25.0,24.0,25.0,24.0,25.0,25.0,25.0,,,9.0,254.2,,0.0,11.0,0.001,,,0.653,1.411,0.0,23.0,,,,,,82.4,73.4,,,,,75.2,77.0,75.2,77.0,75.2,77.0,77.0,77.0,,,73.4,0.0,75.64999999999999,-6.750000000000014,-9.0,0.0,0.16866666666666666,397.4,True,2026-04-09 22:15:49,0.0,0.0
16.06,1,9,2026-04-09 22:16:01,37.08162,-121.59966,259.0,0.0,239.3,-12.6,,,,,0.0,10.8,-0.9,8.0,0.0,285.0,0.1,-0.01,1.0,99.0,-95.0,28.0,0.0,30.09,1928.0,,,317.0,,,,,0.0,0.0,,,,,,,,,,,,,,,,,,,0.0,23.0,0.0,0.0,30.0,0.0,,0.0,0.0,,,23.4,0.0,0.0,-0.2,9.2,7.4,,,,,24.0,25.0,24.0,25.0,24.0,25.0,25.0,25.0,,,10.0,254.2,,0.0,11.0,0.001,,,0.653,1.411,0.0,23.0,,,,,,82.4,73.4,,,,,75.2,77.0,75.2,77.0,75.2,77.0,77.0,77.0,,,73.4,0.0,75.64999999999999,-6.750000000000014,-9.0,0.0,0.16866666666666666,397.4,True,2026-04-09 22:15:49,0.0,0.0
17.06,1,9,2026-04-09 22:16:02,37.08162,-121.59966,259.0,0.1,239.3,-12.6,,,,,0.0,10.8,-0.9,8.0,0.0,283.0,0.1,-0.01,1.0,99.0,-91.0,28.0,0.0,30.09,1928.0,,,317.0,,,,,0.0,0.0,,,,,,,,,,,,,,,,,,,0.0,23.0,0.0,0.0,30.0,0.0,,0.0,0.0,,,23.4,0.0,0.0,-0.2,9.2,7.4,,,,,24.0,25.0,24.0,26.0,24.0,25.0,25.0,26.0,,,10.0,254.2,,0.0,11.0,0.001,,,0.653,1.411,0.0,23.0,,,,,,82.4,73.4,,,,,75.2,77.0,75.2,78.8,75.2,77.0,77.0,78.8,,,73.4,0.0,75.64999999999999,-6.750000000000014,-9.0,0.0,0.253,397.4,True,2026-04-09 22:15:49,0.0,0.0
18.06,1,9,2026-04-09 22:16:03,37.08162,-121.59966,260.0,0.0,239.3,-12.6,,,,,0.0,10.8,-0.9,8.0,0.0,281.0,0.1,-0.01,1.0,99.0,-85.0,28.0,0.0,30.09,1928.0,,,317.0,,,,,0.0,0.0,,,,,,,,,,,,,,,,,,,0.0,23.0,0.0,0.0,30.0,0.0,,0.0,0.0,,,23.4,0.0,0.0,-0.2,9.2,7.4,,,,,24.0,25.0,24.0,25.0,24.0,25.0,25.0,25.0,,,10.0,254.2,,0.0,11.0,0.001,,,0.653,1.41,0.0,23.0,,,,,,82.4,73.4,,,,,75.2,77.0,75.2,77.0,75.2,77.0,77.0,77.0,,,73.4,0.0,75.64999999999999,-6.750000000000014,-9.0,0.0,0.3373333333333333,397.4,True,2026-04-09 22:15:49,0.0,0.0
19.06,1,9,2026-04-09 22:16:04,37.08162,-121.59966,262.0,0.0,239.3,-12.6,,,,,0.0,10.8,-0.9,8.0,0.0,281.0,0.0,-0.01,1.0,99.0,-54.0,28.0,0.0,30.09,1925.0,,,317.0,,,,,0.0,0.0,,,,,,,,,,,,,,,,,,,0.0,23.0,0.0,0.0,30.0,0.0,,0.0,0.0,,,23.4,0.0,0.0,-0.2,9.2,7.4,,,,,24.0,25.0,24.0,25.0,24.0,25.0,25.0,25.0,,,10.0,254.2,,0.0,11.0,0.001,,,0.653,1.411,0.0,23.0,,,,,,82.4,73.4,,,,,75.2,77.0,75.2,77.0,75.2,77.0,77.0,77.0,,,73.4,0.0,75.64999999999999,-6.750000000000014,-9.0,0.0,0.3373333333333333,397.4,True,2026-04-09 22:15:49,0.0,0.0
20.06,1,9,2026-04-09 22:16:05,37.08162,-121.59966,263.0,0.0,239.3,-12.6,,,,,0.0,10.8,-0.9,8.0,0.0,281.0,0.0,-0.01,1.0,99.0,-25.0,28.0,0.0,30.09,1925.0,,,317.0,,,,,0.0,0.0,,,,,,,,,,,,,,,,,,,0.0,23.0,0.0,0.0,30.0,0.0,,0.0,0.0,,,23.4,0.0,0.0,-0.2,9.2,7.4,,,,,24.0,25.0,24.0,25.0,24.0,25.0,25.0,26.0,,,10.0,254.2,,0.0,11.0,0.001,,,0.653,1.41,0.0,23.0,,,,,,82.4,73.4,,,,,75.2,77.0,75.2,77.0,75.2,77.0,77.0,78.8,,,73.4,0.0,75.64999999999999,-6.750000000000014,-9.0,0.0,0.3373333333333333,397.4,True,2026-04-09 22:15:49,0.0,0.0
21.06,1,9,2026-04-09 22:16:06,37.08162,-121.59966,265.0,0.0,239.3,-12.6,,,,,0.0,10.8,-0.9,8.0,0.0,281.0,0.0,-0.01,1.0,99.0,8.0,28.0,0.0,30.09,1925.0,,,317.0,,,,,0.0,0.0,,,,,,,,,,,,,,,,,,,0.0,23.0,0.0,0.0,30.0,0.0,,0.0,0.0,,,23.4,0.0,0.0,-0.2,9.2,7.4,,,,,24.0,25.0,24.0,25.0,24.0,25.0,25.0,26.0,,,10.0,254.2,,0.0,11.0,0.001,,,0.653,1.41,0.0,23.0,,,,,,82.4,73.4,,,,,75.2,77.0,75.2,77.0,75.2,77.0,77.0,78.8,,,73.4,0.0,75.64999999999999,-6.750000000000014,-9.0,0.0,0.3373333333333333,397.4,True,2026-04-09 22:15:49,0.0,0.0
22.06,1,9,2026-04-09 22:16:07,37.08162,-121.59966,266.0,0.0,239.3,-12.6,,,,,0.0,10.8,-0.9,8.1,0.0,281.0,0.0,-0.01,1.0,99.0,9.0,28.0,0.0,30.09,1934.0,,,317.0,,,,,0.0,0.0,,,,,,,,,,,,,,,,,,,0.0,23.0,0.0,0.0,30.0,0.0,,0.0,0.0,,,23.4,0.0,0.0,-0.2,9.2,7.4,,,,,24.0,25.0,24.0,25.0,24.0,25.0,25.0,26.0,,,10.0,254.2,,0.0,11.0,0.001,,,0.653,1.41,0.0,23.0,,,,,,82.4,73.4,,,,,75.2,77.0,75.2,77.0,75.2,77.0,77.0,78.8,,,73.4,0.0,75.64999999999999,-6.750000000000014,-9.0,0.0,0.3373333333333333,397.4,True,2026-04-09 22:15:49,0.0,0.0
23.06,1,9,2026-04-09 22:16:08,37.08162,-121.59966,267.0,0.0,239.3,-12.6,,,,,0.0,10.8,-0.8,8.1,0.0,281.0,0.1,-0.01,1.0,99.0,12.0,28.0,0.0,30.09,1934.0,,,317.0,,,,,0.0,0.0,,,,,,,,,,,,,,,,,,,0.0,23.0,0.0,0.0,30.0,0.0,,0.0,0.0,,,23.4,0.0,0.0,-0.2,9.2,7.4,,,,,24.0,25.0,24.0,25.0,24.0,25.0,25.0,26.0,,,10.0,254.2,,0.0,11.0,0.001,,,0.653,1.41,0.0,23.0,,,,,,82.4,73.4,,,,,75.2,77.0,75.2,77.0,75.2,77.0,77.0,78.8,,,73.4,0.0,75.64999999999999,-6.750000000000014,-9.0,0.0,0.3373333333333333,397.4,True,2026-04-09 22:15:49,0.0,0.0
24.06,1,9,2026-04-09 22:16:09,37.08162,-121.59966,267.0,0.0,239.3,-12.6,,,,,0.0,10.8,-0.8,8.1,0.0,281.0,0.0,-0.01,1.0,99.0,-3.0,28.0,0.0,30.09,1934.0,,,317.0,,,,,0.0,0.0,,,,,,,,,,,,,,,,,,,0.0,23.0,0.0,0.0,30.0,0.0,,0.0,0.0,,,23.4,0.0,0.0,-0.2,9.2,7.4,,,,,24.0,25.0,24.0,25.0,24.0,25.0,25.0,26.0,,,10.0,254.2,,0.0,11.0,0.001,,,0.653,1.411,0.0,23.0,,,,,,82.4,73.4,,,,,75.2,77.0,75.2,77.0,75.2,77.0,77.0,78.8,,,73.4,0.0,75.64999999999999,-6.750000000000014,-9.0,0.0,0.3373333333333333,397.4,True,2026-04-09 22:15:49,0.0,0.0
25.06,1,9,2026-04-09 22:16:10,37.08162,-121.59966,268.0,0.0,239.3,-12.6,,,,,0.0,10.8,-0.8,8.1,0.0,281.0,0.1,-0.01,1.0,99.0,27.0,28.0,0.0,30.09,1934.0,,,317.0,,,,,0.0,0.0,,,,,,,,,,,,,,,,,,,0.0,23.0,0.0,0.0,30.0,0.0,,0.0,0.0,,,23.4,0.0,0.0,-0.2,9.2,7.4,,,,,24.0,25.0,24.0,25.0,24.0,25.0,25.0,26.0,,,10.0,254.2,,0.0,11.0,0.001,,,0.653,1.41,0.0,23.0,,,,,,82.4,73.4,,,,,75.2,77.0,75.2,77.0,75.2,77.0,77.0,78.8,,,73.4,0.0,75.64999999999999,-6.750000000000014,-9.0,0.0,0.3373333333333333,397.4,True,2026-04-09 22:15:49,0.0,0.0
26.06,1,9,2026-04-09 22:16:11,37.08162,-121.59965,268.0,0.0,239.3,-12.6,,,,,0.0,10.8,-0.8,8.1,0.0,281.0,0.1,-0.01,1.0,99.0,25.0,28.0,0.0,30.09,1934.0,,,317.0,,,,,0.0,0.0,,,,,,,,,,,,,,,,,,,0.0,23.0,0.0,0.0,30.0,0.0,,0.0,0.0,,,23.4,0.0,0.0,-0.2,9.2,7.4,,,,,24.0,25.0,24.0,25.0,24.0,25.0,25.0,26.0,,,10.0,254.2,,0.0,11.0,0.001,,,0.654,1.41,0.0,23.0,,,,,,82.4,73.4,,,,,75.2,77.0,75.2,77.0,75.2,77.0,77.0,78.8,,,73.4,0.0,75.64999999999999,-6.750000000000014,-9.0,0.0,0.3373333333333333,397.4,True,2026-04-09 22:15:49,0.0,0.0
27.06,1,9,2026-04-09 22:16:12,37.08162,-121.59965,268.0,0.1,239.3,-12.6,,,,,0.0,10.8,-0.8,8.1,0.0,281.0,0.1,-0.01,1.0,99.0,0.0,28.0,0.0,30.09,1934.0,,,317.0,,,,,0.0,0.0,,,,,,,,,,,,,,,,,,,0.0,23.0,0.0,0.0,30.0,0.0,,0.0,0.0,,,23.4,0.0,0.0,-0.2,9.2,7.4,,,,,24.0,25.0,24.0,25.0,24.0,25.0,25.0,26.0,,,11.0,254.2,,0.0,11.0,0.001,,,0.653,1.41,0.0,23.0,,,,,,82.4,73.4,,,,,75.2,77.0,75.2,77.0,75.2,77.0,77.0,78.8,,,73.4,0.0,75.64999999999999,-6.750000000000014,-9.0,0.0,0.42166666666666663,397.4,True,2026-04-09 22:15:49,0.0,0.0
28.06,1,9,2026-04-09 22:16:13,37.08162,-121.59965,269.0,0.0,239.3,-12.6,,,,,0.0,10.8,-0.8,8.1,0.0,281.0,0.1,-0.01,1.0,99.0,-14.0,28.0,0.0,30.09,1934.0,,,317.0,,,,,0.0,0.0,,,,,,,,,,,,,,,,,,,0.0,23.0,0.0,0.0,30.0,0.0,,0.0,0.0,,,23.4,0.0,0.0,-0.1,9.2,7.4,,,,,24.0,25.0,24.0,25.0,24.0,25.0,25.0,26.0,,,11.0,254.2,,0.0,11.0,0.001,,,0.653,1.41,0.0,23.0,,,,,,82.4,73.4,,,,,75.2,77.0,75.2,77.0,75.2,77.0,77.0,78.8,,,73.4,0.0,75.64999999999999,-6.750000000000014,-9.0,0.0,0.506,397.4,True,2026-04-09 22:15:49,0.0,0.0
29.06,1,9,2026-04-09 22:16:14,37.08162,-121.59965,268.0,0.0,239.3,-12.6,,,,,0.0,10.8,-0.8,8.1,0.0,281.0,0.1,-0.01,1.0,99.0,-40.0,28.0,0.0,30.09,1935.0,,,317.0,,,,,0.0,0.0,,,,,,,,,,,,,,,,,,,0.0,23.0,0.0,0.0,30.0,0.0,,0.0,0.0,,,23.4,0.0,0.0,-0.1,9.2,7.4,,,,,24.0,25.0,24.0,25.0,24.0,25.0,25.0,26.0,,,11.0,254.2,,0.0,11.0,0.001,,,0.653,1.41,0.0,23.0,,,,,,82.4,73.4,,,,,75.2,77.0,75.2,77.0,75.2,77.0,77.0,78.8,,,73.4,0.0,75.64999999999999,-6.750000000000014,-9.0,0.0,0.506,397.4,True,2026-04-09 22:15:49,0.0,0.0
30.06,1,9,2026-04-09 22:16:15,37.08162,-121.59965,269.0,0.0,239.3,-12.6,,,,,0.0,10.8,-0.8,8.1,0.0,281.0,0.0,-0.01,1.0,99.0,-51.0,28.0,0.0,30.09,1935.0,,,317.0,,,,,0.0,0.0,,,,,,,,,,,,,,,,,,,0.0,23.0,0.0,0.0,30.0,0.0,,0.0,0.0,,,23.4,0.0,0.0,-0.1,9.2,7.4,,,,,24.0,25.0,24.0,25.0,24.0,25.0,25.0,26.0,,,11.0,254.2,,0.0,11.0,0.001,,,0.653,1.41,0.0,23.0,,,,,,82.4,73.4,,,,,75.2,77.0,75.2,77.0,75.2,77.0,77.0,78.8,,,73.4,0.0,75.64999999999999,-6.750000000000014,-9.0,0.0,0.506,397.4,True,2026-04-09 22:15:49,0.0,0.0
31.06,1,9,2026-04-09 22:16:16,37.08162,-121.59965,269.0,0.1,239.3,-12.6,,,,,0.0,10.8,-0.8,8.1,0.0,279.0,0.0,-0.01,1.0,99.0,-77.0,28.0,0.0,30.09,1935.0,,,317.0,,,,,0.0,0.0,,,,,,,,,,,,,,,,,,,0.0,23.0,0.0,0.0,30.0,0.0,,0.0,0.0,,,23.4,0.0,0.0,-0.1,9.2,7.4,,,,,24.0,25.0,24.0,25.0,24.0,25.0,25.0,26.0,,,11.0,254.3,,0.0,11.0,0.001,,,0.653,1.41,0.0,23.0,,,,,,82.4,73.4,,,,,75.2,77.0,75.2,77.0,75.2,77.0,77.0,78.8,,,73.4,0.0,75.64999999999999,-6.750000000000014,-9.0,0.0,0.5903333333333333,397.4,True,2026-04-09 22:15:49,0.0,0.0
32.06,1,9,2026-04-09 22:16:17,37.08162,-121.59965,268.0,0.0,239.3,-12.6,,,,,0.0,10.8,-0.8,8.1,0.0,277.0,0.1,-0.01,1.0,99.0,-82.0,28.0,0.0,30.09,1941.0,,,317.0,,,,,0.0,0.0,,,,,,,,,,,,,,,,,,,0.0,23.0,0.0,0.0,30.0,0.0,,0.0,0.0,,,23.4,0.0,0.0,-0.1,9.2,7.4,,,,,24.0,25.0,24.0,25.0,24.0,25.0,25.0,26.0,,,11.0,254.3,,0.0,11.0,0.001,,,0.653,1.41,0.0,23.0,,,,,,82.4,73.4,,,,,75.2,77.0,75.2,77.0,75.2,77.0,77.0,78.8,,,73.4,0.0,75.64999999999999,-6.750000000000014,-9.0,0.0,0.674666666666667,397.4,True,2026-04-09 22:15:49,0.0,0.0
33.06,1,9,2026-04-09 22:16:18,37.08162,-121.59965,268.0,0.0,239.3,-12.6,,,,,0.0,10.8,-0.8,8.1,0.0,275.0,0.1,-0.01,1.0,99.0,-115.0,28.0,0.0,30.09,1941.0,,,317.0,,,,,0.0,0.0,,,,,,,,,,,,,,,,,,,0.0,23.0,0.0,0.0,30.0,0.0,,0.0,0.0,,,23.4,0.0,0.0,-0.1,9.2,7.4,,,,,24.0,25.0,24.0,25.0,24.0,25.0,25.0,26.0,,,12.0,254.3,,0.0,11.0,0.001,,,0.653,1.41,0.0,23.0,,,,,,82.4,73.4,,,,,75.2,77.0,75.2,77.0,75.2,77.0,77.0,78.8,,,73.4,0.0,75.64999999999999,-6.750000000000014,-9.0,0.0,0.674666666666667,397.4,True,2026-04-09 22:15:49,0.0,0.0
34.06,1,9,2026-04-09 22:16:19,37.08162,-121.59964,269.0,0.0,239.3,-12.6,,,,,0.0,10.8,-0.8,8.1,0.0,273.0,0.0,-0.01,1.0,99.0,-96.0,28.0,0.0,30.09,1941.0,,,317.0,,,,,0.0,0.0,,,,,,,,,,,,,,,,,,,0.0,23.0,0.0,0.0,30.0,0.0,,0.0,0.0,,,23.4,0.0,0.0,-0.1,9.2,7.4,,,,,24.0,25.0,24.0,25.0,24.0,25.0,25.0,26.0,,,12.0,254.3,,0.0,11.0,0.001,,,0.653,1.41,0.0,23.0,,,,,,82.4,73.4,,,,,75.2,77.0,75.2,77.0,75.2,77.0,77.0,78.8,,,73.4,0.0,75.64999999999999,-6.750000000000014,-9.0,0.0,0.674666666666667,397.4,True,2026-04-09 22:15:49,0.0,0.0
35.06,1,9,2026-04-09 22:16:20,37.08162,-121.59965,268.0,0.0,239.3,-12.6,,,,,0.0,10.8,-0.8,8.1,0.0,272.0,0.1,-0.01,1.0,99.0,-96.0,29.0,0.0,30.09,1935.0,,,317.0,,,,,0.0,0.0,,,,,,,,,,,,,,,,,,,0.0,23.0,0.0,0.0,30.0,0.0,,0.0,0.0,,,23.4,0.0,0.0,-0.1,9.2,7.4,,,,,24.0,25.0,24.0,25.0,24.0,25.0,25.0,26.0,,,12.0,254.3,,0.0,11.0,0.001,,,0.653,1.41,0.0,23.0,,,,,,84.2,73.4,,,,,75.2,77.0,75.2,77.0,75.2,77.0,77.0,78.8,,,73.4,0.0,75.64999999999999,-8.550000000000011,-10.799999999999997,0.0,0.674666666666667,397.4,True,2026-04-09 22:15:49,0.0,0.0
36.06,1,9,2026-04-09 22:16:21,37.08162,-121.59964,268.0,0.1,239.3,-12.6,,,,,0.0,10.8,-0.9,8.0,0.0,270.0,0.1,-0.01,1.0,99.0,-100.0,28.0,0.0,30.09,1935.0,,,317.0,,,,,0.0,0.0,,,,,,,,,,,,,,,,,,,0.0,23.0,0.0,0.0,30.0,0.0,,0.0,0.0,,,23.4,0.0,0.0,-0.1,9.2,7.4,,,,,24.0,25.0,24.0,25.0,24.0,25.0,25.0,26.0,,,12.0,254.3,,0.0,11.0,0.001,,,0.653,1.411,0.0,23.0,,,,,,82.4,73.4,,,,,75.2,77.0,75.2,77.0,75.2,77.0,77.0,78.8,,,73.4,0.0,75.64999999999999,-6.750000000000014,-9.0,0.0,0.7590000000000002,397.4,True,2026-04-09 22:15:49,0.0,0.0
37.06,1,9,2026-04-09 22:16:22,37.08162,-121.59964,268.0,0.1,239.3,-12.6,,,,,0.0,10.8,-0.9,8.0,0.0,269.0,0.1,-0.01,1.0,99.0,-72.0,29.0,0.0,30.09,1935.0,,,317.0,,,,,0.0,0.0,,,,,,,,,,,,,,,,,,,0.0,23.0,0.0,0.0,30.0,0.0,,0.0,0.0,,,23.4,0.0,0.0,-0.1,9.2,7.4,,,,,24.0,26.0,24.0,26.0,24.0,26.0,25.0,26.0,,,12.0,254.3,,0.0,11.0,0.001,,,0.653,1.41,0.0,23.0,,,,,,84.2,73.4,,,,,75.2,78.8,75.2,78.8,75.2,78.8,77.0,78.8,,,73.4,0.0,75.64999999999999,-8.550000000000011,-10.799999999999997,0.0,0.9276666666666669,397.4,True,2026-04-09 22:15:49,0.0,0.0
38.06,1,9,2026-04-09 22:16:23,37.08162,-121.59964,268.0,0.0,239.3,-12.6,,,,,0.0,10.8,-0.9,8.0,0.0,267.0,0.1,-0.01,1.0,99.0,-113.0,29.0,0.0,30.09,1938.0,,,317.0,,,,,0.0,0.0,,,,,,,,,,,,,,,,,,,0.0,23.0,0.0,0.0,30.0,0.0,,0.0,0.0,,,23.4,0.0,0.0,-0.1,9.2,7.4,,,,,24.0,25.0,24.0,25.0,24.0,25.0,25.0,26.0,,,12.0,254.3,,0.0,11.0,0.001,,,0.653,1.41,0.0,23.0,,,,,,84.2,73.4,,,,,75.2,77.0,75.2,77.0,75.2,77.0,77.0,78.8,,,73.4,0.0,75.64999999999999,-8.550000000000011,-10.799999999999997,0.0,1.0120000000000002,397.4,True,2026-04-09 22:15:49,0.0,0.0
39.06,1,9,2026-04-09 22:16:24,37.08162,-121.59964,268.0,0.0,239.3,-12.6,,,,,0.0,10.9,-0.9,7.9,0.0,266.0,0.1,-0.01,1.0,99.0,-108.0,29.0,0.0,30.09,1936.0,,,317.0,,,,,0.0,0.0,,,,,,,,,,,,,,,,,,,0.0,23.0,0.0,0.0,30.0,0.0,,0.0,24.6,,,23.4,0.0,0.0,-0.1,9.2,7.4,,,,,24.0,26.0,24.0,26.0,24.0,25.0,25.0,26.0,,,12.0,254.3,,24.6,11.0,0.001,,,0.653,1.41,0.0,23.0,,,,,,84.2,73.4,,,,,75.2,78.8,75.2,78.8,75.2,77.0,77.0,78.8,,,73.4,0.0,75.64999999999999,-8.550000000000011,-10.799999999999997,0.0,1.0120000000000002,397.4,True,2026-04-09 22:15:49,0.0,0.0
40.06,1,9,2026-04-09 22:16:25,37.08162,-121.59964,268.0,0.0,239.3,-12.6,,,,,0.0,10.9,-0.9,7.9,0.0,264.0,0.1,-0.01,1.0,99.0,-92.0,29.0,0.0,30.09,1936.0,,,317.0,,,,,0.0,0.0,,,,,,,,,,,,,,,,,,,0.0,23.0,0.0,0.0,30.0,0.0,,0.0,31.8,,,23.4,0.0,0.0,-0.1,9.2,7.4,,,,,24.0,25.0,24.0,25.0,24.0,25.0,25.0,26.0,,,12.0,239.6,,31.8,11.0,0.001,,,0.653,1.41,0.0,23.0,,,,,,84.2,73.4,,,,,75.2,77.0,75.2,77.0,75.2,77.0,77.0,78.8,,,73.4,0.0,75.64999999999999,-8.550000000000011,-10.799999999999997,0.0,1.0120000000000002,397.4,True,2026-04-09 22:15:49,0.0,0.0
41.06,1,9,2026-04-09 22:16:26,37.08162,-121.59964,268.0,0.0,239.3,-12.6,,,,,0.0,10.8,-0.9,7.9,0.0,263.0,0.0,-0.01,1.0,99.0,-68.0,29.0,0.0,30.09,1936.0,,,317.0,,,,,0.0,0.0,,,,,,,,,,,,,,,,,,,0.0,23.0,0.0,0.0,30.0,0.6,,0.6,32.2,,,23.4,0.0,0.0,-0.1,9.2,7.4,,,,,24.0,25.0,24.0,25.0,24.0,25.0,25.0,26.0,,,12.0,186.5,,32.2,11.0,0.001,,,0.653,1.41,0.0,23.0,,,,,,84.2,73.4,,,,,75.2,77.0,75.2,77.0,75.2,77.0,77.0,78.8,,,73.4,0.0,75.64999999999999,-8.550000000000011,-10.799999999999997,8.333333333333333e-05,1.0120000000000002,397.4,True,2026-04-09 22:15:49,0.6,0.0
42.06,1,9,2026-04-09 22:16:27,37.08162,-121.59964,268.0,0.0,239.3,-12.6,,,,,0.0,10.8,-0.9,7.9,0.0,263.0,0.0,-0.01,1.0,99.0,-35.0,29.0,0.0,30.09,1933.0,,,317.0,,,,,0.0,0.0,,,,,,,,,,,,,,,,,,,0.0,23.0,0.0,0.0,30.0,1.1,,1.1,32.5,,,23.4,0.0,0.0,-0.1,9.2,7.4,,,,,24.0,25.0,24.0,25.0,24.0,25.0,25.0,26.0,,,12.0,145.2,,32.5,11.0,0.001,,,0.653,1.41,0.0,23.0,,,,,,84.2,73.4,,,,,75.2,77.0,75.2,77.0,75.2,77.0,77.0,78.8,,,73.4,0.0,75.64999999999999,-8.550000000000011,-10.799999999999997,0.00031944444444444446,1.0120000000000002,397.4,True,2026-04-09 22:15:49,1.1,0.0
43.06,1,9,2026-04-09 22:16:28,37.08162,-121.59964,269.0,0.0,239.3,-12.6,,,,,0.0,10.8,-0.9,7.9,0.0,263.0,0.0,-0.01,1.0,99.0,-22.0,29.0,0.0,30.09,1933.0,,,317.0,,,,,0.0,0.0,,,,,,,,,,,,,,,,,,,0.0,23.0,0.0,0.0,30.0,1.6,,1.6,32.5,,,23.4,0.0,0.0,-0.1,9.2,7.4,,,,,24.0,25.0,24.0,25.0,24.0,25.0,25.0,26.0,,,12.0,113.0,,32.5,11.0,0.001,,,0.653,1.41,0.0,23.0,,,,,,84.2,73.4,,,,,75.2,77.0,75.2,77.0,75.2,77.0,77.0,78.8,,,73.4,0.0,75.64999999999999,-8.550000000000011,-10.799999999999997,0.0006944444444444445,1.0120000000000002,397.4,True,2026-04-09 22:15:49,1.6,0.0
44.06,1,9,2026-04-09 22:16:29,37.08162,-121.59964,269.0,0.0,239.3,-12.6,,,,,0.0,10.8,-0.9,7.9,0.0,262.0,0.0,-0.01,1.0,99.0,-52.0,29.0,0.0,30.09,1933.0,,,317.0,,,,,0.0,0.0,,,,,,,,,,,,,,,,,,,0.0,23.0,0.0,0.0,30.0,1.9,,1.9,32.6,,,23.4,0.0,0.0,-0.1,9.2,7.4,,,,,24.0,26.0,24.0,26.0,24.0,25.0,25.0,26.0,,,12.0,88.1,,32.6,11.0,0.001,,,0.653,1.41,0.0,23.0,,,,,,84.2,73.4,,,,,75.2,78.8,75.2,78.8,75.2,77.0,77.0,78.8,,,73.4,0.0,75.64999999999999,-8.550000000000011,-10.799999999999997,0.0011805555555555556,1.0120000000000002,397.4,True,2026-04-09 22:15:49,1.9,0.0
45.06,1,9,2026-04-09 22:16:30,37.08162,-121.59964,269.0,0.0,239.3,-12.6,,,,,0.0,10.9,-0.9,7.9,0.0,260.0,0.0,-0.01,1.0,99.0,-92.0,29.0,0.0,30.09,1931.0,,,317.0,,,,,0.0,0.0,,,,,,,,,,,,,,,,,,,0.0,23.0,0.0,0.0,30.0,2.2,,2.2,33.6,,,23.4,0.0,0.0,-0.1,9.2,7.4,,,,,25.0,26.0,25.0,26.0,25.0,25.0,25.0,26.0,,,12.0,68.7,,33.6,11.0,0.001,,,0.653,1.41,0.0,23.0,,,,,,84.2,73.4,,,,,77.0,78.8,77.0,78.8,77.0,77.0,77.0,78.8,,,73.4,0.0,77.0,-7.200000000000003,-10.799999999999997,0.00175,1.0120000000000002,397.4,True,2026-04-09 22:15:49,2.2,0.0
46.06,1,9,2026-04-09 22:16:31,37.08162,-121.59964,270.0,0.0,239.3,-12.6,,,,,0.0,10.9,-0.9,7.9,0.0,258.0,0.1,-0.01,1.0,99.0,-85.0,29.0,0.0,30.09,1931.0,,,317.0,,,,,0.0,0.0,,,,,,,,,,,,,,,,,,,0.0,23.0,0.0,0.0,30.0,1.8,,1.8,32.9,,,23.4,0.0,0.0,-0.1,9.2,7.4,,,,,25.0,26.0,25.0,26.0,25.0,25.0,25.0,26.0,,,12.0,53.6,,32.9,11.0,0.001,,,0.653,1.41,0.0,23.0,,,,,,84.2,73.4,,,,,77.0,78.8,77.0,78.8,77.0,77.0,77.0,78.8,,,73.4,0.0,77.0,-7.200000000000003,-10.799999999999997,0.0023055555555555555,1.0120000000000002,397.4,True,2026-04-09 22:15:49,1.8,0.0
47.06,1,9,2026-04-09 22:16:32,37.08162,-121.59964,270.0,0.0,239.3,-12.6,,,,,0.0,10.9,-1.0,7.8,0.0,258.0,0.0,-0.01,1.0,99.0,-49.0,29.0,0.0,30.09,1931.0,,,317.0,,,,,0.0,0.0,,,,,,,,,,,,,,,,,,,0.0,23.0,0.0,0.0,30.0,1.8,,1.8,32.3,,,23.4,0.0,0.0,-0.1,9.2,7.4,,,,,24.0,26.0,25.0,26.0,25.0,25.0,25.0,26.0,,,12.0,41.9,,32.3,11.0,0.001,,,0.653,1.41,0.0,23.0,,,,,,84.2,73.4,,,,,75.2,78.8,77.0,78.8,77.0,77.0,77.0,78.8,,,73.4,0.0,76.55,-7.650000000000006,-10.799999999999997,0.002805555555555556,1.0120000000000002,397.4,True,2026-04-09 22:15:49,1.8,0.0
48.06,1,9,2026-04-09 22:16:33,37.08162,-121.59964,270.0,0.0,239.3,-12.6,,,,,0.0,10.8,-1.0,7.8,0.0,258.0,0.0,-0.01,1.0,99.0,-17.0,29.0,0.0,30.09,1928.0,,,317.0,,,,,0.0,0.0,,,,,,,,,,,,,,,,,,,0.0,23.0,0.0,0.0,30.0,1.8,,1.8,32.0,,,23.4,0.0,0.0,-0.1,9.2,7.4,,,,,25.0,26.0,25.0,26.0,25.0,25.0,25.0,26.0,,,12.0,32.8,,32.0,11.0,0.001,,,0.653,1.41,0.0,23.0,,,,,,84.2,73.4,,,,,77.0,78.8,77.0,78.8,77.0,77.0,77.0,78.8,,,73.4,0.0,77.0,-7.200000000000003,-10.799999999999997,0.0033055555555555555,1.0120000000000002,397.4,True,2026-04-09 22:15:49,1.8,0.0
49.06,1,9,2026-04-09 22:16:34,37.08162,-121.59964,271.0,0.1,239.3,-12.6,,,,,0.0,10.8,-1.0,7.8,0.0,258.0,0.0,-0.01,1.0,99.0,6.0,29.0,0.0,30.09,1928.0,,,317.0,,,,,0.0,0.0,,,,,,,,,,,,,,,,,,,0.0,23.0,0.0,0.0,30.0,1.8,,1.8,31.8,,,23.4,0.0,0.0,-0.1,9.2,7.4,,,,,24.0,26.0,25.0,26.0,25.0,25.0,25.0,26.0,,,12.0,25.7,,31.8,11.0,0.001,,,0.653,1.41,0.0,23.0,,,,,,84.2,73.4,,,,,75.2,78.8,77.0,78.8,77.0,77.0,77.0,78.8,,,73.4,0.0,76.55,-7.650000000000006,-10.799999999999997,0.003805555555555556,1.0963333333333336,397.4,True,2026-04-09 22:15:49,1.8,0.05555555555555556
50.06,1,9,2026-04-09 22:16:35,37.08162,-121.59964,271.0,0.0,239.3,-12.6,,,,,0.0,10.8,-1.0,7.8,0.0,258.0,0.1,-0.01,1.0,99.0,28.0,29.0,0.0,30.09,1928.0,,,317.0,,,,,0.0,0.0,,,,,,,,,,,,,,,,,,,0.0,23.0,0.0,0.0,30.0,1.8,,1.8,31.6,,,23.4,0.0,0.0,-0.1,9.2,7.4,,,,,24.0,26.0,25.0,26.0,25.0,25.0,25.0,26.0,,,12.0,20.2,,31.6,11.0,0.001,,,0.653,1.41,0.0,23.0,,,,,,84.2,73.4,,,,,75.2,78.8,77.0,78.8,77.0,77.0,77.0,78.8,,,73.4,0.0,76.55,-7.650000000000006,-10.799999999999997,0.0043055555555555555,1.180666666666667,397.4,True,2026-04-09 22:15:49,1.8,0.0
51.06,1,9,2026-04-09 22:16:36,37.08162,-121.59964,271.0,0.1,239.3,-12.6,,,,,0.0,10.8,-0.9,7.8,0.0,258.0,0.1,-0.01,1.0,99.0,23.0,29.0,0.0,30.09,1937.0,,,317.0,,,,,0.0,0.0,,,,,,,,,,,,,,,,,,,0.0,23.0,0.0,0.0,30.0,1.8,,1.8,31.5,,,23.4,0.0,0.0,-0.1,9.2,7.4,,,,,24.0,26.0,25.0,26.0,25.0,25.0,25.0,26.0,,,12.0,15.9,,31.5,11.0,0.001,,,0.653,1.41,0.0,23.0,,,,,,84.2,73.4,,,,,75.2,78.8,77.0,78.8,77.0,77.0,77.0,78.8,,,73.4,0.0,76.55,-7.650000000000006,-10.799999999999997,0.004805555555555556,1.2650000000000001,397.4,True,2026-04-09 22:15:49,1.8,0.05555555555555556
52.06,1,9,2026-04-09 22:16:37,37.08162,-121.59964,272.0,0.0,239.3,-12.6,,,,,0.0,10.8,-0.9,7.9,0.0,258.0,0.1,-0.01,1.0,99.0,28.0,29.0,0.0,30.09,1937.0,,,317.0,,,,,0.0,0.0,,,,,,,,,,,,,,,,,,,0.0,23.0,0.0,0.0,30.0,0.0,,0.0,31.3,,,23.4,0.0,0.0,-0.1,9.2,7.4,,,,,24.0,26.0,25.0,26.0,25.0,25.0,25.0,26.0,,,12.0,12.6,,31.3,11.0,0.001,,,0.653,1.41,0.0,23.0,,,,,,84.2,73.4,,,,,75.2,78.8,77.0,78.8,77.0,77.0,77.0,78.8,,,73.4,0.0,76.55,-7.650000000000006,-10.799999999999997,0.005055555555555556,1.3493333333333335,397.4,True,2026-04-09 22:15:49,0.0,0.0
53.06,1,9,2026-04-09 22:16:38,37.08162,-121.59964,272.0,0.0,239.3,-12.6,,,,,0.0,10.8,-0.9,7.9,0.0,258.0,0.0,-0.01,1.0,99.0,22.0,29.0,0.0,30.09,1937.0,,,317.0,,,,,0.0,0.0,,,,,,,,,,,,,,,,,,,0.0,23.0,0.0,0.0,30.0,0.0,,0.0,31.1,,,23.4,0.0,0.0,-0.1,9.2,7.4,,,,,25.0,26.0,25.0,26.0,24.0,25.0,25.0,26.0,,,12.0,10.0,,31.1,11.0,0.001,,,0.653,1.41,0.0,23.0,,,,,,84.2,73.4,,,,,77.0,78.8,77.0,78.8,75.2,77.0,77.0,78.8,,,73.4,0.0,76.55,-7.650000000000006,-10.799999999999997,0.005055555555555556,1.3493333333333335,397.4,True,2026-04-09 22:15:49,0.0,0.0
54.06,1,9,2026-04-09 22:16:39,37.08162,-121.59964,273.0,0.0,239.3,-12.6,,,,,0.0,10.8,-0.8,7.9,0.0,258.0,0.0,-0.01,1.0,99.0,-2.0,29.0,0.0,30.09,1937.0,,,317.0,,,,,0.0,0.0,,,,,,,,,,,,,,,,,,,0.0,23.0,0.0,0.0,30.0,0.0,,0.0,31.0,,,23.4,0.0,0.0,-0.1,9.2,7.4,,,,,24.0,26.0,25.0,26.0,24.0,25.0,25.0,26.0,,,12.0,8.0,,31.0,11.0,0.001,,,0.653,1.41,0.0,23.0,,,,,,84.2,73.4,,,,,75.2,78.8,77.0,78.8,75.2,77.0,77.0,78.8,,,73.4,0.0,76.1,-8.100000000000009,-10.799999999999997,0.005055555555555556,1.3493333333333335,397.4,True,2026-04-09 22:15:49,0.0,0.0
55.06,1,9,2026-04-09 22:16:40,37.08162,-121.59964,273.0,0.0,239.3,-12.6,,,,,0.0,10.8,-0.8,7.9,0.0,258.0,0.0,-0.01,1.0,99.0,33.0,29.0,0.0,30.09,1937.0,,,317.0,,,,,0.0,0.0,,,,,,,,,,,,,,,,,,,0.0,23.0,0.0,0.0,30.0,0.0,,0.0,30.8,,,23.4,0.0,0.0,-0.1,9.2,7.4,,,,,24.0,26.0,25.0,26.0,24.0,25.0,25.0,26.0,,,12.0,6.4,,30.8,11.0,0.001,,,0.653,1.41,0.0,23.0,,,,,,84.2,73.4,,,,,75.2,78.8,77.0,78.8,75.2,77.0,77.0,78.8,,,73.4,0.0,76.1,-8.100000000000009,-10.799999999999997,0.005055555555555556,1.3493333333333335,397.4,True,2026-04-09 22:15:49,0.0,0.0
56.06,1,9,2026-04-09 22:16:41,37.08162,-121.59964,274.0,0.0,239.3,-12.6,,,,,0.0,10.8,-0.8,8.0,0.0,258.0,0.0,-0.01,1.0,99.0,41.0,29.0,0.0,30.09,1937.0,,,317.0,,,,,0.0,0.0,,,,,,,,,,,,,,,,,,,0.0,23.0,0.0,0.0,30.0,0.0,,0.0,30.7,,,23.4,0.0,0.0,-0.1,9.2,7.4,,,,,24.0,26.0,25.0,26.0,24.0,25.0,25.0,26.0,,,12.0,5.2,,30.7,11.0,0.001,,,0.653,1.41,0.0,23.0,,,,,,84.2,73.4,,,,,75.2,78.8,77.0,78.8,75.2,77.0,77.0,78.8,,,73.4,0.0,76.1,-8.100000000000009,-10.799999999999997,0.005055555555555556,1.3493333333333335,397.4,True,2026-04-09 22:15:49,0.0,0.0
57.06,1,9,2026-04-09 22:16:42,37.08162,-121.59963,274.0,0.0,239.3,-12.6,,,,,0.0,10.8,-0.9,8.0,0.0,258.0,0.0,-0.01,1.0,99.0,28.0,29.0,0.0,30.09,1938.0,,,317.0,,,,,0.0,0.0,,,,,,,,,,,,,,,,,,,0.0,23.0,0.0,0.0,30.0,0.0,,0.0,30.6,,,23.4,0.0,0.0,-0.1,9.2,7.4,,,,,24.0,26.0,25.0,26.0,24.0,25.0,25.0,26.0,,,12.0,4.3,,30.6,11.0,0.001,,,0.653,1.41,0.0,23.0,,,,,,84.2,73.4,,,,,75.2,78.8,77.0,78.8,75.2,77.0,77.0,78.8,,,73.4,0.0,76.1,-8.100000000000009,-10.799999999999997,0.005055555555555556,1.3493333333333335,397.4,True,2026-04-09 22:15:49,0.0,0.0
58.06,1,9,2026-04-09 22:16:43,37.08162,-121.59963,275.0,0.0,239.3,-12.6,,,,,0.0,10.8,-0.9,8.0,0.0,258.0,0.1,-0.01,1.0,99.0,8.0,29.0,0.0,30.09,1938.0,,,317.0,,,,,0.0,0.0,,,,,,,,,,,,,,,,,,,0.0,23.0,0.0,0.0,30.0,0.0,,0.0,30.4,,,23.4,0.0,0.0,-0.1,9.2,7.4,,,,,24.0,26.0,25.0,26.0,24.0,25.0,25.0,26.0,,,12.0,3.5,,30.4,11.0,0.001,,,0.653,1.41,0.0,23.0,,,,,,84.2,73.4,,,,,75.2,78.8,77.0,78.8,75.2,77.0,77.0,78.8,,,73.4,0.0,76.1,-8.100000000000009,-10.799999999999997,0.005055555555555556,1.3493333333333335,397.4,True,2026-04-09 22:15:49,0.0,0.0
59.06,1,9,2026-04-09 22:16:44,37.08162,-121.59963,275.0,0.0,239.3,-12.6,,,,,0.0,10.8,-0.8,8.0,0.0,258.0,0.0,-0.01,1.0,99.0,-2.0,29.0,0.0,30.09,1938.0,,,317.0,,,,,0.0,0.0,,,,,,,,,,,,,,,,,,,0.0,23.0,0.0,0.0,30.0,0.0,,0.0,30.3,,,23.4,0.0,0.0,-0.1,9.2,7.4,,,,,24.0,26.0,25.0,26.0,24.0,25.0,25.0,26.0,,,12.0,2.9,,30.3,11.0,0.001,,,0.653,1.409,0.0,23.0,,,,,,84.2,73.4,,,,,75.2,78.8,77.0,78.8,75.2,77.0,77.0,78.8,,,73.4,0.0,76.1,-8.100000000000009,-10.799999999999997,0.005055555555555556,1.3493333333333335,397.4,True,2026-04-09 22:15:49,0.0,0.0
60.06,1,9,2026-04-09 22:16:45,37.08162,-121.59963,276.0,0.0,239.3,-12.6,,,,,0.0,10.8,-0.9,8.0,0.0,258.0,0.0,-0.01,1.0,99.0,-7.0,29.0,0.0,30.09,1948.0,,,317.0,,,,,0.0,0.0,,,,,,,,,,,,,,,,,,,0.0,23.0,0.0,0.0,30.0,0.0,,0.0,30.2,,,23.4,0.0,0.0,-0.1,9.2,7.4,,,,,24.0,26.0,25.0,26.0,24.0,25.0,25.0,26.0,,,12.0,2.5,,30.2,11.0,0.001,,,0.653,1.41,0.0,23.0,,,,,,84.2,73.4,,,,,75.2,78.8,77.0,78.8,75.2,77.0,77.0,78.8,,,73.4,0.0,76.1,-8.100000000000009,-10.799999999999997,0.005055555555555556,1.3493333333333335,397.4,True,2026-04-09 22:15:49,0.0,0.0
61.06,1,9,2026-04-09 22:16:46,37.08161,-121.59963,276.0,0.1,239.3,-12.6,,,,,0.0,10.8,-0.8,8.1,0.0,258.0,0.0,-0.01,1.0,99.0,-6.0,29.0,0.0,30.09,1948.0,,,317.0,,,,,0.0,0.0,,,,,,,,,,,,,,,,,,,0.0,23.0,0.0,0.0,30.0,0.0,,0.0,30.1,,,23.4,0.0,0.0,-0.1,9.2,7.4,,,,,24.0,26.0,25.0,26.0,24.0,25.0,25.0,26.0,,,12.0,2.2,,30.1,11.0,0.001,,,0.653,1.41,0.0,23.0,,,,,,84.2,73.4,,,,,75.2,78.8,77.0,78.8,75.2,77.0,77.0,78.8,,,73.4,0.0,76.1,-8.100000000000009,-10.799999999999997,0.005055555555555556,1.4336666666666669,397.4,True,2026-04-09 22:15:49,0.0,0.0
62.06,1,9,2026-04-09 22:16:47,37.08161,-121.59963,277.0,0.0,239.3,-12.6,,,,,0.0,10.7,-0.8,8.1,0.0,258.0,0.1,-0.01,1.0,99.0,2.0,29.0,0.0,30.09,1948.0,,,317.0,,,,,0.0,0.0,,,,,,,,,,,,,,,,,,,0.0,23.0,0.0,0.0,30.0,0.0,,0.0,30.0,,,23.4,0.0,0.0,-0.1,9.2,7.4,,,,,24.0,26.0,25.0,26.0,24.0,25.0,25.0,26.0,,,12.0,1.9,,30.0,11.0,0.001,,,0.653,1.409,0.0,23.0,,,,,,84.2,73.4,,,,,75.2,78.8,77.0,78.8,75.2,77.0,77.0,78.8,,,73.4,0.0,76.1,-8.100000000000009,-10.799999999999997,0.005055555555555556,1.5180000000000002,397.4,True,2026-04-09 22:15:49,0.0,0.0
63.06,1,9,2026-04-09 22:16:48,37.08161,-121.59963,278.0,0.0,239.3,-12.6,,,,,0.0,10.8,-0.9,8.1,0.0,258.0,0.1,-0.01,1.0,99.0,8.0,29.0,0.0,30.09,1949.0,,,317.0,,,,,0.0,0.0,,,,,,,,,,,,,,,,,,,0.0,23.0,0.0,0.0,30.0,0.0,,0.0,29.9,,,23.4,0.0,0.0,-0.1,9.2,7.4,,,,,24.0,26.0,25.0,26.0,24.0,25.0,25.0,26.0,,,13.0,1.7,,29.9,11.0,0.001,,,0.653,1.41,0.0,23.0,,,,,,84.2,73.4,,,,,75.2,78.8,77.0,78.8,75.2,77.0,77.0,78.8,,,73.4,0.0,76.1,-8.100000000000009,-10.799999999999997,0.005055555555555556,1.5180000000000002,397.4,True,2026-04-09 22:15:49,0.0,0.0
64.06,1,9,2026-04-09 22:16:49,37.0816,-121.59962,287.0,0.0,239.3,-12.6,,,,,0.0,10.8,-0.9,8.0,0.0,258.0,0.1,-0.01,1.0,99.0,-2.0,29.0,0.0,30.09,1949.0,,,317.0,,,,,0.0,0.0,,,,,,,,,,,,,,,,,,,0.0,23.0,0.0,0.0,30.0,0.0,,0.0,29.8,,,23.4,0.0,0.0,-0.1,9.2,7.4,,,,,24.0,26.0,24.0,26.0,24.0,26.0,25.0,26.0,,,13.0,1.6,,29.8,11.0,0.001,,,0.653,1.41,0.0,23.0,,,,,,84.2,73.4,,,,,75.2,78.8,75.2,78.8,75.2,78.8,77.0,78.8,,,73.4,0.0,75.64999999999999,-8.550000000000011,-10.799999999999997,0.005055555555555556,1.5180000000000002,397.4,True,2026-04-09 22:15:49,0.0,0.0
65.06,1,9,2026-04-09 22:16:50,37.0816,-121.59962,288.0,0.0,239.3,-12.6,,,,,0.0,10.8,-0.9,8.0,0.0,258.0,0.0,-0.01,1.0,99.0,-15.0,29.0,0.0,30.09,1949.0,,,317.0,,,,,0.0,0.0,,,,,,,,,,,,,,,,,,,0.0,23.0,0.0,0.0,30.0,0.0,,0.0,29.7,,,23.4,0.0,0.0,-0.1,9.2,7.4,,,,,24.0,26.0,24.0,26.0,24.0,26.0,25.0,26.0,,,13.0,1.4,,29.7,11.0,0.001,,,0.653,1.409,0.0,23.0,,,,,,84.2,73.4,,,,,75.2,78.8,75.2,78.8,75.2,78.8,77.0,78.8,,,73.4,0.0,75.64999999999999,-8.550000000000011,-10.799999999999997,0.005055555555555556,1.5180000000000002,397.4,True,2026-04-09 22:15:49,0.0,0.0
66.06,1,9,2026-04-09 22:16:51,37.0816,-121.59962,288.0,0.0,239.3,-12.6,,,,,0.0,10.7,-0.8,7.9,0.0,258.0,0.0,-0.01,1.0,99.0,-37.0,29.0,0.0,30.09,1958.0,,,317.0,,,,,0.0,0.0,,,,,,,,,,,,,,,,,,,0.0,23.0,0.0,0.0,30.0,0.0,,0.0,29.6,,,23.4,0.0,0.0,-0.1,9.2,7.4,,,,,25.0,26.0,25.0,26.0,25.0,26.0,25.0,26.0,,,13.0,1.3,,29.6,11.0,0.001,,,0.653,1.41,0.0,23.0,,,,,,84.2,73.4,,,,,77.0,78.8,77.0,78.8,77.0,78.8,77.0,78.8,,,73.4,0.0,77.0,-7.200000000000003,-10.799999999999997,0.005055555555555556,1.5180000000000002,397.4,True,2026-04-09 22:15:49,0.0,0.0
67.06,1,9,2026-04-09 22:16:52,37.0816,-121.59962,289.0,0.0,239.3,-12.6,,,,,0.0,10.8,-0.9,7.8,0.0,258.0,0.0,-0.01,1.0,99.0,-48.0,29.0,0.0,30.09,1958.0,,,317.0,,,,,0.0,0.0,,,,,,,,,,,,,,,,,,,0.0,23.0,0.0,0.0,30.0,0.0,,0.0,29.5,,,23.4,0.0,0.0,-0.1,9.2,7.4,,,,,24.0,26.0,24.0,26.0,24.0,26.0,25.0,26.0,,,13.0,1.3,,29.5,11.0,0.001,,,0.653,1.409,0.0,23.0,,,,,,84.2,73.4,,,,,75.2,78.8,75.2,78.8,75.2,78.8,77.0,78.8,,,73.4,0.0,75.64999999999999,-8.550000000000011,-10.799999999999997,0.005055555555555556,1.5180000000000002,397.4,True,2026-04-09 22:15:49,0.0,0.0
68.06,1,9,2026-04-09 22:16:53,37.0816,-121.59962,290.0,0.0,239.3,-12.6,,,,,0.0,10.8,-1.0,7.7,0.0,258.0,-0.0,-0.01,1.0,99.0,-66.0,29.0,0.0,30.09,1958.0,,,317.0,,,,,0.0,0.0,,,,,,,,,,,,,,,,,,,0.0,23.0,0.0,0.0,30.0,0.0,,0.0,29.4,,,23.4,0.0,0.0,-0.1,9.2,7.4,,,,,24.0,26.0,24.0,26.0,24.0,26.0,25.0,26.0,,,13.0,1.2,,29.4,11.0,0.001,,,0.653,1.41,0.0,23.0,,,,,,84.2,73.4,,,,,75.2,78.8,75.2,78.8,75.2,78.8,77.0,78.8,,,73.4,0.0,75.64999999999999,-8.550000000000011,-10.799999999999997,0.005055555555555556,1.5180000000000002,397.4,True,2026-04-09 22:15:49,0.0,0.0
69.06,1,9,2026-04-09 22:16:54,37.0816,-121.59962,290.0,0.0,239.3,-12.6,,,,,0.0,10.8,-0.9,7.7,0.0,257.0,0.0,-0.01,1.0,99.0,-102.0,29.0,0.0,30.09,1958.0,,,317.0,,,,,0.0,0.0,,,,,,,,,,,,,,,,,,,0.0,23.0,0.0,0.0,30.0,0.0,,0.0,29.3,,,23.4,0.0,0.0,-0.1,9.2,7.4,,,,,24.0,26.0,24.0,26.0,24.0,26.0,25.0,26.0,,,13.0,1.1,,29.3,11.0,0.001,,,0.653,1.41,0.0,23.0,,,,,,84.2,73.4,,,,,75.2,78.8,75.2,78.8,75.2,78.8,77.0,78.8,,,73.4,0.0,75.64999999999999,-8.550000000000011,-10.799999999999997,0.005055555555555556,1.5180000000000002,397.4,True,2026-04-09 22:15:49,0.0,0.0
70.06,1,9,2026-04-09 22:16:55,37.0816,-121.59962,291.0,0.0,239.3,-12.6,,,,,0.0,10.8,-0.9,7.7,0.0,255.0,0.0,-0.02,1.0,99.0,-109.0,29.0,0.0,30.09,1958.0,,,317.0,,,,,0.0,0.0,,,,,,,,,,,,,,,,,,,0.0,23.0,0.0,0.0,30.0,0.0,,0.0,29.2,,,23.4,0.0,0.0,-0.1,9.2,7.4,,,,,24.0,26.0,24.0,26.0,24.0,26.0,25.0,26.0,,,13.0,1.1,,29.2,11.0,3.521,,,0.653,1.409,0.0,23.0,,,,,,84.2,73.4,,,,,75.2,78.8,75.2,78.8,75.2,78.8,77.0,78.8,,,73.4,0.0,75.64999999999999,-8.550000000000011,-10.799999999999997,0.005055555555555556,1.5180000000000002,397.4,True,2026-04-09 22:15:49,0.0,0.0
71.06,1,9,2026-04-09 22:16:56,37.0816,-121.59962,291.0,0.1,239.3,-12.6,,,,,0.0,10.8,-0.9,7.7,0.0,254.0,0.0,-0.01,1.0,99.0,-88.0,29.0,0.0,30.09,1958.0,,,317.0,,,,,0.0,0.0,,,,,,,,,,,,,,,,,,,0.0,23.0,0.0,0.0,30.0,0.0,,0.0,29.1,,,23.4,0.0,0.0,-0.1,9.2,7.4,,,,,25.0,26.0,25.0,26.0,25.0,26.0,25.0,26.0,,,13.0,1.1,,29.1,11.0,4.998,,,0.653,1.41,0.0,23.0,,,,,,84.2,73.4,,,,,77.0,78.8,77.0,78.8,77.0,78.8,77.0,78.8,,,73.4,0.0,77.0,-7.200000000000003,-10.799999999999997,0.005055555555555556,1.6023333333333336,397.4,True,2026-04-09 22:15:49,0.0,0.0
72.06,1,9,2026-04-09 22:16:57,37.0816,-121.59962,291.0,0.0,239.3,-12.6,,,,,0.0,10.8,-0.9,7.7,0.0,253.0,0.0,-0.01,1.0,99.0,-66.0,29.0,0.0,30.09,1961.0,,,317.0,,,,,0.0,0.0,,,,,,,,,,,,,,,,,,,0.0,23.0,0.0,0.0,30.0,0.0,,0.0,29.0,,,23.4,0.0,0.0,-0.1,9.2,7.4,,,,,24.0,26.0,24.0,26.0,24.0,26.0,25.0,26.0,,,13.0,1.0,,29.0,11.0,4.998,,,0.653,1.41,0.0,23.0,,,,,,84.2,73.4,,,,,75.2,78.8,75.2,78.8,75.2,78.8,77.0,78.8,,,73.4,0.0,75.64999999999999,-8.550000000000011,-10.799999999999997,0.005055555555555556,1.686666666666667,397.4,True,2026-04-09 22:15:49,0.0,0.0
73.06,1,9,2026-04-09 22:16:58,37.0816,-121.59962,292.0,0.0,239.3,-12.6,,,,,0.0,10.8,-0.9,7.7,0.0,253.0,0.0,-0.01,0.9,99.0,-28.0,29.0,0.0,30.09,1961.0,,,317.0,,,,,0.0,0.0,,,,,,,,,,,,,,,,,,,0.0,23.0,0.0,0.0,30.0,0.0,,0.0,28.9,,,23.4,0.0,0.0,-0.1,9.2,7.4,,,,,25.0,26.0,25.0,26.0,25.0,26.0,25.0,26.0,,,13.0,1.0,,28.9,11.0,4.998,,,0.653,1.41,0.0,23.0,,,,,,84.2,73.4,,,,,77.0,78.8,77.0,78.8,77.0,78.8,77.0,78.8,,,73.4,0.0,77.0,-7.200000000000003,-10.799999999999997,0.005055555555555556,1.686666666666667,397.4,True,2026-04-09 22:15:49,0.0,0.0
74.06,1,9,2026-04-09 22:16:59,37.0816,-121.59962,292.0,0.0,239.3,-12.6,,,,,0.0,10.8,-0.9,7.7,0.0,253.0,0.0,-0.01,1.0,99.0,8.0,29.0,0.0,30.09,1961.0,,,317.0,,,,,0.0,0.0,,,,,,,,,,,,,,,,,,,0.0,23.0,0.0,0.0,30.0,0.0,,0.0,28.8,,,23.4,0.0,0.0,-0.1,9.2,7.4,,,,,25.0,26.0,25.0,26.0,25.0,26.0,25.0,26.0,,,12.0,1.0,,28.8,11.0,4.998,,,0.653,1.41,0.0,23.0,,,,,,84.2,73.4,,,,,77.0,78.8,77.0,78.8,77.0,78.8,77.0,78.8,,,73.4,0.0,77.0,-7.200000000000003,-10.799999999999997,0.005055555555555556,1.686666666666667,397.4,True,2026-04-09 22:15:49,0.0,0.0
75.06,1,9,2026-04-09 22:17:00,37.0816,-121.59962,292.0,0.0,239.3,-12.6,,,,,0.0,10.8,-1.0,7.7,0.0,253.0,0.0,-0.01,1.0,99.0,29.0,29.0,0.0,30.09,1962.0,,,317.0,,,,,0.0,0.0,,,,,,,,,,,,,,,,,,,0.0,23.0,0.0,0.0,30.0,0.0,,0.0,28.7,,,23.4,0.0,0.0,-0.1,9.2,7.4,,,,,25.0,26.0,25.0,26.0,25.0,26.0,25.0,26.0,,,12.0,1.0,,28.7,11.0,4.998,,,0.653,1.41,0.0,23.0,,,,,,84.2,73.4,,,,,77.0,78.8,77.0,78.8,77.0,78.8,77.0,78.8,,,73.4,0.0,77.0,-7.200000000000003,-10.799999999999997,0.005055555555555556,1.686666666666667,397.4,True,2026-04-09 22:15:49,0.0,0.0
76.06,1,9,2026-04-09 22:17:01,37.0816,-121.59962,292.0,0.0,239.3,-12.6,,,,,0.0,10.8,-0.9,7.7,0.0,253.0,0.0,-0.01,1.0,99.0,19.0,29.0,0.0,30.09,1962.0,,,317.0,,,,,0.0,0.0,,,,,,,,,,,,,,,,,,,0.0,23.0,0.0,0.0,30.0,0.0,,0.0,28.6,,,23.4,0.0,0.0,-0.1,9.2,7.4,,,,,25.0,26.0,25.0,26.0,25.0,26.0,25.0,26.0,,,12.0,1.0,,28.6,11.0,4.998,,,0.653,1.41,0.0,23.0,,,,,,84.2,73.4,,,,,77.0,78.8,77.0,78.8,77.0,78.8,77.0,78.8,,,73.4,0.0,77.0,-7.200000000000003,-10.799999999999997,0.005055555555555556,1.686666666666667,397.4,True,2026-04-09 22:15:49,0.0,0.0
77.06,1,9,2026-04-09 22:17:02,37.0816,-121.59962,293.0,0.0,239.3,-12.6,,,,,0.0,10.8,-1.0,7.7,0.0,253.0,0.0,-0.01,1.0,99.0,35.0,29.0,0.0,30.09,1962.0,,,317.0,,,,,0.0,0.0,,,,,,,,,,,,,,,,,,,0.0,23.0,0.0,0.0,30.0,0.0,,0.0,28.5,,,23.4,0.0,0.0,-0.1,9.2,7.4,,,,,25.0,26.0,25.0,26.0,25.0,26.0,25.0,26.0,,,12.0,1.0,,28.5,11.0,4.998,,,0.653,1.41,0.0,23.0,,,,,,84.2,73.4,,,,,77.0,78.8,77.0,78.8,77.0,78.8,77.0,78.8,,,73.4,0.0,77.0,-7.200000000000003,-10.799999999999997,0.005055555555555556,1.686666666666667,397.4,True,2026-04-09 22:15:49,0.0,0.0
78.06,1,9,2026-04-09 22:17:03,37.0816,-121.59962,293.0,0.1,239.3,-12.6,,,,,0.0,10.8,-0.9,7.7,0.0,253.0,0.0,-0.0,1.0,99.0,20.0,29.0,0.0,30.09,1962.0,,,317.0,,,,,0.0,0.0,,,,,,,,,,,,,,,,,,,0.0,23.0,0.0,0.0,30.0,0.0,,0.0,28.4,,,23.4,0.0,0.0,-0.1,9.2,7.4,,,,,25.0,26.0,25.0,26.0,25.0,26.0,25.0,26.0,,,12.0,1.0,,28.4,11.0,4.998,,,0.653,1.432,0.0,23.0,,,,,,84.2,73.4,,,,,77.0,78.8,77.0,78.8,77.0,78.8,77.0,78.8,,,73.4,0.0,77.0,-7.200000000000003,-10.799999999999997,0.005055555555555556,1.7710000000000001,397.4,True,2026-04-09 22:15:49,0.0,0.0
79.06,1,9,2026-04-09 22:17:04,37.0816,-121.59962,293.0,0.2,239.3,-12.6,,,,,0.0,10.9,-0.8,7.6,0.0,253.0,0.0,-0.01,1.0,99.0,-3.0,29.0,0.0,30.09,1972.0,,,317.0,,,,,0.0,0.0,,,,,,,,,,,,,,,,,,,0.0,23.0,0.0,0.0,30.0,0.0,,0.0,28.4,,,23.4,0.0,0.0,-0.1,9.2,7.4,,,,,25.0,26.0,25.0,26.0,25.0,26.0,25.0,26.0,,,12.0,1.0,,28.4,11.0,4.998,,,0.656,1.027,0.0,23.0,,,,,,84.2,73.4,,,,,77.0,78.8,77.0,78.8,77.0,78.8,77.0,78.8,,,73.4,0.0,77.0,-7.200000000000003,-10.799999999999997,0.005055555555555556,2.024,397.4,True,2026-04-09 22:15:49,0.0,0.0
80.06,1,9,2026-04-09 22:17:05,37.0816,-121.59962,293.0,0.1,239.3,-12.6,,,,,0.0,10.9,-0.9,7.7,0.0,253.0,0.0,-0.02,1.0,99.0,-21.0,29.0,0.0,30.09,1972.0,,,317.0,,,,,0.0,0.0,,,,,,,,,,,,,,,,,,,0.0,23.0,0.0,0.0,30.0,0.0,,0.0,28.3,,,23.4,0.0,0.0,-0.1,9.2,7.4,,,,,25.0,26.0,25.0,26.0,25.0,26.0,25.0,26.0,,,12.0,1.0,,28.3,11.0,4.998,,,0.657,1.071,0.0,23.0,,,,,,84.2,73.4,,,,,77.0,78.8,77.0,78.8,77.0,78.8,77.0,78.8,,,73.4,0.0,77.0,-7.200000000000003,-10.799999999999997,0.005055555555555556,2.277,397.4,True,2026-04-09 22:15:49,0.0,0.0
81.06,1,9,2026-04-09 22:17:06,37.0816,-121.59962,294.0,0.1,239.3,-12.6,,,,,0.0,10.9,-0.9,7.8,0.0,253.0,0.0,-0.01,0.9,99.0,-28.0,29.0,0.0,30.09,1972.0,,,317.0,,,,,0.0,0.0,,,,,,,,,,,,,,,,,,,0.0,23.0,0.0,0.0,30.0,0.0,,0.0,28.2,,,23.4,0.0,0.0,-0.1,9.2,7.4,,,,,25.0,26.0,25.0,26.0,25.0,26.0,25.0,26.0,,,12.0,1.0,,28.2,11.0,4.998,,,0.701,1.47,0.0,23.0,,,,,,84.2,73.4,,,,,77.0,78.8,77.0,78.8,77.0,78.8,77.0,78.8,,,73.4,0.0,77.0,-7.200000000000003,-10.799999999999997,0.005055555555555556,2.445666666666667,397.4,True,2026-04-09 22:15:49,0.0,0.0
82.06,1,9,2026-04-09 22:17:07,37.0816,-121.59962,294.0,0.1,239.3,-12.6,,,,,0.0,10.9,-1.0,7.8,0.0,253.0,0.0,-0.02,0.9,99.0,-2.0,29.0,0.0,30.09,1972.0,,,317.0,,,,,0.0,0.0,,,,,,,,,,,,,,,,,,,0.0,23.0,0.0,0.0,30.0,0.0,,0.0,28.1,,,23.4,0.0,0.0,-0.1,9.2,7.4,,,,,25.0,26.0,25.0,26.0,25.0,26.0,25.0,26.0,,,12.0,1.0,,28.1,11.0,4.998,,,0.657,1.256,0.0,23.0,,,,,,84.2,73.4,,,,,77.0,78.8,77.0,78.8,77.0,78.8,77.0,78.8,,,73.4,0.0,77.0,-7.200000000000003,-10.799999999999997,0.005055555555555556,2.6143333333333336,397.4,True,2026-04-09 22:15:49,0.0,0.0
83.06,1,9,2026-04-09 22:17:08,37.0816,-121.59962,294.0,0.1,239.3,-12.6,,,,,0.0,10.9,-1.0,7.8,0.0,253.0,0.0,-0.01,1.0,99.0,14.0,29.0,0.0,30.09,1972.0,,,317.0,,,,,0.0,0.0,,,,,,,,,,,,,,,,,,,0.0,23.0,0.0,0.0,30.0,0.0,,0.0,28.0,,,23.4,0.0,0.0,-0.1,9.2,7.4,,,,,25.0,26.0,25.0,26.0,25.0,26.0,25.0,26.0,,,12.0,1.0,,28.0,11.0,4.998,,,0.658,1.506,0.0,23.0,,,,,,84.2,73.4,,,,,77.0,78.8,77.0,78.8,77.0,78.8,77.0,78.8,,,73.4,0.0,77.0,-7.200000000000003,-10.799999999999997,0.005055555555555556,2.7830000000000004,397.4,True,2026-04-09 22:15:49,0.0,0.0
84.06,1,9,2026-04-09 22:17:09,37.0816,-121.59962,295.0,0.2,239.3,-12.6,,,,,0.0,10.9,-0.6,7.9,0.0,253.0,0.1,-0.01,1.0,99.0,40.0,29.0,0.0,30.09,1972.0,,,317.0,,,,,0.0,0.0,,,,,,,,,,,,,,,,,,,0.0,23.0,0.0,0.0,30.0,0.0,,0.0,27.9,,,23.4,0.0,0.0,-0.1,9.2,7.4,,,,,25.0,26.0,25.0,26.0,25.0,26.0,25.0,26.0,,,12.0,1.0,,27.9,11.0,4.998,,,0.654,1.461,0.0,23.0,,,,,,84.2,73.4,,,,,77.0,78.8,77.0,78.8,77.0,78.8,77.0,78.8,,,73.4,0.0,77.0,-7.200000000000003,-10.799999999999997,0.005055555555555556,3.0360000000000005,397.4,True,2026-04-09 22:15:49,0.0,0.0
85.06,1,9,2026-04-09 22:17:10,37.0816,-121.59962,295.0,0.1,239.3,-12.6,,,,,0.0,10.8,-0.6,7.8,0.0,253.0,0.0,-0.01,1.0,99.0,62.0,29.0,0.0,30.09,1972.0,,,317.0,,,,,0.0,0.0,,,,,,,,,,,,,,,,,,,0.0,23.0,0.0,0.0,30.0,0.0,,0.0,27.9,,,23.4,0.0,0.0,-0.1,9.2,7.4,,,,,25.0,26.0,25.0,26.0,25.0,26.0,25.0,26.0,,,12.0,0.0,,27.9,11.0,4.998,,,0.654,1.425,0.0,23.0,,,,,,84.2,73.4,,,,,77.0,78.8,77.0,78.8,77.0,78.8,77.0,78.8,,,73.4,0.0,77.0,-7.200000000000003,-10.799999999999997,0.005055555555555556,3.289,397.4,True,2026-04-09 22:15:49,0.0,0.0
86.06,1,9,2026-04-09 22:17:11,37.0816,-121.59961,295.0,0.1,239.3,-12.6,,,,,0.0,10.8,-0.6,7.9,0.0,253.0,0.0,-0.02,1.0,99.0,80.0,29.0,0.0,30.09,1973.0,,,317.0,,,,,0.0,0.0,,,,,,,,,,,,,,,,,,,0.0,23.0,0.0,0.0,30.0,0.0,,0.0,27.8,,,23.4,0.0,0.0,-0.1,9.2,7.4,,,,,25.0,26.0,25.0,26.0,25.0,26.0,25.0,26.0,,,12.0,0.0,,27.8,11.0,4.998,,,0.656,1.466,0.0,23.0,,,,,,84.2,73.4,,,,,77.0,78.8,77.0,78.8,77.0,78.8,77.0,78.8,,,73.4,0.0,77.0,-7.200000000000003,-10.799999999999997,0.005055555555555556,3.457666666666667,397.4,True,2026-04-09 22:15:49,0.0,0.0
87.06,1,9,2026-04-09 22:17:12,37.0816,-121.59961,295.0,0.0,239.3,-12.6,,,,,0.0,10.8,-0.7,7.9,0.0,253.0,0.0,-0.02,1.0,99.0,70.0,29.0,0.0,30.09,1973.0,,,317.0,,,,,0.0,0.0,,,,,,,,,,,,,,,,,,,0.0,23.0,0.0,0.0,30.0,0.0,,0.0,27.7,,,23.4,0.0,0.0,-0.1,9.2,7.4,,,,,24.0,26.0,25.0,26.0,25.0,26.0,25.0,26.0,,,12.0,0.0,,27.7,11.0,4.998,,,0.654,1.464,0.0,23.0,,,,,,84.2,73.4,,,,,75.2,78.8,77.0,78.8,77.0,78.8,77.0,78.8,,,73.4,0.0,76.55,-7.650000000000006,-10.799999999999997,0.005055555555555556,3.5420000000000003,397.4,True,2026-04-09 22:15:49,0.0,0.0
88.06,1,9,2026-04-09 22:17:13,37.0816,-121.59961,295.0,0.0,239.3,-12.6,,,,,0.0,10.8,-0.7,7.9,0.0,253.0,0.0,-0.01,1.0,99.0,87.0,29.0,0.0,30.09,1974.0,,,317.0,,,,,0.0,0.0,,,,,,,,,,,,,,,,,,,0.0,23.0,0.0,0.0,30.0,0.0,,0.0,27.6,,,23.4,0.0,0.0,-0.1,9.2,7.4,,,,,24.0,26.0,25.0,26.0,25.0,26.0,25.0,26.0,,,12.0,0.0,,27.6,11.0,4.998,,,0.654,1.464,0.0,23.0,,,,,,84.2,73.4,,,,,75.2,78.8,77.0,78.8,77.0,78.8,77.0,78.8,,,73.4,0.0,76.55,-7.650000000000006,-10.799999999999997,0.005055555555555556,3.5420000000000003,397.4,True,2026-04-09 22:15:49,0.0,0.0
89.06,1,9,2026-04-09 22:17:14,37.0816,-121.59961,295.0,0.0,239.3,-12.6,,,,,0.0,10.8,-0.6,7.9,0.0,255.0,0.1,-0.01,1.0,99.0,79.0,29.0,0.0,30.09,1976.0,,,317.0,,,,,0.0,0.0,,,,,,,,,,,,,,,,,,,0.0,23.0,0.0,0.0,30.0,0.0,,0.0,27.5,,,23.4,0.0,0.0,-0.1,9.2,7.4,,,,,25.0,26.0,25.0,26.0,25.0,26.0,25.0,26.0,,,12.0,0.0,,27.5,11.0,4.998,,,0.654,1.464,0.0,23.0,,,,,,84.2,73.4,,,,,77.0,78.8,77.0,78.8,77.0,78.8,77.0,78.8,,,73.4,0.0,77.0,-7.200000000000003,-10.799999999999997,0.005055555555555556,3.5420000000000003,397.4,True,2026-04-09 22:15:49,0.0,0.0
90.06,1,9,2026-04-09 22:17:15,37.0816,-121.59961,296.0,0.0,239.3,-12.6,,,,,0.0,10.7,-0.7,7.9,0.0,256.0,0.0,-0.01,1.0,99.0,83.0,29.0,0.0,30.09,1977.0,,,317.0,,,,,0.0,0.0,,,,,,,,,,,,,,,,,,,0.0,23.0,0.0,0.0,30.0,0.0,,0.0,27.5,,,23.4,0.0,0.0,-0.1,9.2,7.4,,,,,25.0,26.0,25.0,26.0,25.0,26.0,25.0,26.0,,,12.0,0.0,,27.5,11.0,4.998,,,0.653,1.464,0.0,23.0,,,,,,84.2,73.4,,,,,77.0,78.8,77.0,78.8,77.0,78.8,77.0,78.8,,,73.4,0.0,77.0,-7.200000000000003,-10.799999999999997,0.005055555555555556,3.5420000000000003,397.4,True,2026-04-09 22:15:49,0.0,0.0
91.06,1,9,2026-04-09 22:17:16,37.0816,-121.59961,296.0,0.0,239.3,-12.6,,,,,0.0,10.8,-0.8,7.8,0.0,257.0,0.0,-0.01,1.0,99.0,70.0,29.0,0.0,30.09,1978.0,,,317.0,,,,,0.0,0.0,,,,,,,,,,,,,,,,,,,0.0,23.0,0.0,0.0,30.0,0.0,,0.0,27.4,,,23.4,0.0,0.0,-0.1,9.2,7.4,,,,,25.0,26.0,25.0,26.0,25.0,26.0,25.0,26.0,,,13.0,0.0,,27.4,11.0,4.998,,,0.654,1.464,0.0,23.0,,,,,,84.2,73.4,,,,,77.0,78.8,77.0,78.8,77.0,78.8,77.0,78.8,,,73.4,0.0,77.0,-7.200000000000003,-10.799999999999997,0.005055555555555556,3.5420000000000003,397.4,True,2026-04-09 22:15:49,0.0,0.0
92.06,1,9,2026-04-09 22:17:17,37.0816,-121.59961,296.0,0.0,239.3,-12.6,,,,,0.0,10.8,-0.8,7.7,0.0,258.0,0.0,-0.01,1.0,99.0,47.0,29.0,0.0,30.09,1979.0,,,317.0,,,,,0.0,0.0,,,,,,,,,,,,,,,,,,,0.0,23.0,0.0,0.0,30.0,0.0,,0.0,27.3,,,23.4,0.0,0.0,-0.1,9.2,7.4,,,,,25.0,26.0,25.0,26.0,25.0,26.0,25.0,26.0,,,13.0,0.0,,27.3,11.0,4.998,,,0.653,1.464,0.0,23.0,,,,,,84.2,73.4,,,,,77.0,78.8,77.0,78.8,77.0,78.8,77.0,78.8,,,73.4,0.0,77.0,-7.200000000000003,-10.799999999999997,0.005055555555555556,3.5420000000000003,397.4,True,2026-04-09 22:15:49,0.0,0.0
93.06,1,9,2026-04-09 22:17:18,37.0816,-121.59961,296.0,0.0,239.3,-12.6,,,,,0.0,10.9,-0.7,7.7,0.0,258.0,0.0,-0.01,1.0,99.0,8.0,29.0,0.0,30.09,1979.0,,,317.0,,,,,0.0,0.0,,,,,,,,,,,,,,,,,,,0.0,23.0,0.0,0.0,30.0,0.0,,0.0,27.3,,,23.4,0.0,0.0,-0.1,9.2,7.4,,,,,25.0,26.0,25.0,26.0,25.0,26.0,25.0,26.0,,,13.0,0.0,,27.3,11.0,4.998,,,0.653,1.464,0.0,23.0,,,,,,84.2,73.4,,,,,77.0,78.8,77.0,78.8,77.0,78.8,77.0,78.8,,,73.4,0.0,77.0,-7.200000000000003,-10.799999999999997,0.005055555555555556,3.5420000000000003,397.4,True,2026-04-09 22:15:49,0.0,0.0
94.06,1,9,2026-04-09 22:17:19,37.08159,-121.5996,305.0,0.0,239.3,-12.6,,,,,0.0,10.9,-0.7,7.7,0.0,258.0,0.0,-0.01,1.0,99.0,-12.0,29.0,0.0,30.09,1979.0,,,317.0,,,,,0.0,0.0,,,,,,,,,,,,,,,,,,,0.0,23.0,0.0,0.0,30.0,0.0,,0.0,27.2,,,23.4,0.0,0.0,-0.1,9.2,7.4,,,,,25.0,26.0,25.0,26.0,25.0,26.0,25.0,26.0,,,13.0,0.0,,27.2,11.0,4.998,,,0.653,1.464,0.0,23.0,,,,,,84.2,73.4,,,,,77.0,78.8,77.0,78.8,77.0,78.8,77.0,78.8,,,73.4,0.0,77.0,-7.200000000000003,-10.799999999999997,0.005055555555555556,3.5420000000000003,397.4,True,2026-04-09 22:15:49,0.0,0.0
95.06,1,9,2026-04-09 22:17:20,37.08159,-121.5996,306.0,0.0,239.3,-12.6,,,,,0.0,10.9,-0.7,7.7,0.0,258.0,0.1,-0.01,1.0,99.0,-25.0,29.0,0.0,30.09,1989.0,,,317.0,,,,,0.0,0.0,,,,,,,,,,,,,,,,,,,0.0,23.0,0.0,0.0,30.0,0.0,,0.0,27.1,,,23.4,0.0,0.0,-0.1,9.2,7.4,,,,,25.0,26.0,25.0,26.0,25.0,26.0,25.0,26.0,,,13.0,0.0,,27.1,11.0,4.998,,,0.654,1.464,0.0,23.0,,,,,,84.2,73.4,,,,,77.0,78.8,77.0,78.8,77.0,78.8,77.0,78.8,,,73.4,0.0,77.0,-7.200000000000003,-10.799999999999997,0.005055555555555556,3.5420000000000003,397.4,True,2026-04-09 22:15:49,0.0,0.0
96.06,1,9,2026-04-09 22:17:21,37.08159,-121.5996,306.0,0.0,239.3,-12.6,,,,,0.0,10.8,-0.7,7.6,0.0,258.0,0.1,-0.01,1.0,99.0,-5.0,29.0,0.0,30.09,1989.0,,,317.0,,,,,0.0,0.0,,,,,,,,,,,,,,,,,,,0.0,23.0,0.0,0.0,30.0,0.0,,0.0,27.0,,,23.4,0.0,0.0,-0.1,9.2,7.4,,,,,25.0,26.0,25.0,26.0,25.0,26.0,25.0,26.0,,,13.0,0.0,,27.0,11.0,4.998,,,0.653,1.464,0.0,23.0,,,,,,84.2,73.4,,,,,77.0,78.8,77.0,78.8,77.0,78.8,77.0,78.8,,,73.4,0.0,77.0,-7.200000000000003,-10.799999999999997,0.005055555555555556,3.5420000000000003,397.4,True,2026-04-09 22:15:49,0.0,0.0
97.06,1,9,2026-04-09 22:17:22,37.0816,-121.5996,306.0,0.0,239.3,-12.6,,,,,0.0,10.9,-0.6,7.6,0.0,258.0,0.1,-0.01,1.0,99.0,-38.0,29.0,0.0,30.09,1989.0,,,317.0,,,,,0.0,0.0,,,,,,,,,,,,,,,,,,,0.0,23.0,0.0,0.0,30.0,0.0,,0.0,27.0,,,23.4,0.0,0.0,-0.1,9.2,7.4,,,,,25.0,26.0,25.0,26.0,25.0,26.0,25.0,26.0,,,13.0,0.0,,27.0,11.0,4.998,,,0.653,1.464,0.0,23.0,,,,,,84.2,73.4,,,,,77.0,78.8,77.0,78.8,77.0,78.8,77.0,78.8,,,73.4,0.0,77.0,-7.200000000000003,-10.799999999999997,0.005055555555555556,3.5420000000000003,397.4,True,2026-04-09 22:15:49,0.0,0.0
98.06,1,9,2026-04-09 22:17:23,37.0816,-121.5996,306.0,0.0,239.3,-12.6,,,,,0.0,10.8,-0.7,7.6,0.0,258.0,0.0,-0.01,1.0,99.0,-45.0,29.0,0.0,30.09,1989.0,,,317.0,,,,,0.0,0.0,,,,,,,,,,,,,,,,,,,0.0,23.0,0.0,0.0,30.0,0.0,,0.0,26.9,,,23.4,0.0,0.0,-0.1,9.2,7.4,,,,,25.0,26.0,25.0,26.0,25.0,26.0,25.0,26.0,,,13.0,0.0,,26.9,11.0,4.998,,,0.653,1.464,0.0,23.0,,,,,,84.2,73.4,,,,,77.0,78.8,77.0,78.8,77.0,78.8,77.0,78.8,,,73.4,0.0,77.0,-7.200000000000003,-10.799999999999997,0.005055555555555556,3.5420000000000003,397.4,True,2026-04-09 22:15:49,0.0,0.0
99.06,1,9,2026-04-09 22:17:24,37.0816,-121.5996,307.0,0.0,239.3,-12.6,,,,,0.0,10.8,-0.7,7.5,0.0,258.0,0.0,-0.01,1.0,99.0,2.0,29.0,0.0,30.09,1999.0,,,317.0,,,,,0.0,0.0,,,,,,,,,,,,,,,,,,,0.0,23.0,0.0,0.0,30.0,0.0,,0.0,26.8,,,23.4,0.0,0.0,-0.1,9.2,7.4,,,,,25.0,26.0,25.0,26.0,25.0,26.0,25.0,26.0,,,13.0,0.0,,26.8,11.0,4.998,,,0.653,1.464,0.0,23.0,,,,,,84.2,73.4,,,,,77.0,78.8,77.0,78.8,77.0,78.8,77.0,78.8,,,73.4,0.0,77.0,-7.200000000000003,-10.799999999999997,0.005055555555555556,3.5420000000000003,397.4,True,2026-04-09 22:15:49,0.0,0.0
100.06,1,9,2026-04-09 22:17:25,37.0816,-121.5996,307.0,0.0,239.3,-12.6,,,,,0.0,10.8,-0.6,7.5,0.0,258.0,0.0,-0.01,1.0,99.0,1.0,29.0,0.0,30.09,1999.0,,,317.0,,,,,0.0,0.0,,,,,,,,,,,,,,,,,,,0.0,23.0,0.0,0.0,30.0,0.0,,0.0,26.8,,,23.4,0.0,0.0,-0.1,9.2,7.4,,,,,25.0,26.0,25.0,26.0,25.0,26.0,25.0,26.0,,,12.0,0.0,,26.8,11.0,4.998,,,0.654,1.464,0.0,23.0,,,,,,84.2,73.4,,,,,77.0,78.8,77.0,78.8,77.0,78.8,77.0,78.8,,,73.4,0.0,77.0,-7.200000000000003,-10.799999999999997,0.005055555555555556,3.5420000000000003,397.4,True,2026-04-09 22:15:49,0.0,0.0
101.06,1,9,2026-04-09 22:17:26,37.0816,-121.5996,308.0,0.0,239.3,-12.6,,,,,0.0,10.8,-0.6,7.6,0.0,258.0,0.0,-0.01,1.0,99.0,-27.0,29.0,0.0,30.09,1999.0,,,317.0,,,,,0.0,0.0,,,,,,,,,,,,,,,,,,,0.0,23.0,0.0,0.0,30.0,0.0,,0.0,26.7,,,23.4,0.0,0.0,-0.1,9.2,7.4,,,,,25.0,26.0,25.0,26.0,25.0,26.0,25.0,26.0,,,13.0,0.0,,26.7,11.0,4.998,,,0.653,1.464,0.0,23.0,,,,,,84.2,73.4,,,,,77.0,78.8,77.0,78.8,77.0,78.8,77.0,78.8,,,73.4,0.0,77.0,-7.200000000000003,-10.799999999999997,0.005055555555555556,3.5420000000000003,397.4,True,2026-04-09 22:15:49,0.0,0.0
102.06,1,9,2026-04-09 22:17:27,37.0816,-121.5996,309.0,0.0,239.3,-12.6,,,,,0.0,10.8,-0.6,7.6,0.0,258.0,0.0,-0.01,1.0,99.0,-37.0,29.0,0.0,30.09,2000.0,,,317.0,,,,,0.0,0.0,,,,,,,,,,,,,,,,,,,0.0,23.0,0.0,0.0,30.0,0.0,,0.0,26.6,,,23.4,0.0,0.0,-0.1,9.2,7.4,,,,,25.0,26.0,25.0,26.0,25.0,26.0,25.0,26.0,,,13.0,0.0,,26.6,11.0,4.998,,,0.654,1.464,0.0,23.0,,,,,,84.2,73.4,,,,,77.0,78.8,77.0,78.8,77.0,78.8,77.0,78.8,,,73.4,0.0,77.0,-7.200000000000003,-10.799999999999997,0.005055555555555556,3.5420000000000003,397.4,True,2026-04-09 22:15:49,0.0,0.0
103.06,1,9,2026-04-09 22:17:28,37.0816,-121.5996,309.0,0.0,239.3,-12.6,,,,,0.0,10.8,-0.6,7.5,0.0,258.0,0.0,-0.01,1.0,99.0,-68.0,29.0,0.0,30.09,2000.0,,,317.0,,,,,0.0,0.0,,,,,,,,,,,,,,,,,,,0.0,23.0,0.0,0.0,30.0,0.0,,0.0,26.5,,,23.4,0.0,0.0,-0.1,9.2,7.4,,,,,25.0,26.0,25.0,26.0,25.0,26.0,25.0,26.0,,,13.0,0.0,,26.5,11.0,4.998,,,0.653,1.464,0.0,23.0,,,,,,84.2,73.4,,,,,77.0,78.8,77.0,78.8,77.0,78.8,77.0,78.8,,,73.4,0.0,77.0,-7.200000000000003,-10.799999999999997,0.005055555555555556,3.5420000000000003,397.4,True,2026-04-09 22:15:49,0.0,0.0
104.06,1,9,2026-04-09 22:17:29,37.0816,-121.5996,310.0,0.0,239.3,-12.6,,,,,0.0,10.8,-0.7,7.5,0.0,258.0,0.0,-0.01,1.0,99.0,-46.0,29.0,0.0,30.09,2000.0,,,317.0,,,,,0.0,0.0,,,,,,,,,,,,,,,,,,,0.0,23.0,0.0,0.0,30.0,0.0,,0.0,26.5,,,23.4,0.0,0.0,-0.1,9.2,7.4,,,,,25.0,26.0,25.0,26.0,25.0,26.0,25.0,26.0,,,12.0,0.0,,26.5,11.0,4.998,,,0.653,1.464,0.0,23.0,,,,,,84.2,73.4,,,,,77.0,78.8,77.0,78.8,77.0,78.8,77.0,78.8,,,73.4,0.0,77.0,-7.200000000000003,-10.799999999999997,0.005055555555555556,3.5420000000000003,397.4,True,2026-04-09 22:15:49,0.0,0.0
105.06,1,9,2026-04-09 22:17:30,37.0816,-121.5996,311.0,0.0,239.3,-12.6,,,,,0.0,10.8,-0.7,7.4,0.0,258.0,0.0,-0.01,1.0,99.0,-9.0,29.0,0.0,30.09,2010.0,,,317.0,,,,,0.0,0.0,,,,,,,,,,,,,,,,,,,0.0,23.0,0.0,0.0,30.0,0.0,,0.0,26.4,,,23.4,0.0,0.0,-0.1,9.2,7.4,,,,,25.0,26.0,25.0,26.0,25.0,26.0,25.0,26.0,,,12.0,0.0,,26.4,11.0,4.998,,,0.653,1.464,0.0,23.0,,,,,,84.2,73.4,,,,,77.0,78.8,77.0,78.8,77.0,78.8,77.0,78.8,,,73.4,0.0,77.0,-7.200000000000003,-10.799999999999997,0.005055555555555556,3.5420000000000003,397.4,True,2026-04-09 22:15:49,0.0,0.0
106.06,1,9,2026-04-09 22:17:31,37.0816,-121.5996,311.0,0.0,239.3,-12.6,,,,,0.0,10.8,-0.7,7.4,0.0,258.0,0.0,-0.01,1.0,99.0,-9.0,29.0,0.0,30.09,2010.0,,,317.0,,,,,0.0,0.0,,,,,,,,,,,,,,,,,,,0.0,23.0,0.0,0.0,30.0,0.0,,0.0,26.4,,,23.4,0.0,0.0,-0.1,9.2,7.4,,,,,25.0,26.0,25.0,26.0,25.0,26.0,25.0,26.0,,,12.0,0.0,,26.4,11.0,4.998,,,0.654,1.464,0.0,23.0,,,,,,84.2,73.4,,,,,77.0,78.8,77.0,78.8,77.0,78.8,77.0,78.8,,,73.4,0.0,77.0,-7.200000000000003,-10.799999999999997,0.005055555555555556,3.5420000000000003,397.4,True,2026-04-09 22:15:49,0.0,0.0
107.06,1,9,2026-04-09 22:17:32,37.0816,-121.5996,312.0,0.0,239.3,-12.6,,,,,0.0,10.8,-0.7,7.5,0.0,258.0,0.0,-0.01,1.0,99.0,-71.0,29.0,0.0,30.09,2010.0,,,317.0,,,,,0.0,0.0,,,,,,,,,,,,,,,,,,,0.0,23.0,0.0,0.0,30.0,0.0,,0.0,26.3,,,23.4,0.0,0.0,-0.1,9.2,7.4,,,,,25.0,26.0,25.0,26.0,25.0,26.0,25.0,26.0,,,12.0,0.0,,26.3,11.0,4.998,,,0.653,1.464,0.0,23.0,,,,,,84.2,73.4,,,,,77.0,78.8,77.0,78.8,77.0,78.8,77.0,78.8,,,73.4,0.0,77.0,-7.200000000000003,-10.799999999999997,0.005055555555555556,3.5420000000000003,397.4,True,2026-04-09 22:15:49,0.0,0.0
108.06,2,9,2026-04-09 22:17:33,37.0816,-121.5996,308.0,0.0,239.3,-12.6,,,,,0.0,10.8,-0.7,7.6,0.0,257.0,0.0,-0.01,1.0,99.0,-23.0,29.0,0.0,30.09,2010.0,,,317.0,,,,,0.0,0.0,,,,,,,,,,,,,,,,,,,0.0,23.0,0.0,0.0,30.0,0.0,,0.0,26.2,,,23.4,0.0,0.0,-0.1,9.2,7.4,,,,,25.0,26.0,25.0,26.0,25.0,26.0,25.0,26.0,,,12.0,0.0,,26.2,11.0,4.998,,,0.653,1.464,0.0,23.0,,,,,,84.2,73.4,,,,,77.0,78.8,77.0,78.8,77.0,78.8,77.0,78.8,,,73.4,0.0,77.0,-7.200000000000003,-10.799999999999997,0.005055555555555556,3.5420000000000003,397.4,True,2026-04-09 22:15:49,0.0,0.0
109.06,2,9,2026-04-09 22:17:34,37.0816,-121.5996,307.0,0.0,239.3,-12.6,,,,,0.0,10.7,-0.7,7.7,0.0,257.0,0.0,-0.01,1.0,99.0,-46.0,29.0,0.0,30.09,2010.0,,,317.0,,,,,0.0,0.0,,,,,,,,,,,,,,,,,,,0.0,23.0,0.0,0.0,30.0,0.0,,0.0,26.2,,,23.4,0.0,0.0,-0.1,9.2,7.4,,,,,25.0,26.0,25.0,26.0,25.0,26.0,25.0,26.0,,,12.0,0.0,,26.2,11.0,4.998,,,0.653,1.464,0.0,23.0,,,,,,84.2,73.4,,,,,77.0,78.8,77.0,78.8,77.0,78.8,77.0,78.8,,,73.4,0.0,77.0,-7.200000000000003,-10.799999999999997,0.005055555555555556,3.5420000000000003,397.4,True,2026-04-09 22:15:49,0.0,0.0
110.06,2,9,2026-04-09 22:17:35,37.0816,-121.5996,308.0,0.0,239.3,-12.6,,,,,0.0,10.8,-0.6,7.8,0.0,256.0,0.0,-0.01,1.0,99.0,-37.0,29.0,0.0,30.09,2019.0,,,317.0,,,,,0.0,0.0,,,,,,,,,,,,,,,,,,,0.0,23.0,0.0,0.0,30.0,0.0,,0.0,26.1,,,23.4,0.0,0.0,-0.1,9.2,7.4,,,,,25.0,26.0,25.0,26.0,25.0,26.0,25.0,26.0,,,12.0,0.0,,26.1,11.0,4.998,,,0.653,1.464,0.0,23.0,,,,,,84.2,73.4,,,,,77.0,78.8,77.0,78.8,77.0,78.8,77.0,78.8,,,73.4,0.0,77.0,-7.200000000000003,-10.799999999999997,0.005055555555555556,3.5420000000000003,397.4,True,2026-04-09 22:15:49,0.0,0.0
111.06,1,10,2026-04-09 22:17:36,37.08162,-121.59956,375.0,0.0,239.3,-12.6,,,,,0.0,10.8,-0.7,7.8,0.0,256.0,0.0,-0.01,1.0,99.0,-13.0,29.0,0.0,30.09,2019.0,,,317.0,,,,,0.0,0.0,,,,,,,,,,,,,,,,,,,0.0,23.0,0.0,0.0,30.0,0.0,,0.0,26.1,,,23.4,0.0,0.0,-0.1,9.2,7.4,,,,,25.0,26.0,25.0,26.0,25.0,26.0,25.0,26.0,,,12.0,0.0,,26.1,11.0,4.998,,,0.654,1.464,0.0,23.0,,,,,,84.2,73.4,,,,,77.0,78.8,77.0,78.8,77.0,78.8,77.0,78.8,,,73.4,0.0,77.0,-7.200000000000003,-10.799999999999997,0.005055555555555556,3.5420000000000003,397.4,True,2026-04-09 22:15:49,0.0,0.0
