Session Time,GPS Fix Quality,Number of Satellites,GPS Date & Time,Latitude (deg),Longitude (deg),GPS Altitude (feet),Ground Speed (knots),Ground Track (deg),Mag Var (deg),Cross Track Error (NM),Destination Waypoint ID,Range to Destination (NM),Bearing to Destination (deg),System Time,Pitch (deg),Roll (deg),Magnetic Heading (deg),Indicated Airspeed (knots),Pressure Altitude (ft),Turn Rate (deg/s),Lateral Accel (g),Vertical Accel(g),Angle of Attack (%),Vertical Speed (ft/min),OAT (deg C),True Airspeed (knots),Barometer Setting (inHg),Density Altitude (ft),Wind Direction (deg),Wind Speed (knots),Heading Bug (deg),Altitude Bug (ft),Airspeed Bug (knots),Vertical Speed Bug (ft/min),Course (deg),CDI Source Type,CDI Source Port,CDI Scale (NM),CDI Deflection (%),Glideslope (%),AP Engaged,AP Roll Mode,AP Roll Force,AP Roll Position (steps),AP Roll Slip (bool),AP Pitch Force,AP Pitch Position (steps),AP Pitch Slip (bool),AP Yaw Force,AP Yaw Position,AP Yaw Slip (bool),Transponder Status,Transponder Reply (bool),Transponder Identing (bool),Transponder Code (octal),Oil Pressure (PSI),Oil Temp (deg C),RPM L,RPM R,Manifold Pressure (inHg),Fuel Flow 1 (gal/hr),Fuel Flow 2 (gal/hr),Total Fuel Flow (gal/hr),Fuel Pressure (PSI),Fuel Level L (gal),Fuel Level R (gal),Fuel Remaining (gal),Volts 1,Volts 2,Amps,Hobbs Time,Tach Time,Thermocouple 1 (deg C),Thermocouple 2 (deg C),Thermocouple 3 (deg C),Thermocouple 4 (deg C),CHT 4 (deg C),EGT 4 (deg C),CHT 3 (deg C),EGT 3 (deg C),CHT 2 (deg C),EGT 2 (deg C),CHT 1 (deg C),EGT 1 (deg C),Thermocouple 13 (deg C),Thermocouple 14 (deg C),ELEV POSITION (%),CO PPM PRESSURE (PSI),GP Input 3,FUEL PRESSURE (PSI),AILERN POSITION (%),CANOPY CONTACT (V),GP Input 7,GP Input 8,LEFT LEVEL (Sensor V),RIGHT LEVEL (Sensor V),OIL PRESSURE (PSI),OIL TEMPERATURE (deg C),GP Input 13,Contacts,Percent Power,EGT Leaning State,Unnamed: 103,source_file,Unnamed: 0,press_alt,ias,hdg,gps_gs,gps_trk,OAT (deg F),Oil Temp (deg F),Thermocouple 1 (deg F),Thermocouple 2 (deg F),Thermocouple 3 (deg F),Thermocouple 4 (deg F),CHT 4 (deg F),EGT 4 (deg F),CHT 3 (deg F),EGT 3 (deg F),CHT 2 (deg F),EGT 2 (deg F),CHT 1 (deg F),EGT 1 (deg F),Thermocouple 13 (deg F),Thermocouple 14 (deg F),OIL TEMPERATURE (deg F),RPM,AVG_CHT,CHT_OAT_Ratio,OIL_OAT_Ratio,Fuel Flow Integral,Distance Traveled,Max CHT,Engine Run,Flight ID,efficiency
5.06,0.0,0.0,2026-03-21 23:01:08,37.08154,-121.59951,,0.0,44.3,-17.1,,,,,0.0,10.6,-0.9,10.1,0.0,271.0,0.0,-0.01,1.0,99.0,-90.0,30.0,0.0,30.01,2147.0,,,153.0,,,,,0.0,0.0,,,,,,,,,,,,,,,,,,,0.0,26.0,0.0,0.0,30.1,0.0,,0.0,0.2,,,39.3,0.0,0.0,0.1,7.6,5.9,,,,,27.0,28.0,27.0,28.0,28.0,28.0,28.0,28.0,,,7.0,254.3,,0.2,17.0,4.998,,,0.653,0.719,0.0,26.4,,,,,,2026-03-21-N890GF-SN35347-17.4.0.23677-USER_LOG_DATA.csv,,,,,,,86.0,78.8,,,,,80.6,82.4,80.6,82.4,82.4,82.4,82.4,82.4,,,79.52,0.0,81.5,0.9476744186046512,0.9162790697674418,0.0,0.0,392.0,True,2026-03-21 23:01:08 - Flight 11,
6.06,1.0,9.0,2026-03-21 23:01:09,37.08162,-121.59949,364.0,0.0,44.3,-12.6,,,,,0.0,10.6,-0.9,10.1,0.0,269.0,0.0,-0.01,1.0,99.0,-109.0,30.0,0.0,30.01,2147.0,,,153.0,,,,,0.0,0.0,,,,,,,,,,,,,,,,,,,0.0,26.0,0.0,0.0,30.1,0.0,,0.0,0.2,,,39.3,0.0,0.0,0.1,7.6,5.9,,,,,27.0,28.0,28.0,28.0,28.0,28.0,28.0,28.0,,,7.0,254.3,,0.2,17.0,4.998,,,0.653,0.719,0.0,26.4,,,,,,2026-03-21-N890GF-SN35347-17.4.0.23677-USER_LOG_DATA.csv,,,,,,,86.0,78.8,,,,,80.6,82.4,82.4,82.4,82.4,82.4,82.4,82.4,,,79.52,0.0,81.95,0.9529069767441861,0.9162790697674418,0.0,0.0,392.0,True,2026-03-21 23:01:08 - Flight 11,
7.06,1.0,9.0,2026-03-21 23:01:10,37.08162,-121.59949,364.0,0.0,44.3,-12.6,,,,,0.0,10.6,-0.9,10.1,0.0,267.0,0.0,-0.02,1.0,99.0,-111.0,30.0,0.0,30.01,2138.0,,,153.0,,,,,0.0,0.0,,,,,,,,,,,,,,,,,,,0.0,26.0,0.0,0.0,30.1,0.0,,0.0,0.2,,,39.3,0.0,0.0,0.1,7.6,5.9,,,,,27.0,28.0,27.0,28.0,28.0,28.0,28.0,28.0,,,7.0,254.3,,0.2,17.0,4.998,,,0.653,0.719,0.0,26.3,,,,,,2026-03-21-N890GF-SN35347-17.4.0.23677-USER_LOG_DATA.csv,,,,,,,86.0,78.8,,,,,80.6,82.4,80.6,82.4,82.4,82.4,82.4,82.4,,,79.34,0.0,81.5,0.9476744186046512,0.9162790697674418,0.0,0.0,392.0,True,2026-03-21 23:01:08 - Flight 11,
8.06,1.0,9.0,2026-03-21 23:01:11,37.08162,-121.59949,364.0,0.0,44.3,-12.6,,,,,0.0,10.6,-0.9,10.1,0.0,266.0,0.0,-0.02,1.0,99.0,-102.0,30.0,0.0,30.01,2138.0,,,153.0,,,,,0.0,0.0,,,,,,,,,,,,,,,,,,,0.0,26.0,0.0,0.0,30.1,0.0,,0.0,0.2,,,39.3,0.0,0.0,0.1,7.6,5.9,,,,,27.0,28.0,28.0,28.0,28.0,28.0,28.0,28.0,,,7.0,254.3,,0.2,17.0,4.998,,,0.653,0.719,0.0,26.3,,,,,,2026-03-21-N890GF-SN35347-17.4.0.23677-USER_LOG_DATA.csv,,,,,,,86.0,78.8,,,,,80.6,82.4,82.4,82.4,82.4,82.4,82.4,82.4,,,79.34,0.0,81.95,0.9529069767441861,0.9162790697674418,0.0,0.0,392.0,True,2026-03-21 23:01:08 - Flight 11,
9.06,1.0,10.0,2026-03-21 23:01:12,37.08159,-121.59953,357.0,0.0,44.3,-12.6,,,,,0.0,10.6,-0.9,10.1,0.0,263.0,0.0,-0.01,1.0,99.0,-125.0,30.0,0.0,30.01,2138.0,,,153.0,,,,,0.0,0.0,,,,,,,,,,,,,,,,,,,0.0,26.0,0.0,0.0,30.1,0.0,,0.0,0.2,,,39.3,0.0,0.0,0.1,7.6,5.9,,,,,27.0,28.0,27.0,28.0,28.0,28.0,28.0,28.0,,,7.0,254.3,,0.2,17.0,4.998,,,0.653,0.719,0.0,26.3,,,,,,2026-03-21-N890GF-SN35347-17.4.0.23677-USER_LOG_DATA.csv,,,,,,,86.0,78.8,,,,,80.6,82.4,80.6,82.4,82.4,82.4,82.4,82.4,,,79.34,0.0,81.5,0.9476744186046512,0.9162790697674418,0.0,0.0,392.0,True,2026-03-21 23:01:08 - Flight 11,
10.06,1.0,10.0,2026-03-21 23:01:13,37.08159,-121.59953,357.0,0.0,44.3,-12.6,,,,,0.0,10.6,-0.8,10.1,0.0,261.0,0.0,-0.02,1.0,99.0,-138.0,30.0,0.0,30.01,2139.0,,,153.0,,,,,0.0,0.0,,,,,,,,,,,,,,,,,,,0.0,26.0,0.0,0.0,30.1,0.0,,0.0,0.2,,,39.3,0.0,0.0,0.1,7.6,5.9,,,,,27.0,28.0,27.0,28.0,28.0,28.0,28.0,28.0,,,7.0,254.3,,0.2,17.0,4.998,,,0.653,0.718,0.0,26.3,,,,,,2026-03-21-N890GF-SN35347-17.4.0.23677-USER_LOG_DATA.csv,,,,,,,86.0,78.8,,,,,80.6,82.4,80.6,82.4,82.4,82.4,82.4,82.4,,,79.34,0.0,81.5,0.9476744186046512,0.9162790697674418,0.0,0.0,392.0,True,2026-03-21 23:01:08 - Flight 11,
11.06,1.0,10.0,2026-03-21 23:01:14,37.08159,-121.59953,356.0,0.0,44.3,-12.6,,,,,0.0,10.6,-0.9,10.1,0.0,258.0,0.0,-0.02,1.0,99.0,-121.0,30.0,0.0,30.01,2139.0,,,153.0,,,,,0.0,0.0,,,,,,,,,,,,,,,,,,,0.0,26.0,0.0,0.0,30.1,0.0,,0.0,0.2,,,39.3,0.0,0.0,0.1,7.6,5.9,,,,,27.0,28.0,27.0,28.0,28.0,28.0,28.0,28.0,,,7.0,254.2,,0.2,17.0,4.998,,,0.654,0.719,0.0,26.2,,,,,,2026-03-21-N890GF-SN35347-17.4.0.23677-USER_LOG_DATA.csv,,,,,,,86.0,78.8,,,,,80.6,82.4,80.6,82.4,82.4,82.4,82.4,82.4,,,79.16,0.0,81.5,0.9476744186046512,0.9162790697674418,0.0,0.0,392.0,True,2026-03-21 23:01:08 - Flight 11,
12.06,1.0,10.0,2026-03-21 23:01:15,37.08159,-121.59953,356.0,0.0,44.3,-12.6,,,,,0.0,10.6,-0.9,10.0,0.0,256.0,-0.0,-0.02,1.0,99.0,-136.0,30.0,0.0,30.01,2135.0,,,153.0,,,,,0.0,0.0,,,,,,,,,,,,,,,,,,,0.0,26.0,0.0,0.0,30.1,0.0,,0.0,0.2,,,39.3,0.0,0.0,0.1,7.6,5.9,,,,,27.0,28.0,27.0,28.0,28.0,28.0,28.0,28.0,,,7.0,254.2,,0.2,17.0,4.998,,,0.654,0.719,0.0,26.2,,,,,,2026-03-21-N890GF-SN35347-17.4.0.23677-USER_LOG_DATA.csv,,,,,,,86.0,78.8,,,,,80.6,82.4,80.6,82.4,82.4,82.4,82.4,82.4,,,79.16,0.0,81.5,0.9476744186046512,0.9162790697674418,0.0,0.0,392.0,True,2026-03-21 23:01:08 - Flight 11,
13.06,1.0,10.0,2026-03-21 23:01:16,37.0816,-121.59953,356.0,0.0,44.3,-12.6,,,,,0.0,10.6,-0.9,10.0,0.0,255.0,-0.0,-0.01,1.0,99.0,-109.0,30.0,0.0,30.01,2135.0,,,153.0,,,,,0.0,0.0,,,,,,,,,,,,,,,,,,,0.0,26.0,0.0,0.0,30.1,0.0,,0.0,0.2,,,39.3,0.0,0.0,0.1,7.6,5.9,,,,,27.0,28.0,27.0,28.0,28.0,28.0,28.0,28.0,,,7.0,254.2,,0.2,17.0,4.998,,,0.653,0.719,0.0,26.2,,,,,,2026-03-21-N890GF-SN35347-17.4.0.23677-USER_LOG_DATA.csv,,,,,,,86.0,78.8,,,,,80.6,82.4,80.6,82.4,82.4,82.4,82.4,82.4,,,79.16,0.0,81.5,0.9476744186046512,0.9162790697674418,0.0,0.0,392.0,True,2026-03-21 23:01:08 - Flight 11,
14.06,1.0,10.0,2026-03-21 23:01:17,37.0816,-121.59953,355.0,0.0,44.3,-12.6,,,,,0.0,10.6,-0.9,10.0,0.0,254.0,-0.0,-0.01,1.0,99.0,-94.0,30.0,0.0,30.01,2135.0,,,153.0,,,,,0.0,0.0,,,,,,,,,,,,,,,,,,,0.0,26.0,0.0,0.0,30.1,0.0,,0.0,0.2,,,39.3,0.0,0.0,0.1,7.6,5.9,,,,,27.0,28.0,27.0,28.0,28.0,28.0,28.0,28.0,,,7.0,254.2,,0.2,17.0,4.998,,,0.653,0.719,0.0,26.2,,,,,,2026-03-21-N890GF-SN35347-17.4.0.23677-USER_LOG_DATA.csv,,,,,,,86.0,78.8,,,,,80.6,82.4,80.6,82.4,82.4,82.4,82.4,82.4,,,79.16,0.0,81.5,0.9476744186046512,0.9162790697674418,0.0,0.0,392.0,True,2026-03-21 23:01:08 - Flight 11,
15.06,1.0,10.0,2026-03-21 23:01:18,37.0816,-121.59953,354.0,0.0,44.3,-12.6,,,,,0.0,10.6,-0.9,10.0,0.0,253.0,0.0,-0.02,1.0,99.0,-88.0,30.0,0.0,30.01,2131.0,,,153.0,,,,,0.0,0.0,,,,,,,,,,,,,,,,,,,0.0,26.0,0.0,0.0,30.1,0.0,,0.0,0.2,,,39.3,0.0,0.0,0.1,7.6,5.9,,,,,27.0,28.0,27.0,28.0,28.0,28.0,28.0,28.0,,,7.0,254.2,,0.2,17.0,4.998,,,0.654,0.719,0.0,26.2,,,,,,2026-03-21-N890GF-SN35347-17.4.0.23677-USER_LOG_DATA.csv,,,,,,,86.0,78.8,,,,,80.6,82.4,80.6,82.4,82.4,82.4,82.4,82.4,,,79.16,0.0,81.5,0.9476744186046512,0.9162790697674418,0.0,0.0,392.0,True,2026-03-21 23:01:08 - Flight 11,
16.06,1.0,10.0,2026-03-21 23:01:19,37.0816,-121.59954,353.0,0.0,44.3,-12.6,,,,,0.0,10.6,-1.0,10.0,0.0,250.0,-0.0,-0.02,1.0,99.0,-104.0,30.0,0.0,30.01,2131.0,,,153.0,,,,,0.0,0.0,,,,,,,,,,,,,,,,,,,0.0,26.0,0.0,0.0,30.1,0.0,,0.0,0.2,,,39.3,0.0,0.0,0.1,7.6,5.9,,,,,27.0,28.0,27.0,28.0,28.0,28.0,28.0,28.0,,,7.0,254.2,,0.2,17.0,4.998,,,0.653,0.719,0.0,26.2,,,,,,2026-03-21-N890GF-SN35347-17.4.0.23677-USER_LOG_DATA.csv,,,,,,,86.0,78.8,,,,,80.6,82.4,80.6,82.4,82.4,82.4,82.4,82.4,,,79.16,0.0,81.5,0.9476744186046512,0.9162790697674418,0.0,0.0,392.0,True,2026-03-21 23:01:08 - Flight 11,
17.06,1.0,10.0,2026-03-21 23:01:20,37.0816,-121.59954,352.0,0.0,44.3,-12.6,,,,,0.0,10.5,-0.9,10.0,0.0,249.0,0.0,-0.02,1.0,99.0,-102.0,30.0,0.0,30.01,2131.0,,,153.0,,,,,0.0,0.0,,,,,,,,,,,,,,,,,,,0.0,26.0,0.0,0.0,30.1,0.0,,0.0,0.2,,,39.3,0.0,0.0,0.1,7.6,5.9,,,,,27.0,28.0,27.0,28.0,28.0,28.0,28.0,28.0,,,7.0,254.2,,0.2,17.0,4.998,,,0.653,0.719,0.0,26.2,,,,,,2026-03-21-N890GF-SN35347-17.4.0.23677-USER_LOG_DATA.csv,,,,,,,86.0,78.8,,,,,80.6,82.4,80.6,82.4,82.4,82.4,82.4,82.4,,,79.16,0.0,81.5,0.9476744186046512,0.9162790697674418,0.0,0.0,392.0,True,2026-03-21 23:01:08 - Flight 11,
18.06,1.0,10.0,2026-03-21 23:01:21,37.0816,-121.59954,351.0,0.0,44.3,-12.6,,,,,0.0,10.6,-0.9,10.1,0.0,248.0,0.0,-0.02,1.0,99.0,-96.0,30.0,0.0,30.01,2125.0,,,153.0,,,,,0.0,0.0,,,,,,,,,,,,,,,,,,,0.0,26.0,0.0,0.0,30.1,0.0,,0.0,0.2,,,39.3,0.0,0.0,0.1,7.6,5.9,,,,,27.0,28.0,27.0,28.0,28.0,28.0,28.0,28.0,,,7.0,254.2,,0.2,17.0,4.998,,,0.654,0.719,0.0,26.2,,,,,,2026-03-21-N890GF-SN35347-17.4.0.23677-USER_LOG_DATA.csv,,,,,,,86.0,78.8,,,,,80.6,82.4,80.6,82.4,82.4,82.4,82.4,82.4,,,79.16,0.0,81.5,0.9476744186046512,0.9162790697674418,0.0,0.0,392.0,True,2026-03-21 23:01:08 - Flight 11,
19.06,1.0,10.0,2026-03-21 23:01:22,37.0816,-121.59954,350.0,0.0,44.3,-12.6,,,,,0.0,10.6,-0.9,10.1,0.0,245.0,0.0,-0.02,1.0,99.0,-99.0,30.0,0.0,30.01,2125.0,,,153.0,,,,,0.0,0.0,,,,,,,,,,,,,,,,,,,0.0,26.0,0.0,0.0,30.1,0.0,,0.0,0.2,,,39.3,0.0,0.0,0.1,7.6,5.9,,,,,27.0,28.0,27.0,28.0,28.0,28.0,28.0,28.0,,,7.0,254.2,,0.2,17.0,4.998,,,0.654,0.719,0.0,26.2,,,,,,2026-03-21-N890GF-SN35347-17.4.0.23677-USER_LOG_DATA.csv,,,,,,,86.0,78.8,,,,,80.6,82.4,80.6,82.4,82.4,82.4,82.4,82.4,,,79.16,0.0,81.5,0.9476744186046512,0.9162790697674418,0.0,0.0,392.0,True,2026-03-21 23:01:08 - Flight 11,
20.06,1.0,10.0,2026-03-21 23:01:23,37.0816,-121.59954,348.0,0.0,44.3,-12.6,,,,,0.0,10.6,-0.9,10.1,0.0,245.0,0.0,-0.02,1.0,99.0,-63.0,30.0,0.0,30.01,2125.0,,,153.0,,,,,0.0,0.0,,,,,,,,,,,,,,,,,,,0.0,26.0,0.0,0.0,30.1,0.0,,0.0,0.2,,,39.3,0.0,0.0,0.1,7.6,5.9,,,,,27.0,28.0,27.0,28.0,28.0,28.0,28.0,28.0,,,7.0,254.2,,0.2,17.0,4.998,,,0.653,0.719,0.0,26.2,,,,,,2026-03-21-N890GF-SN35347-17.4.0.23677-USER_LOG_DATA.csv,,,,,,,86.0,78.8,,,,,80.6,82.4,80.6,82.4,82.4,82.4,82.4,82.4,,,79.16,0.0,81.5,0.9476744186046512,0.9162790697674418,0.0,0.0,392.0,True,2026-03-21 23:01:08 - Flight 11,
21.06,1.0,10.0,2026-03-21 23:01:24,37.0816,-121.59955,347.0,0.0,44.3,-12.6,,,,,0.0,10.6,-0.8,10.1,0.0,245.0,0.0,-0.02,1.0,99.0,-40.0,30.0,0.0,30.01,2132.0,,,153.0,,,,,0.0,0.0,,,,,,,,,,,,,,,,,,,0.0,26.0,0.0,0.0,30.1,0.0,,0.0,0.2,,,39.3,0.0,0.0,0.1,7.6,5.9,,,,,28.0,28.0,28.0,28.0,28.0,28.0,28.0,28.0,,,7.0,254.2,,0.2,17.0,4.998,,,0.654,0.719,0.0,26.2,,,,,,2026-03-21-N890GF-SN35347-17.4.0.23677-USER_LOG_DATA.csv,,,,,,,86.0,78.8,,,,,82.4,82.4,82.4,82.4,82.4,82.4,82.4,82.4,,,79.16,0.0,82.4,0.958139534883721,0.9162790697674418,0.0,0.0,392.0,True,2026-03-21 23:01:08 - Flight 11,
22.06,1.0,10.0,2026-03-21 23:01:25,37.08161,-121.59955,346.0,0.0,44.3,-12.6,,,,,0.0,10.6,-0.8,10.1,0.0,245.0,0.0,-0.02,1.0,99.0,-19.0,30.0,0.0,30.01,2132.0,,,153.0,,,,,0.0,0.0,,,,,,,,,,,,,,,,,,,0.0,26.0,0.0,0.0,30.1,0.0,,0.0,0.2,,,39.3,0.0,0.0,0.1,7.6,5.9,,,,,28.0,28.0,28.0,28.0,28.0,28.0,28.0,28.0,,,7.0,254.2,,0.2,17.0,4.998,,,0.654,0.719,0.0,26.2,,,,,,2026-03-21-N890GF-SN35347-17.4.0.23677-USER_LOG_DATA.csv,,,,,,,86.0,78.8,,,,,82.4,82.4,82.4,82.4,82.4,82.4,82.4,82.4,,,79.16,0.0,82.4,0.958139534883721,0.9162790697674418,0.0,0.0,392.0,True,2026-03-21 23:01:08 - Flight 11,
23.06,1.0,10.0,2026-03-21 23:01:26,37.08161,-121.59955,345.0,0.0,44.3,-12.6,,,,,0.0,10.6,-0.8,10.1,0.0,245.0,-0.0,-0.02,1.0,99.0,-15.0,30.0,0.0,30.01,2133.0,,,153.0,,,,,0.0,0.0,,,,,,,,,,,,,,,,,,,0.0,26.0,0.0,0.0,30.1,0.0,,0.0,0.2,,,39.3,0.0,0.0,0.1,7.6,5.9,,,,,27.0,28.0,27.0,28.0,27.0,28.0,28.0,28.0,,,7.0,254.2,,0.2,17.0,4.998,,,0.654,0.719,0.0,26.2,,,,,,2026-03-21-N890GF-SN35347-17.4.0.23677-USER_LOG_DATA.csv,,,,,,,86.0,78.8,,,,,80.6,82.4,80.6,82.4,80.6,82.4,82.4,82.4,,,79.16,0.0,81.05,0.9424418604651162,0.9162790697674418,0.0,0.0,392.0,True,2026-03-21 23:01:08 - Flight 11,
24.06,1.0,10.0,2026-03-21 23:01:27,37.08161,-121.59956,344.0,0.0,44.3,-12.6,,,,,0.0,10.6,-0.8,10.1,0.0,245.0,-0.0,-0.02,1.0,99.0,1.0,31.0,0.0,30.01,2133.0,,,153.0,,,,,0.0,0.0,,,,,,,,,,,,,,,,,,,0.0,26.0,0.0,0.0,30.1,0.0,,0.0,0.2,,,39.3,0.0,0.0,0.1,7.6,5.9,,,,,28.0,28.0,28.0,28.0,28.0,28.0,28.0,28.0,,,7.0,254.2,,0.2,17.0,4.998,,,0.654,0.719,0.0,26.2,,,,,,2026-03-21-N890GF-SN35347-17.4.0.23677-USER_LOG_DATA.csv,,,,,,,87.8,78.8,,,,,82.4,82.4,82.4,82.4,82.4,82.4,82.4,82.4,,,79.16,0.0,82.4,0.938496583143508,0.89749430523918,0.0,0.0,392.0,True,2026-03-21 23:01:08 - Flight 11,
25.06,1.0,10.0,2026-03-21 23:01:28,37.08162,-121.59956,343.0,0.0,44.3,-12.6,,,,,0.0,10.6,-0.9,10.1,0.0,245.0,0.0,-0.02,1.0,99.0,31.0,31.0,0.0,30.01,2133.0,,,153.0,,,,,0.0,0.0,,,,,,,,,,,,,,,,,,,0.0,26.0,0.0,0.0,30.1,0.0,,0.0,0.2,,,39.3,0.0,0.0,0.1,7.6,5.9,,,,,28.0,28.0,28.0,28.0,28.0,28.0,28.0,28.0,,,7.0,254.2,,0.2,17.0,4.998,,,0.653,0.719,0.0,26.2,,,,,,2026-03-21-N890GF-SN35347-17.4.0.23677-USER_LOG_DATA.csv,,,,,,,87.8,78.8,,,,,82.4,82.4,82.4,82.4,82.4,82.4,82.4,82.4,,,79.16,0.0,82.4,0.938496583143508,0.89749430523918,0.0,0.0,392.0,True,2026-03-21 23:01:08 - Flight 11,
26.06,1.0,10.0,2026-03-21 23:01:29,37.08162,-121.59956,342.0,0.0,44.3,-12.6,,,,,0.0,10.6,-0.9,10.1,0.0,245.0,-0.0,-0.02,1.0,99.0,9.0,31.0,0.0,30.01,2142.0,,,153.0,,,,,0.0,0.0,,,,,,,,,,,,,,,,,,,0.0,26.0,0.0,0.0,30.1,0.0,,0.0,0.2,,,39.3,0.0,0.0,0.1,7.6,5.9,,,,,28.0,28.0,28.0,28.0,28.0,28.0,28.0,28.0,,,7.0,254.2,,0.2,17.0,4.998,,,0.654,0.719,0.0,26.2,,,,,,2026-03-21-N890GF-SN35347-17.4.0.23677-USER_LOG_DATA.csv,,,,,,,87.8,78.8,,,,,82.4,82.4,82.4,82.4,82.4,82.4,82.4,82.4,,,79.16,0.0,82.4,0.938496583143508,0.89749430523918,0.0,0.0,392.0,True,2026-03-21 23:01:08 - Flight 11,
27.06,1.0,10.0,2026-03-21 23:01:30,37.08162,-121.59956,341.0,0.0,44.3,-12.6,,,,,0.0,10.6,-0.9,10.0,0.0,245.0,-0.0,-0.02,1.0,99.0,3.0,31.0,0.0,30.01,2142.0,,,153.0,,,,,0.0,0.0,,,,,,,,,,,,,,,,,,,0.0,26.0,0.0,0.0,30.1,0.0,,0.0,0.2,,,39.3,0.0,0.0,0.1,7.6,5.9,,,,,27.0,28.0,27.0,28.0,28.0,28.0,28.0,28.0,,,7.0,254.2,,0.2,17.0,4.998,,,0.654,0.719,0.0,26.2,,,,,,2026-03-21-N890GF-SN35347-17.4.0.23677-USER_LOG_DATA.csv,,,,,,,87.8,78.8,,,,,80.6,82.4,80.6,82.4,82.4,82.4,82.4,82.4,,,79.16,0.0,81.5,0.928246013667426,0.89749430523918,0.0,0.0,392.0,True,2026-03-21 23:01:08 - Flight 11,
28.06,1.0,10.0,2026-03-21 23:01:31,37.08162,-121.59956,340.0,0.0,44.3,-12.6,,,,,0.0,10.6,-1.0,9.9,0.0,245.0,-0.0,-0.02,1.0,99.0,-2.0,31.0,0.0,30.01,2142.0,,,153.0,,,,,0.0,0.0,,,,,,,,,,,,,,,,,,,0.0,26.0,0.0,0.0,30.1,0.0,,0.0,0.2,,,39.3,0.0,0.0,0.1,7.6,5.9,,,,,27.0,28.0,27.0,28.0,27.0,28.0,28.0,28.0,,,7.0,254.2,,0.2,17.0,4.998,,,0.654,0.719,0.0,26.2,,,,,,2026-03-21-N890GF-SN35347-17.4.0.23677-USER_LOG_DATA.csv,,,,,,,87.8,78.8,,,,,80.6,82.4,80.6,82.4,80.6,82.4,82.4,82.4,,,79.16,0.0,81.05,0.923120728929385,0.89749430523918,0.0,0.0,392.0,True,2026-03-21 23:01:08 - Flight 11,
29.06,1.0,10.0,2026-03-21 23:01:32,37.08162,-121.59956,339.0,0.0,44.3,-12.6,,,,,0.0,10.6,-1.0,9.8,0.0,244.0,-0.0,-0.02,1.0,99.0,-54.0,31.0,0.0,30.01,2142.0,,,153.0,,,,,0.0,0.0,,,,,,,,,,,,,,,,,,,0.0,26.0,0.0,0.0,30.1,0.0,,0.0,0.2,,,39.3,0.0,0.0,0.1,7.6,5.9,,,,,28.0,28.0,28.0,28.0,28.0,28.0,28.0,28.0,,,7.0,254.2,,0.2,17.0,4.998,,,0.654,0.719,0.0,26.2,,,,,,2026-03-21-N890GF-SN35347-17.4.0.23677-USER_LOG_DATA.csv,,,,,,,87.8,78.8,,,,,82.4,82.4,82.4,82.4,82.4,82.4,82.4,82.4,,,79.16,0.0,82.4,0.938496583143508,0.89749430523918,0.0,0.0,392.0,True,2026-03-21 23:01:08 - Flight 11,
30.06,1.0,10.0,2026-03-21 23:01:33,37.08162,-121.59957,338.0,0.0,44.3,-12.6,,,,,0.0,10.6,-1.0,9.8,0.0,244.0,-0.0,-0.02,1.0,99.0,-55.0,31.0,0.0,30.01,2142.0,,,153.0,,,,,0.0,0.0,,,,,,,,,,,,,,,,,,,0.0,26.0,0.0,0.0,30.1,0.0,,0.0,0.0,,,39.3,0.0,0.0,0.1,7.6,5.9,,,,,27.0,28.0,27.0,28.0,27.0,28.0,28.0,28.0,,,7.0,254.2,,0.0,17.0,4.998,,,0.653,0.719,0.0,26.2,,,,,,2026-03-21-N890GF-SN35347-17.4.0.23677-USER_LOG_DATA.csv,,,,,,,87.8,78.8,,,,,80.6,82.4,80.6,82.4,80.6,82.4,82.4,82.4,,,79.16,0.0,81.05,0.923120728929385,0.89749430523918,0.0,0.0,392.0,True,2026-03-21 23:01:08 - Flight 11,
31.06,1.0,10.0,2026-03-21 23:01:34,37.08163,-121.59957,337.0,0.0,44.3,-12.6,,,,,0.0,10.6,-1.0,9.8,0.0,244.0,-0.0,-0.01,1.0,99.0,-32.0,31.0,0.0,30.01,2142.0,,,153.0,,,,,0.0,0.0,,,,,,,,,,,,,,,,,,,0.0,26.0,0.0,0.0,30.1,0.0,,0.0,0.0,,,39.3,0.0,0.0,0.1,7.6,5.9,,,,,28.0,28.0,28.0,28.0,28.0,28.0,28.0,28.0,,,7.0,254.2,,0.0,17.0,4.998,,,0.653,0.719,0.0,26.1,,,,,,2026-03-21-N890GF-SN35347-17.4.0.23677-USER_LOG_DATA.csv,,,,,,,87.8,78.8,,,,,82.4,82.4,82.4,82.4,82.4,82.4,82.4,82.4,,,78.98,0.0,82.4,0.938496583143508,0.89749430523918,0.0,0.0,392.0,True,2026-03-21 23:01:08 - Flight 11,
32.06,1.0,10.0,2026-03-21 23:01:35,37.08163,-121.59957,336.0,0.0,44.3,-12.6,,,,,0.0,10.5,-1.0,9.8,0.0,241.0,0.0,-0.02,1.0,99.0,-78.0,31.0,0.0,30.01,2138.0,,,153.0,,,,,0.0,0.0,,,,,,,,,,,,,,,,,,,0.0,26.0,0.0,0.0,30.0,0.0,,0.0,0.0,,,39.3,0.0,0.0,0.1,7.6,5.9,,,,,28.0,28.0,28.0,28.0,28.0,28.0,28.0,28.0,,,7.0,254.2,,0.0,17.0,4.998,,,0.654,0.719,0.0,26.1,,,,,,2026-03-21-N890GF-SN35347-17.4.0.23677-USER_LOG_DATA.csv,,,,,,,87.8,78.8,,,,,82.4,82.4,82.4,82.4,82.4,82.4,82.4,82.4,,,78.98,0.0,82.4,0.938496583143508,0.89749430523918,0.0,0.0,392.0,True,2026-03-21 23:01:08 - Flight 11,
33.06,1.0,10.0,2026-03-21 23:01:36,37.08163,-121.59958,335.0,0.0,44.3,-12.6,,,,,0.0,10.6,-1.0,9.8,0.0,240.0,-0.0,-0.02,1.0,99.0,-53.0,31.0,0.0,30.01,2138.0,,,153.0,,,,,0.0,0.0,,,,,,,,,,,,,,,,,,,0.0,26.0,0.0,0.0,30.1,0.0,,0.0,0.0,,,39.3,0.0,0.0,0.1,7.6,5.9,,,,,27.0,28.0,28.0,28.0,28.0,28.0,28.0,28.0,,,7.0,254.2,,0.0,17.0,4.998,,,0.654,0.719,0.0,26.2,,,,,,2026-03-21-N890GF-SN35347-17.4.0.23677-USER_LOG_DATA.csv,,,,,,,87.8,78.8,,,,,80.6,82.4,82.4,82.4,82.4,82.4,82.4,82.4,,,79.16,0.0,81.95,0.9333712984054671,0.89749430523918,0.0,0.0,392.0,True,2026-03-21 23:01:08 - Flight 11,
34.06,1.0,10.0,2026-03-21 23:01:37,37.08163,-121.59958,331.0,0.0,44.3,-12.6,,,,,0.0,10.6,-1.0,9.7,0.0,238.0,-0.0,-0.02,1.0,99.0,-109.0,31.0,0.0,30.01,2138.0,,,153.0,,,,,0.0,0.0,,,,,,,,,,,,,,,,,,,0.0,26.0,0.0,0.0,30.1,0.0,,0.0,0.0,,,39.3,0.0,0.0,0.1,7.6,5.9,,,,,28.0,28.0,28.0,28.0,28.0,28.0,28.0,28.0,,,7.0,254.2,,0.0,17.0,4.998,,,0.654,0.719,0.0,26.1,,,,,,2026-03-21-N890GF-SN35347-17.4.0.23677-USER_LOG_DATA.csv,,,,,,,87.8,78.8,,,,,82.4,82.4,82.4,82.4,82.4,82.4,82.4,82.4,,,78.98,0.0,82.4,0.938496583143508,0.89749430523918,0.0,0.0,392.0,True,2026-03-21 23:01:08 - Flight 11,
35.06,1.0,10.0,2026-03-21 23:01:38,37.08163,-121.59958,333.0,0.0,44.3,-12.6,,,,,0.0,10.6,-0.9,9.7,0.0,236.0,-0.0,-0.02,1.0,99.0,-102.0,31.0,0.0,30.01,2143.0,,,153.0,,,,,0.0,0.0,,,,,,,,,,,,,,,,,,,0.0,26.0,0.0,0.0,30.1,0.0,,0.0,0.0,,,39.3,0.0,0.0,0.1,7.6,5.9,,,,,28.0,28.0,28.0,28.0,28.0,28.0,28.0,28.0,,,7.0,254.2,,0.0,17.0,4.998,,,0.653,0.719,0.0,26.1,,,,,,2026-03-21-N890GF-SN35347-17.4.0.23677-USER_LOG_DATA.csv,,,,,,,87.8,78.8,,,,,82.4,82.4,82.4,82.4,82.4,82.4,82.4,82.4,,,78.98,0.0,82.4,0.938496583143508,0.89749430523918,0.0,0.0,392.0,True,2026-03-21 23:01:08 - Flight 11,
36.06,1.0,10.0,2026-03-21 23:01:39,37.08163,-121.59959,333.0,0.0,44.3,-12.6,,,,,0.0,10.6,-1.0,9.8,0.0,235.0,-0.0,-0.02,1.0,99.0,-110.0,31.0,0.0,30.01,2143.0,,,153.0,,,,,0.0,0.0,,,,,,,,,,,,,,,,,,,0.0,26.0,0.0,0.0,30.1,0.0,,0.0,0.0,,,39.3,0.0,0.0,0.1,7.6,5.9,,,,,28.0,28.0,28.0,28.0,28.0,28.0,28.0,28.0,,,7.0,254.2,,0.0,17.0,4.998,,,0.653,0.719,0.0,26.2,,,,,,2026-03-21-N890GF-SN35347-17.4.0.23677-USER_LOG_DATA.csv,,,,,,,87.8,78.8,,,,,82.4,82.4,82.4,82.4,82.4,82.4,82.4,82.4,,,79.16,0.0,82.4,0.938496583143508,0.89749430523918,0.0,0.0,392.0,True,2026-03-21 23:01:08 - Flight 11,
37.06,1.0,10.0,2026-03-21 23:01:40,37.08163,-121.59959,332.0,0.0,44.3,-12.6,,,,,0.0,10.6,-0.9,9.9,0.0,233.0,0.0,-0.02,1.0,99.0,-106.0,31.0,0.0,30.01,2143.0,,,153.0,,,,,0.0,0.0,,,,,,,,,,,,,,,,,,,0.0,26.0,0.0,0.0,30.1,0.0,,0.0,0.0,,,39.3,0.0,0.0,0.1,7.6,5.9,,,,,27.0,28.0,28.0,28.0,28.0,28.0,28.0,28.0,,,7.0,254.2,,0.0,17.0,4.998,,,0.653,0.719,0.0,26.1,,,,,,2026-03-21-N890GF-SN35347-17.4.0.23677-USER_LOG_DATA.csv,,,,,,,87.8,78.8,,,,,80.6,82.4,82.4,82.4,82.4,82.4,82.4,82.4,,,78.98,0.0,81.95,0.9333712984054671,0.89749430523918,0.0,0.0,392.0,True,2026-03-21 23:01:08 - Flight 11,
38.06,1.0,10.0,2026-03-21 23:01:41,37.08163,-121.59959,331.0,0.0,44.3,-12.6,,,,,0.0,10.6,-0.9,9.9,0.0,230.0,0.0,-0.02,1.0,99.0,-121.0,31.0,0.0,30.01,2135.0,,,153.0,,,,,0.0,0.0,,,,,,,,,,,,,,,,,,,0.0,26.0,0.0,0.0,30.1,0.0,,0.0,0.0,,,39.3,0.0,0.0,0.1,7.6,5.9,,,,,27.0,28.0,28.0,28.0,28.0,28.0,28.0,28.0,,,7.0,254.2,,0.0,17.0,4.998,,,0.653,0.718,0.0,26.1,,,,,,2026-03-21-N890GF-SN35347-17.4.0.23677-USER_LOG_DATA.csv,,,,,,,87.8,78.8,,,,,80.6,82.4,82.4,82.4,82.4,82.4,82.4,82.4,,,78.98,0.0,81.95,0.9333712984054671,0.89749430523918,0.0,0.0,392.0,True,2026-03-21 23:01:08 - Flight 11,
39.06,1.0,10.0,2026-03-21 23:01:42,37.08163,-121.59959,331.0,0.0,44.3,-12.6,,,,,0.0,10.6,-0.9,10.0,0.0,228.0,0.0,-0.02,1.0,99.0,-128.0,31.0,0.0,30.01,2136.0,,,153.0,,,,,0.0,0.0,,,,,,,,,,,,,,,,,,,0.0,26.0,0.0,0.0,30.1,0.0,,0.0,0.0,,,39.3,0.0,0.0,0.1,7.6,5.9,,,,,27.0,28.0,28.0,28.0,28.0,28.0,28.0,28.0,,,7.0,254.2,,0.0,17.0,4.998,,,0.653,0.719,0.0,26.2,,,,,,2026-03-21-N890GF-SN35347-17.4.0.23677-USER_LOG_DATA.csv,,,,,,,87.8,78.8,,,,,80.6,82.4,82.4,82.4,82.4,82.4,82.4,82.4,,,79.16,0.0,81.95,0.9333712984054671,0.89749430523918,0.0,0.0,392.0,True,2026-03-21 23:01:08 - Flight 11,
40.06,1.0,10.0,2026-03-21 23:01:43,37.08163,-121.59959,331.0,0.0,44.3,-12.6,,,,,0.0,10.6,-0.9,9.9,0.0,226.0,-0.0,-0.02,1.0,99.0,-143.0,31.0,0.0,30.01,2136.0,,,153.0,,,,,0.0,0.0,,,,,,,,,,,,,,,,,,,0.0,26.0,0.0,0.0,30.1,0.0,,0.0,0.0,,,39.3,0.0,0.0,0.1,7.6,5.9,,,,,28.0,28.0,28.0,28.0,28.0,28.0,28.0,28.0,,,7.0,233.6,,0.0,17.0,4.998,,,0.653,0.719,0.0,26.1,,,,,,2026-03-21-N890GF-SN35347-17.4.0.23677-USER_LOG_DATA.csv,,,,,,,87.8,78.8,,,,,82.4,82.4,82.4,82.4,82.4,82.4,82.4,82.4,,,78.98,0.0,82.4,0.938496583143508,0.89749430523918,0.0,0.0,392.0,True,2026-03-21 23:01:08 - Flight 11,
41.06,1.0,10.0,2026-03-21 23:01:44,37.08164,-121.59959,330.0,0.0,44.3,-12.6,,,,,0.0,10.6,-0.9,9.9,0.0,225.0,0.0,-0.01,1.0,99.0,-98.0,31.0,0.0,30.01,2136.0,,,153.0,,,,,0.0,0.0,,,,,,,,,,,,,,,,,,,0.0,26.0,0.0,0.0,30.1,0.0,,0.0,2.0,,,39.3,0.0,0.0,0.0,7.6,5.9,,,,,28.0,28.0,28.0,28.0,28.0,28.0,28.0,28.0,,,7.0,181.8,,2.0,17.0,4.998,,,0.653,0.719,0.0,26.2,,,,,,2026-03-21-N890GF-SN35347-17.4.0.23677-USER_LOG_DATA.csv,,,,,,,87.8,78.8,,,,,82.4,82.4,82.4,82.4,82.4,82.4,82.4,82.4,,,79.16,0.0,82.4,0.938496583143508,0.89749430523918,0.0,0.0,392.0,True,2026-03-21 23:01:08 - Flight 11,
42.06,1.0,10.0,2026-03-21 23:01:45,37.08164,-121.59959,330.0,0.0,44.3,-12.6,,,,,0.0,10.6,-0.9,10.0,0.0,225.0,0.0,-0.02,1.0,99.0,-44.0,31.0,0.0,30.01,2138.0,,,153.0,,,,,0.0,0.0,,,,,,,,,,,,,,,,,,,0.0,26.0,0.0,0.0,30.1,0.0,,0.0,5.2,,,39.3,0.0,0.0,0.0,7.6,5.9,,,,,27.0,28.0,28.0,28.0,28.0,28.0,28.0,28.0,,,8.0,141.5,,5.2,17.0,4.998,,,0.653,0.719,0.0,26.2,,,,,,2026-03-21-N890GF-SN35347-17.4.0.23677-USER_LOG_DATA.csv,,,,,,,87.8,78.8,,,,,80.6,82.4,82.4,82.4,82.4,82.4,82.4,82.4,,,79.16,0.0,81.95,0.9333712984054671,0.89749430523918,0.0,0.0,392.0,True,2026-03-21 23:01:08 - Flight 11,
43.06,1.0,10.0,2026-03-21 23:01:46,37.08164,-121.59959,330.0,0.0,44.3,-12.6,,,,,0.0,10.6,-0.9,9.9,0.0,225.0,0.0,-0.02,1.0,99.0,-45.0,31.0,0.0,30.01,2139.0,,,153.0,,,,,0.0,0.0,,,,,,,,,,,,,,,,,,,0.0,26.0,0.0,0.0,30.1,0.8,,0.8,5.3,,,39.3,0.0,0.0,0.0,7.6,5.9,,,,,27.0,28.0,28.0,28.0,28.0,28.0,28.0,28.0,,,8.0,110.2,,5.3,17.0,4.998,,,0.653,0.718,0.0,26.2,,,,,,2026-03-21-N890GF-SN35347-17.4.0.23677-USER_LOG_DATA.csv,,,,,,,87.8,78.8,,,,,80.6,82.4,82.4,82.4,82.4,82.4,82.4,82.4,,,79.16,0.0,81.95,0.9333712984054671,0.89749430523918,0.00011111111111111112,0.0,392.0,True,2026-03-21 23:01:08 - Flight 11,
44.06,1.0,10.0,2026-03-21 23:01:47,37.08164,-121.59959,330.0,0.0,44.3,-12.6,,,,,0.0,10.6,-0.9,9.9,0.0,224.0,-0.0,-0.02,1.0,99.0,-42.0,31.0,0.0,30.01,2139.0,,,153.0,,,,,0.0,0.0,,,,,,,,,,,,,,,,,,,0.0,26.0,0.0,0.0,30.1,0.7,,0.7,27.6,,,39.3,0.0,0.0,0.0,7.6,5.9,,,,,27.0,28.0,28.0,28.0,28.0,28.0,28.0,28.0,,,8.0,85.9,,27.6,17.0,4.998,,,0.653,0.719,0.0,26.2,,,,,,2026-03-21-N890GF-SN35347-17.4.0.23677-USER_LOG_DATA.csv,,,,,,,87.8,78.8,,,,,80.6,82.4,82.4,82.4,82.4,82.4,82.4,82.4,,,79.16,0.0,81.95,0.9333712984054671,0.89749430523918,0.00031944444444444446,0.0,392.0,True,2026-03-21 23:01:08 - Flight 11,
45.06,1.0,10.0,2026-03-21 23:01:48,37.08164,-121.59959,331.0,0.0,44.3,-12.6,,,,,0.0,10.6,-1.0,9.9,0.0,224.0,-0.0,-0.02,1.0,99.0,-6.0,31.0,0.0,30.01,2139.0,,,153.0,,,,,0.0,0.0,,,,,,,,,,,,,,,,,,,0.0,26.0,0.0,0.0,30.1,0.6,,0.6,32.2,,,39.3,0.0,0.0,0.0,7.6,5.9,,,,,28.0,28.0,28.0,28.0,28.0,28.0,28.0,28.0,,,8.0,67.0,,32.2,17.0,4.998,,,0.653,0.719,0.0,26.2,,,,,,2026-03-21-N890GF-SN35347-17.4.0.23677-USER_LOG_DATA.csv,,,,,,,87.8,78.8,,,,,82.4,82.4,82.4,82.4,82.4,82.4,82.4,82.4,,,79.16,0.0,82.4,0.938496583143508,0.89749430523918,0.0005,0.0,392.0,True,2026-03-21 23:01:08 - Flight 11,
46.06,1.0,10.0,2026-03-21 23:01:49,37.08164,-121.59959,331.0,0.0,44.3,-12.6,,,,,0.0,10.6,-1.0,9.8,0.0,224.0,-0.0,-0.02,1.0,99.0,-10.0,31.0,0.0,30.01,2148.0,,,153.0,,,,,0.0,0.0,,,,,,,,,,,,,,,,,,,0.0,26.0,0.0,0.0,30.1,0.7,,0.7,32.6,,,39.3,0.0,0.0,0.0,7.6,5.9,,,,,27.0,28.0,28.0,28.0,28.0,28.0,28.0,28.0,,,8.0,52.3,,32.6,17.0,4.998,,,0.653,0.719,0.0,26.2,,,,,,2026-03-21-N890GF-SN35347-17.4.0.23677-USER_LOG_DATA.csv,,,,,,,87.8,78.8,,,,,80.6,82.4,82.4,82.4,82.4,82.4,82.4,82.4,,,79.16,0.0,81.95,0.9333712984054671,0.89749430523918,0.0006805555555555556,0.0,392.0,True,2026-03-21 23:01:08 - Flight 11,
47.06,1.0,10.0,2026-03-21 23:01:50,37.08164,-121.59959,331.0,0.0,44.3,-12.6,,,,,0.0,10.6,-1.0,9.8,0.0,224.0,0.0,-0.02,1.0,99.0,-4.0,31.0,0.0,30.01,2148.0,,,153.0,,,,,0.0,0.0,,,,,,,,,,,,,,,,,,,0.0,26.0,0.0,0.0,30.1,1.3,,1.3,32.4,,,39.3,0.0,0.0,0.0,7.6,5.9,,,,,28.0,28.0,28.0,28.0,28.0,28.0,28.0,28.0,,,8.0,40.8,,32.4,17.0,4.998,,,0.654,0.72,0.0,26.2,,,,,,2026-03-21-N890GF-SN35347-17.4.0.23677-USER_LOG_DATA.csv,,,,,,,87.8,78.8,,,,,82.4,82.4,82.4,82.4,82.4,82.4,82.4,82.4,,,79.16,0.0,82.4,0.938496583143508,0.89749430523918,0.0009583333333333333,0.0,392.0,True,2026-03-21 23:01:08 - Flight 11,
48.06,1.0,10.0,2026-03-21 23:01:51,37.08163,-121.59959,331.0,0.0,44.3,-12.6,,,,,0.0,10.6,-1.0,9.8,0.0,224.0,-0.0,-0.02,1.0,99.0,-33.0,31.0,0.0,30.01,2148.0,,,153.0,,,,,0.0,0.0,,,,,,,,,,,,,,,,,,,0.0,26.0,0.0,0.0,30.1,1.8,,1.8,32.3,,,39.3,0.0,0.0,0.0,7.6,5.9,,,,,28.0,28.0,28.0,28.0,28.0,28.0,28.0,28.0,,,8.0,31.9,,32.3,17.0,4.998,,,0.654,0.719,0.0,26.2,,,,,,2026-03-21-N890GF-SN35347-17.4.0.23677-USER_LOG_DATA.csv,,,,,,,87.8,78.8,,,,,82.4,82.4,82.4,82.4,82.4,82.4,82.4,82.4,,,79.16,0.0,82.4,0.938496583143508,0.89749430523918,0.0013888888888888887,0.0,392.0,True,2026-03-21 23:01:08 - Flight 11,
49.06,1.0,10.0,2026-03-21 23:01:52,37.08163,-121.59959,332.0,0.0,44.3,-12.6,,,,,0.0,10.6,-1.0,9.7,0.0,223.0,-0.0,-0.02,1.0,99.0,-11.0,31.0,0.0,30.01,2147.0,,,153.0,,,,,0.0,0.0,,,,,,,,,,,,,,,,,,,0.0,26.0,0.0,0.0,30.1,2.1,,2.1,33.7,,,39.3,0.0,0.0,0.0,7.6,5.9,,,,,28.0,28.0,28.0,28.0,28.0,28.0,28.0,28.0,,,8.0,25.0,,33.7,17.0,4.998,,,0.653,0.719,0.0,26.2,,,,,,2026-03-21-N890GF-SN35347-17.4.0.23677-USER_LOG_DATA.csv,,,,,,,87.8,78.8,,,,,82.4,82.4,82.4,82.4,82.4,82.4,82.4,82.4,,,79.16,0.0,82.4,0.938496583143508,0.89749430523918,0.0019305555555555556,0.0,392.0,True,2026-03-21 23:01:08 - Flight 11,
50.06,1.0,10.0,2026-03-21 23:01:53,37.08163,-121.59959,332.0,0.0,44.3,-12.6,,,,,0.0,10.6,-1.0,9.8,0.0,223.0,0.0,-0.02,1.0,99.0,12.0,31.0,0.0,30.01,2147.0,,,153.0,,,,,0.0,0.0,,,,,,,,,,,,,,,,,,,0.0,26.0,0.0,0.0,30.1,2.0,,2.0,33.9,,,39.3,0.0,0.0,0.0,7.6,5.9,,,,,28.0,28.0,28.0,28.0,28.0,28.0,28.0,28.0,,,8.0,19.7,,33.9,17.0,4.998,,,0.653,0.719,0.0,26.2,,,,,,2026-03-21-N890GF-SN35347-17.4.0.23677-USER_LOG_DATA.csv,,,,,,,87.8,78.8,,,,,82.4,82.4,82.4,82.4,82.4,82.4,82.4,82.4,,,79.16,0.0,82.4,0.938496583143508,0.89749430523918,0.0025,0.0,392.0,True,2026-03-21 23:01:08 - Flight 11,
51.06,1.0,10.0,2026-03-21 23:01:54,37.08163,-121.59959,333.0,0.0,44.3,-12.6,,,,,0.0,10.7,-1.1,9.8,0.0,223.0,0.0,-0.02,1.0,99.0,30.0,31.0,0.0,30.01,2147.0,,,153.0,,,,,0.0,0.0,,,,,,,,,,,,,,,,,,,0.0,26.0,0.0,0.0,30.1,2.0,,2.0,33.0,,,39.3,0.0,0.0,0.0,7.6,5.9,,,,,28.0,28.0,28.0,28.0,28.0,28.0,28.0,28.0,,,8.0,15.5,,33.0,17.0,4.998,,,0.653,0.719,0.0,26.2,,,,,,2026-03-21-N890GF-SN35347-17.4.0.23677-USER_LOG_DATA.csv,,,,,,,87.8,78.8,,,,,82.4,82.4,82.4,82.4,82.4,82.4,82.4,82.4,,,79.16,0.0,82.4,0.938496583143508,0.89749430523918,0.0030555555555555553,0.0,392.0,True,2026-03-21 23:01:08 - Flight 11,
52.06,1.0,10.0,2026-03-21 23:01:55,37.08163,-121.59959,333.0,0.0,44.3,-12.6,,,,,0.0,10.7,-1.0,9.7,0.0,223.0,-0.0,-0.02,1.0,99.0,55.0,31.0,0.0,30.01,2147.0,,,153.0,,,,,0.0,0.0,,,,,,,,,,,,,,,,,,,0.0,26.0,0.0,0.0,30.1,1.7,,1.7,32.8,,,39.3,0.0,0.0,0.0,7.6,5.9,,,,,28.0,28.0,28.0,28.0,28.0,28.0,28.0,28.0,,,8.0,12.3,,32.8,17.0,4.998,,,0.653,0.719,0.0,26.2,,,,,,2026-03-21-N890GF-SN35347-17.4.0.23677-USER_LOG_DATA.csv,,,,,,,87.8,78.8,,,,,82.4,82.4,82.4,82.4,82.4,82.4,82.4,82.4,,,79.16,0.0,82.4,0.938496583143508,0.89749430523918,0.0035694444444444445,0.0,392.0,True,2026-03-21 23:01:08 - Flight 11,
53.06,1.0,10.0,2026-03-21 23:01:56,37.08163,-121.59959,333.0,0.0,44.3,-12.6,,,,,0.0,10.7,-1.0,9.7,0.0,223.0,-0.0,-0.02,1.0,99.0,88.0,31.0,0.0,30.01,2147.0,,,153.0,,,,,0.0,0.0,,,,,,,,,,,,,,,,,,,0.0,26.0,0.0,0.0,30.1,1.7,,1.7,32.5,,,39.3,0.0,0.0,0.0,7.6,5.9,,,,,28.0,28.0,28.0,28.0,28.0,28.0,28.0,28.0,,,8.0,9.8,,32.5,17.0,4.998,,,0.654,0.719,0.0,26.2,,,,,,2026-03-21-N890GF-SN35347-17.4.0.23677-USER_LOG_DATA.csv,,,,,,,87.8,78.8,,,,,82.4,82.4,82.4,82.4,82.4,82.4,82.4,82.4,,,79.16,0.0,82.4,0.938496583143508,0.89749430523918,0.0040416666666666665,0.0,392.0,True,2026-03-21 23:01:08 - Flight 11,
54.06,1.0,10.0,2026-03-21 23:01:57,37.08163,-121.59959,334.0,0.0,44.3,-12.6,,,,,0.0,10.7,-1.0,9.7,0.0,223.0,-0.0,-0.02,1.0,99.0,93.0,31.0,0.0,30.01,2147.0,,,153.0,,,,,0.0,0.0,,,,,,,,,,,,,,,,,,,0.0,26.0,0.0,0.0,30.1,0.0,,0.0,32.3,,,39.3,0.0,0.0,0.1,7.6,5.9,,,,,28.0,28.0,28.0,28.0,28.0,28.0,28.0,28.0,,,8.0,7.8,,32.3,17.0,4.998,,,0.654,0.719,0.0,26.2,,,,,,2026-03-21-N890GF-SN35347-17.4.0.23677-USER_LOG_DATA.csv,,,,,,,87.8,78.8,,,,,82.4,82.4,82.4,82.4,82.4,82.4,82.4,82.4,,,79.16,0.0,82.4,0.938496583143508,0.89749430523918,0.004277777777777778,0.0,392.0,True,2026-03-21 23:01:08 - Flight 11,
55.06,1.0,10.0,2026-03-21 23:01:58,37.08163,-121.59959,334.0,0.0,44.3,-12.6,,,,,0.0,10.7,-1.0,9.7,0.0,223.0,-0.0,-0.02,1.0,99.0,68.0,31.0,0.0,30.01,2148.0,,,153.0,,,,,0.0,0.0,,,,,,,,,,,,,,,,,,,0.0,26.0,0.0,0.0,30.1,0.0,,0.0,32.1,,,39.3,0.0,0.0,0.1,7.6,5.9,,,,,28.0,28.0,28.0,28.0,28.0,28.0,28.0,28.0,,,8.0,6.3,,32.1,17.0,4.998,,,0.653,0.719,0.0,26.2,,,,,,2026-03-21-N890GF-SN35347-17.4.0.23677-USER_LOG_DATA.csv,,,,,,,87.8,78.8,,,,,82.4,82.4,82.4,82.4,82.4,82.4,82.4,82.4,,,79.16,0.0,82.4,0.938496583143508,0.89749430523918,0.004277777777777778,0.0,392.0,True,2026-03-21 23:01:08 - Flight 11,
56.06,1.0,10.0,2026-03-21 23:01:59,37.08163,-121.59959,335.0,0.0,44.3,-12.6,,,,,0.0,10.7,-1.1,9.7,0.0,223.0,-0.0,-0.02,1.0,99.0,21.0,31.0,0.0,30.01,2148.0,,,153.0,,,,,0.0,0.0,,,,,,,,,,,,,,,,,,,0.0,26.0,0.0,0.0,30.1,0.0,,0.0,31.9,,,39.3,0.0,0.0,0.1,7.6,5.9,,,,,28.0,28.0,28.0,28.0,28.0,28.0,28.0,28.0,,,8.0,5.1,,31.9,17.0,4.998,,,0.654,0.719,0.0,26.1,,,,,,2026-03-21-N890GF-SN35347-17.4.0.23677-USER_LOG_DATA.csv,,,,,,,87.8,78.8,,,,,82.4,82.4,82.4,82.4,82.4,82.4,82.4,82.4,,,78.98,0.0,82.4,0.938496583143508,0.89749430523918,0.004277777777777778,0.0,392.0,True,2026-03-21 23:01:08 - Flight 11,
57.06,1.0,10.0,2026-03-21 23:02:00,37.08163,-121.59959,335.0,0.0,44.3,-12.6,,,,,0.0,10.6,-1.1,9.7,0.0,223.0,-0.0,-0.02,1.0,99.0,42.0,31.0,0.0,30.01,2148.0,,,153.0,,,,,0.0,0.0,,,,,,,,,,,,,,,,,,,0.0,26.0,0.0,0.0,30.1,0.0,,0.0,31.8,,,39.3,0.0,0.0,0.1,7.6,5.9,,,,,28.0,28.0,28.0,28.0,28.0,28.0,28.0,28.0,,,8.0,4.2,,31.8,17.0,4.998,,,0.653,0.719,0.0,26.2,,,,,,2026-03-21-N890GF-SN35347-17.4.0.23677-USER_LOG_DATA.csv,,,,,,,87.8,78.8,,,,,82.4,82.4,82.4,82.4,82.4,82.4,82.4,82.4,,,79.16,0.0,82.4,0.938496583143508,0.89749430523918,0.004277777777777778,0.0,392.0,True,2026-03-21 23:01:08 - Flight 11,
58.06,1.0,10.0,2026-03-21 23:02:01,37.08163,-121.59959,336.0,0.0,44.3,-12.6,,,,,0.0,10.7,-1.0,9.7,0.0,223.0,-0.0,-0.02,1.0,99.0,12.0,31.0,0.0,30.01,2157.0,,,153.0,,,,,0.0,0.0,,,,,,,,,,,,,,,,,,,0.0,26.0,0.0,0.0,30.1,0.0,,0.0,31.6,,,39.3,0.0,0.0,0.1,7.6,5.9,,,,,28.0,28.0,28.0,28.0,28.0,28.0,28.0,28.0,,,8.0,3.5,,31.6,17.0,4.998,,,0.653,0.719,0.0,26.2,,,,,,2026-03-21-N890GF-SN35347-17.4.0.23677-USER_LOG_DATA.csv,,,,,,,87.8,78.8,,,,,82.4,82.4,82.4,82.4,82.4,82.4,82.4,82.4,,,79.16,0.0,82.4,0.938496583143508,0.89749430523918,0.004277777777777778,0.0,392.0,True,2026-03-21 23:01:08 - Flight 11,
59.06,1.0,10.0,2026-03-21 23:02:02,37.08163,-121.59959,336.0,0.0,44.3,-12.6,,,,,0.0,10.6,-1.0,9.7,0.0,223.0,-0.0,-0.02,1.0,99.0,-5.0,31.0,0.0,30.01,2157.0,,,153.0,,,,,0.0,0.0,,,,,,,,,,,,,,,,,,,0.0,26.0,0.0,0.0,30.1,0.1,,0.1,31.4,,,39.3,0.0,0.0,0.1,7.6,5.9,,,,,28.0,28.0,28.0,28.0,28.0,28.0,28.0,28.0,,,8.0,2.9,,31.4,17.0,4.998,,,0.654,0.719,0.0,26.2,,,,,,2026-03-21-N890GF-SN35347-17.4.0.23677-USER_LOG_DATA.csv,,,,,,,87.8,78.8,,,,,82.4,82.4,82.4,82.4,82.4,82.4,82.4,82.4,,,79.16,0.0,82.4,0.938496583143508,0.89749430523918,0.004291666666666667,0.0,392.0,True,2026-03-21 23:01:08 - Flight 11,
60.06,1.0,10.0,2026-03-21 23:02:03,37.08163,-121.59959,337.0,0.0,44.3,-12.6,,,,,0.0,10.7,-1.0,9.7,0.0,223.0,-0.0,-0.02,1.0,99.0,-9.0,31.0,0.0,30.01,2157.0,,,153.0,,,,,0.0,0.0,,,,,,,,,,,,,,,,,,,0.0,26.0,0.0,0.0,30.1,0.1,,0.1,31.3,,,39.3,0.0,0.0,0.1,7.6,5.9,,,,,28.0,28.0,28.0,28.0,28.0,28.0,28.0,28.0,,,8.0,2.5,,31.3,17.0,4.998,,,0.653,0.719,0.0,26.2,,,,,,2026-03-21-N890GF-SN35347-17.4.0.23677-USER_LOG_DATA.csv,,,,,,,87.8,78.8,,,,,82.4,82.4,82.4,82.4,82.4,82.4,82.4,82.4,,,79.16,0.0,82.4,0.938496583143508,0.89749430523918,0.004319444444444444,0.0,392.0,True,2026-03-21 23:01:08 - Flight 11,
61.06,1.0,10.0,2026-03-21 23:02:04,37.08163,-121.59959,337.0,0.0,44.3,-12.6,,,,,0.0,10.7,-1.0,9.7,0.0,223.0,-0.0,-0.02,1.0,99.0,-22.0,31.0,0.0,30.01,2158.0,,,153.0,,,,,0.0,0.0,,,,,,,,,,,,,,,,,,,0.0,26.0,0.0,0.0,30.1,0.1,,0.1,31.2,,,39.3,0.0,0.0,0.1,7.6,5.9,,,,,28.0,28.0,28.0,28.0,28.0,28.0,28.0,28.0,,,8.0,2.2,,31.2,17.0,4.998,,,0.653,0.719,0.0,26.2,,,,,,2026-03-21-N890GF-SN35347-17.4.0.23677-USER_LOG_DATA.csv,,,,,,,87.8,78.8,,,,,82.4,82.4,82.4,82.4,82.4,82.4,82.4,82.4,,,79.16,0.0,82.4,0.938496583143508,0.89749430523918,0.004347222222222222,0.0,392.0,True,2026-03-21 23:01:08 - Flight 11,
62.06,1.0,10.0,2026-03-21 23:02:05,37.08163,-121.59959,338.0,0.0,44.3,-12.6,,,,,0.0,10.7,-1.0,9.7,0.0,223.0,-0.0,-0.02,1.0,99.0,-68.0,31.0,0.0,30.01,2158.0,,,153.0,,,,,0.0,0.0,,,,,,,,,,,,,,,,,,,0.0,26.0,0.0,0.0,30.1,0.1,,0.1,31.0,,,39.3,0.0,0.0,0.1,7.6,5.9,,,,,28.0,28.0,28.0,28.0,28.0,28.0,28.0,28.0,,,8.0,1.9,,31.0,17.0,4.998,,,0.653,0.719,0.0,26.2,,,,,,2026-03-21-N890GF-SN35347-17.4.0.23677-USER_LOG_DATA.csv,,,,,,,87.8,78.8,,,,,82.4,82.4,82.4,82.4,82.4,82.4,82.4,82.4,,,79.16,0.0,82.4,0.938496583143508,0.89749430523918,0.0043749999999999995,0.0,392.0,True,2026-03-21 23:01:08 - Flight 11,
63.06,1.0,10.0,2026-03-21 23:02:06,37.08163,-121.59959,338.0,0.0,44.3,-12.6,,,,,0.0,10.7,-1.1,9.7,0.0,223.0,-0.0,-0.02,1.0,99.0,-82.0,31.0,0.0,30.01,2158.0,,,153.0,,,,,0.0,0.0,,,,,,,,,,,,,,,,,,,0.0,26.0,0.0,0.0,30.1,0.1,,0.1,30.9,,,39.3,0.0,0.0,0.1,7.6,5.9,,,,,28.0,28.0,28.0,28.0,28.0,28.0,28.0,28.0,,,8.0,1.7,,30.9,17.0,4.998,,,0.653,0.718,0.0,26.2,,,,,,2026-03-21-N890GF-SN35347-17.4.0.23677-USER_LOG_DATA.csv,,,,,,,87.8,78.8,,,,,82.4,82.4,82.4,82.4,82.4,82.4,82.4,82.4,,,79.16,0.0,82.4,0.938496583143508,0.89749430523918,0.004402777777777778,0.0,392.0,True,2026-03-21 23:01:08 - Flight 11,
64.06,1.0,10.0,2026-03-21 23:02:07,37.08163,-121.59959,339.0,0.0,44.3,-12.6,,,,,0.0,10.7,-1.0,9.7,0.0,223.0,-0.0,-0.02,1.0,99.0,-44.0,31.0,0.0,30.01,2159.0,,,153.0,,,,,0.0,0.0,,,,,,,,,,,,,,,,,,,0.0,26.0,0.0,0.0,30.1,0.1,,0.1,30.8,,,39.3,0.0,0.0,0.1,7.6,5.9,,,,,28.0,28.0,28.0,28.0,28.0,28.0,28.0,28.0,,,8.0,1.5,,30.8,17.0,4.998,,,0.653,0.719,0.0,26.2,,,,,,2026-03-21-N890GF-SN35347-17.4.0.23677-USER_LOG_DATA.csv,,,,,,,87.8,78.8,,,,,82.4,82.4,82.4,82.4,82.4,82.4,82.4,82.4,,,79.16,0.0,82.4,0.938496583143508,0.89749430523918,0.004430555555555556,0.0,392.0,True,2026-03-21 23:01:08 - Flight 11,
65.06,1.0,10.0,2026-03-21 23:02:08,37.08163,-121.59959,339.0,0.0,44.3,-12.6,,,,,0.0,10.7,-1.0,9.7,0.0,223.0,0.0,-0.02,1.0,99.0,-28.0,31.0,0.0,30.01,2159.0,,,153.0,,,,,0.0,0.0,,,,,,,,,,,,,,,,,,,0.0,26.0,0.0,0.0,30.1,0.1,,0.1,30.6,,,39.3,0.0,0.0,0.1,7.6,5.9,,,,,28.0,28.0,28.0,28.0,28.0,28.0,28.0,28.0,,,8.0,1.4,,30.6,17.0,4.998,,,0.653,0.719,0.0,26.2,,,,,,2026-03-21-N890GF-SN35347-17.4.0.23677-USER_LOG_DATA.csv,,,,,,,87.8,78.8,,,,,82.4,82.4,82.4,82.4,82.4,82.4,82.4,82.4,,,79.16,0.0,82.4,0.938496583143508,0.89749430523918,0.004458333333333333,0.0,392.0,True,2026-03-21 23:01:08 - Flight 11,
66.06,1.0,10.0,2026-03-21 23:02:09,37.08162,-121.5996,346.0,0.0,44.3,-12.6,,,,,0.0,10.7,-1.0,9.7,0.0,223.0,-0.0,-0.02,1.0,99.0,-44.0,31.0,0.0,30.01,2159.0,,,153.0,,,,,0.0,0.0,,,,,,,,,,,,,,,,,,,0.0,26.0,0.0,0.0,30.1,0.0,,0.0,30.5,,,39.3,0.0,0.0,0.1,7.6,5.9,,,,,28.0,28.0,28.0,28.0,28.0,28.0,28.0,28.0,,,8.0,1.3,,30.5,17.0,4.998,,,0.653,0.719,0.0,26.2,,,,,,2026-03-21-N890GF-SN35347-17.4.0.23677-USER_LOG_DATA.csv,,,,,,,87.8,78.8,,,,,82.4,82.4,82.4,82.4,82.4,82.4,82.4,82.4,,,79.16,0.0,82.4,0.938496583143508,0.89749430523918,0.004472222222222222,0.0,392.0,True,2026-03-21 23:01:08 - Flight 11,
67.06,1.0,10.0,2026-03-21 23:02:10,37.08162,-121.5996,347.0,0.0,44.3,-12.6,,,,,0.0,10.7,-1.0,9.7,0.0,223.0,-0.0,-0.02,1.0,99.0,-30.0,31.0,0.0,30.01,2168.0,,,153.0,,,,,0.0,0.0,,,,,,,,,,,,,,,,,,,0.0,26.0,0.0,0.0,30.1,0.0,,0.0,30.4,,,39.3,0.0,0.0,0.1,7.6,5.9,,,,,28.0,28.0,28.0,28.0,28.0,28.0,28.0,28.0,,,8.0,1.2,,30.4,17.0,4.998,,,0.653,0.719,0.0,26.2,,,,,,2026-03-21-N890GF-SN35347-17.4.0.23677-USER_LOG_DATA.csv,,,,,,,87.8,78.8,,,,,82.4,82.4,82.4,82.4,82.4,82.4,82.4,82.4,,,79.16,0.0,82.4,0.938496583143508,0.89749430523918,0.004472222222222222,0.0,392.0,True,2026-03-21 23:01:08 - Flight 11,
68.06,1.0,10.0,2026-03-21 23:02:11,37.08162,-121.59959,347.0,0.0,44.3,-12.6,,,,,0.0,10.7,-1.0,9.8,0.0,223.0,-0.0,-0.02,1.0,99.0,-28.0,31.0,0.0,30.01,2168.0,,,153.0,,,,,0.0,0.0,,,,,,,,,,,,,,,,,,,0.0,22.0,0.0,0.0,30.1,0.0,,0.0,30.3,,,39.3,0.0,0.0,0.0,7.6,5.9,,,,,22.0,22.0,22.0,21.0,22.0,22.0,22.0,22.0,,,8.0,1.2,,30.3,17.0,3.458,,,0.653,0.718,0.0,22.3,,,,,,2026-03-21-N890GF-SN35347-17.4.0.23677-USER_LOG_DATA.csv,,,,,,,87.8,71.6,,,,,71.6,71.6,71.6,69.8,71.6,71.6,71.6,71.6,,,72.14,0.0,71.6,0.8154897494305239,0.8154897494305239,0.004472222222222222,0.0,392.0,True,2026-03-21 23:01:08 - Flight 11,
69.06,1.0,10.0,2026-03-21 23:02:12,37.08162,-121.59959,348.0,0.0,44.3,-12.6,,,,,0.0,10.6,-1.0,9.8,0.0,223.0,-0.0,-0.02,1.0,99.0,-8.0,31.0,0.0,30.01,2168.0,,,153.0,,,,,0.0,0.0,,,,,,,,,,,,,,,,,,,0.0,23.0,141.0,141.0,30.3,0.1,,0.1,30.3,,,39.3,0.0,0.0,-0.1,7.6,5.9,,,,,24.0,24.0,24.0,23.0,24.0,23.0,24.0,24.0,,,8.0,1.1,,30.3,17.0,0.002,,,0.653,0.718,0.0,23.3,,,,,,2026-03-21-N890GF-SN35347-17.4.0.23677-USER_LOG_DATA.csv,,,,,,,87.8,73.4,,,,,75.2,75.2,75.2,73.4,75.2,73.4,75.2,75.2,,,73.94,141.0,75.2,0.856492027334852,0.835990888382688,0.004486111111111111,0.0,392.0,True,2026-03-21 23:01:08 - Flight 11,
70.06,1.0,10.0,2026-03-21 23:02:13,37.08162,-121.59959,348.0,0.1,44.3,-12.6,,,,,0.0,10.6,-1.1,9.9,0.0,221.0,0.0,-0.02,1.0,99.0,-62.0,31.0,0.0,30.01,2168.0,,,153.0,,,,,0.0,0.0,,,,,,,,,,,,,,,,,,,2.0,26.0,1019.0,1019.0,21.8,0.8,,0.8,22.0,,,39.3,0.0,0.0,-0.1,7.6,5.9,,,,,28.0,63.0,28.0,52.0,28.0,68.0,28.0,58.0,,,8.0,1.1,,22.0,17.0,0.005,,,0.659,0.721,1.6,26.2,,,,,,2026-03-21-N890GF-SN35347-17.4.0.23677-USER_LOG_DATA.csv,,,,,,,87.8,78.8,,,,,82.4,145.4,82.4,125.6,82.4,154.4,82.4,136.4,,,79.16,1019.0,82.4,0.938496583143508,0.89749430523918,0.004611111111111111,0.08433333333333333,392.0,True,2026-03-21 23:01:08 - Flight 11,
71.06,1.0,10.0,2026-03-21 23:02:14,37.08161,-121.59959,349.0,0.0,44.3,-12.6,,,,,0.0,10.7,-1.0,9.9,0.0,221.0,-0.0,-0.01,1.0,99.0,22.0,31.0,0.0,30.01,2168.0,,,153.0,,,,,0.0,0.0,,,,,,,,,,,,,,,,,,,7.0,26.0,1162.0,1162.0,15.2,1.8,,1.8,18.6,,,39.3,0.0,0.0,-0.1,7.6,5.9,,,,,28.0,128.0,28.0,108.0,28.0,134.0,28.0,119.0,,,7.0,1.1,,18.6,17.0,0.004,,,0.656,0.723,7.0,26.2,,,,,,2026-03-21-N890GF-SN35347-17.4.0.23677-USER_LOG_DATA.csv,,,,,,,87.8,78.8,,,,,82.4,262.4,82.4,226.4,82.4,273.2,82.4,246.2,,,79.16,1162.0,82.4,0.938496583143508,0.89749430523918,0.004972222222222222,0.16866666666666666,392.0,True,2026-03-21 23:01:08 - Flight 11,
72.06,1.0,10.0,2026-03-21 23:02:15,37.08161,-121.59959,349.0,0.0,44.3,-12.6,,,,,0.0,10.7,-1.0,9.9,0.0,221.0,-0.0,-0.02,1.0,99.0,25.0,31.0,0.0,30.01,2168.0,,,153.0,,,,,0.0,0.0,,,,,,,,,,,,,,,,,,,16.0,26.0,1084.0,1084.0,14.8,2.4,,2.4,18.1,,,39.3,0.0,0.0,-0.1,7.6,5.9,,,,,28.0,185.0,28.0,157.0,28.0,194.0,29.0,170.0,,,7.0,1.0,,18.1,17.0,0.004,,,0.656,0.721,15.8,26.2,,,,,,2026-03-21-N890GF-SN35347-17.4.0.23677-USER_LOG_DATA.csv,,,,,,,87.8,78.8,,,,,82.4,365.0,82.4,314.6,82.4,381.2,84.2,338.0,,,79.16,1084.0,82.85000000000001,0.9436218678815491,0.89749430523918,0.005555555555555555,0.16866666666666666,392.0,True,2026-03-21 23:01:08 - Flight 11,
73.06,1.0,10.0,2026-03-21 23:02:16,37.08161,-121.59959,350.0,0.0,44.3,-12.6,,,,,0.0,10.7,-1.0,9.9,0.0,221.0,0.0,-0.01,1.0,99.0,19.0,31.0,0.0,30.01,2167.0,,,153.0,,,,,0.0,0.0,,,,,,,,,,,,,,,,,,,30.0,26.0,1122.0,1122.0,14.8,2.8,,2.8,18.3,,,39.3,0.0,0.0,-0.0,7.6,5.9,,,,,29.0,237.0,29.0,201.0,29.0,252.0,29.0,216.0,,,7.0,1.0,,18.3,17.0,0.004,,,0.654,0.726,29.9,26.1,,,,,,2026-03-21-N890GF-SN35347-17.4.0.23677-USER_LOG_DATA.csv,,,,,,,87.8,78.8,,,,,84.2,458.6,84.2,393.8,84.2,485.6,84.2,420.8,,,78.98,1122.0,84.2,0.958997722095672,0.89749430523918,0.006277777777777778,0.16866666666666666,392.0,True,2026-03-21 23:01:08 - Flight 11,
74.06,1.0,10.0,2026-03-21 23:02:17,37.08161,-121.59959,350.0,0.0,44.3,-12.6,,,,,0.0,10.7,-1.0,9.9,0.0,221.0,0.0,-0.01,1.0,99.0,27.0,31.0,0.0,30.01,2167.0,,,153.0,,,,,0.0,0.0,,,,,,,,,,,,,,,,,,,49.0,26.0,1102.0,1102.0,14.6,3.1,,3.1,18.7,,,39.3,0.0,0.0,-0.0,7.6,5.9,,,,,29.0,275.0,29.0,242.0,29.0,287.0,30.0,254.0,,,7.0,1.0,,18.7,17.0,0.004,,,0.656,0.725,49.2,26.1,,,,,,2026-03-21-N890GF-SN35347-17.4.0.23677-USER_LOG_DATA.csv,,,,,,,87.8,78.8,,,,,84.2,527.0,84.2,467.6,84.2,548.6,86.0,489.2,,,78.98,1102.0,84.64999999999999,0.9641230068337129,0.89749430523918,0.007097222222222222,0.16866666666666666,392.0,True,2026-03-21 23:01:08 - Flight 11,
75.06,1.0,10.0,2026-03-21 23:02:18,37.08161,-121.59959,351.0,0.0,44.3,-12.6,,,,,0.0,10.7,-1.0,9.8,0.0,221.0,-0.0,-0.01,1.0,99.0,15.0,31.0,0.0,30.01,2167.0,,,153.0,,,,,0.0,0.0,,,,,,,,,,,,,,,,,,,66.0,26.0,1189.0,1189.0,14.3,3.1,,3.1,19.4,,,39.3,0.0,0.0,-0.0,7.6,5.9,,,,,29.0,308.0,30.0,276.0,30.0,324.0,30.0,290.0,,,7.0,1.0,,19.4,17.0,0.004,,,0.654,0.724,65.8,26.1,,,,,,2026-03-21-N890GF-SN35347-17.4.0.23677-USER_LOG_DATA.csv,,,,,,,87.8,78.8,,,,,84.2,586.4,86.0,528.8,86.0,615.2,86.0,554.0,,,78.98,1189.0,85.55,0.974373576309795,0.89749430523918,0.007958333333333333,0.16866666666666666,392.0,True,2026-03-21 23:01:08 - Flight 11,
76.06,1.0,10.0,2026-03-21 23:02:19,37.08161,-121.59959,352.0,0.0,44.3,-12.6,,,,,0.0,10.8,-1.0,9.8,0.0,221.0,-0.0,-0.02,1.0,99.0,-11.0,31.0,0.0,30.01,2178.0,,,153.0,,,,,0.0,0.0,,,,,,,,,,,,,,,,,,,73.0,26.0,1149.0,1149.0,14.1,3.1,,3.1,19.7,,,39.3,0.0,0.0,-0.0,7.6,5.9,,,,,30.0,339.0,30.0,305.0,30.0,360.0,31.0,325.0,,,6.0,1.0,,19.7,17.0,0.004,,,0.654,0.721,72.8,26.1,,,,,,2026-03-21-N890GF-SN35347-17.4.0.23677-USER_LOG_DATA.csv,,,,,,,87.8,78.8,,,,,86.0,642.2,86.0,581.0,86.0,680.0,87.8,617.0,,,78.98,1149.0,86.45,0.9846241457858771,0.89749430523918,0.008819444444444444,0.16866666666666666,392.0,True,2026-03-21 23:01:08 - Flight 11,
77.06,1.0,10.0,2026-03-21 23:02:20,37.08161,-121.59959,352.0,0.0,44.3,-12.6,,,,,0.0,10.8,-1.0,9.8,0.0,221.0,-0.0,-0.02,1.0,99.0,-21.0,31.0,0.0,30.01,2178.0,,,153.0,,,,,0.0,0.0,,,,,,,,,,,,,,,,,,,75.0,26.0,1172.0,1172.0,14.1,3.0,,3.0,20.0,,,39.3,0.0,0.0,-0.0,7.6,5.9,,,,,30.0,368.0,31.0,333.0,30.0,397.0,31.0,351.0,,,7.0,1.0,,20.0,17.0,0.004,,,0.654,0.724,74.6,26.1,,,,,,2026-03-21-N890GF-SN35347-17.4.0.23677-USER_LOG_DATA.csv,,,,,,,87.8,78.8,,,,,86.0,694.4,87.8,631.4,86.0,746.6,87.8,663.8,,,78.98,1172.0,86.9,0.9897494305239181,0.89749430523918,0.009666666666666667,0.16866666666666666,392.0,True,2026-03-21 23:01:08 - Flight 11,
78.06,1.0,10.0,2026-03-21 23:02:21,37.08161,-121.59959,353.0,0.0,44.3,-12.6,,,,,0.0,10.8,-0.9,9.8,0.0,221.0,-0.0,-0.02,1.0,99.0,3.0,31.0,0.0,30.01,2178.0,,,153.0,,,,,0.0,0.0,,,,,,,,,,,,,,,,,,,76.0,26.0,1211.0,1211.0,14.0,3.0,,3.0,20.1,,,39.3,0.0,0.0,-0.0,7.6,5.9,,,,,31.0,391.0,31.0,358.0,31.0,433.0,32.0,375.0,,,7.0,1.0,,20.1,17.0,0.004,,,0.654,0.723,75.5,26.1,,,,,,2026-03-21-N890GF-SN35347-17.4.0.23677-USER_LOG_DATA.csv,,,,,,,87.8,78.8,,,,,87.8,735.8,87.8,676.4,87.8,811.4,89.6,707.0,,,78.98,1211.0,88.25,1.005125284738041,0.89749430523918,0.0105,0.16866666666666666,392.0,True,2026-03-21 23:01:08 - Flight 11,
79.06,1.0,10.0,2026-03-21 23:02:22,37.08161,-121.59959,353.0,0.0,44.3,-12.6,,,,,0.0,10.9,-0.8,9.9,0.0,221.0,-0.0,-0.02,1.0,99.0,17.0,31.0,0.0,30.01,2188.0,,,153.0,,,,,0.0,0.0,,,,,,,,,,,,,,,,,,,76.0,26.0,1145.0,1145.0,13.2,2.9,,2.9,20.6,,,39.3,0.0,0.0,-0.0,7.6,5.9,,,,,31.0,413.0,32.0,381.0,31.0,451.0,32.0,397.0,,,7.0,1.0,,20.6,17.0,0.004,,,0.654,0.723,75.8,26.1,,,,,,2026-03-21-N890GF-SN35347-17.4.0.23677-USER_LOG_DATA.csv,,,,,,,87.8,78.8,,,,,87.8,775.4,89.6,717.8,87.8,843.8,89.6,746.6,,,78.98,1145.0,88.7,1.0102505694760822,0.89749430523918,0.011319444444444444,0.16866666666666666,392.0,True,2026-03-21 23:01:08 - Flight 11,
80.06,1.0,10.0,2026-03-21 23:02:23,37.08161,-121.59959,354.0,0.0,44.3,-12.6,,,,,0.0,10.8,-0.9,9.9,0.0,221.0,-0.0,-0.02,1.0,99.0,-16.0,31.0,0.0,30.01,2188.0,,,153.0,,,,,0.0,0.0,,,,,,,,,,,,,,,,,,,68.0,26.0,821.0,821.0,13.5,2.8,,2.8,20.8,,,39.3,0.0,0.0,-0.0,7.6,5.9,,,,,31.0,428.0,32.0,390.0,31.0,460.0,32.0,413.0,,,7.0,1.0,,20.8,17.0,0.004,,,0.654,0.728,68.1,26.1,,,,,,2026-03-21-N890GF-SN35347-17.4.0.23677-USER_LOG_DATA.csv,,,,,,,87.8,78.8,,,,,87.8,802.4,89.6,734.0,87.8,860.0,89.6,775.4,,,78.98,821.0,88.7,1.0102505694760822,0.89749430523918,0.01211111111111111,0.16866666666666666,392.0,True,2026-03-21 23:01:08 - Flight 11,
81.06,1.0,10.0,2026-03-21 23:02:24,37.08161,-121.59959,354.0,0.0,44.3,-12.6,,,,,0.0,10.8,-0.9,10.0,0.0,221.0,0.0,-0.02,1.0,99.0,-38.0,31.0,0.0,30.01,2188.0,,,153.0,,,,,0.0,0.0,,,,,,,,,,,,,,,,,,,64.0,26.0,794.0,794.0,14.8,2.6,,2.6,20.7,,,39.3,0.0,0.0,-0.0,7.6,5.9,,,,,32.0,436.0,33.0,401.0,32.0,465.0,33.0,418.0,,,7.0,1.0,,20.7,17.0,0.004,,,0.659,0.73,64.4,26.1,,,,,,2026-03-21-N890GF-SN35347-17.4.0.23677-USER_LOG_DATA.csv,,,,,,,87.8,78.8,,,,,89.6,816.8,91.4,753.8,89.6,869.0,91.4,784.4,,,78.98,794.0,90.5,1.030751708428246,0.89749430523918,0.012861111111111111,0.16866666666666666,392.0,True,2026-03-21 23:01:08 - Flight 11,
82.06,1.0,10.0,2026-03-21 23:02:25,37.08161,-121.59959,355.0,0.0,44.3,-12.6,,,,,0.0,10.8,-0.9,10.0,0.0,221.0,0.0,-0.02,1.0,99.0,-9.0,31.0,0.0,30.01,2189.0,,,153.0,,,,,0.0,0.0,,,,,,,,,,,,,,,,,,,62.0,26.0,718.0,718.0,15.6,2.5,,2.5,20.9,,,39.3,0.0,0.0,0.0,7.6,5.9,,,,,32.0,442.0,33.0,411.0,32.0,464.0,33.0,426.0,,,7.0,1.0,,20.9,17.0,0.004,,,0.658,0.736,62.3,26.1,,,,,,2026-03-21-N890GF-SN35347-17.4.0.23677-USER_LOG_DATA.csv,,,,,,,87.8,78.8,,,,,89.6,827.6,91.4,771.8,89.6,867.2,91.4,798.8,,,78.98,718.0,90.5,1.030751708428246,0.89749430523918,0.013569444444444445,0.16866666666666666,392.0,True,2026-03-21 23:01:08 - Flight 11,
83.06,1.0,10.0,2026-03-21 23:02:26,37.08161,-121.59959,355.0,0.0,44.3,-12.6,,,,,0.0,10.8,-0.9,10.0,0.0,221.0,0.0,-0.02,1.0,99.0,10.0,31.0,0.0,30.01,2189.0,,,153.0,,,,,0.0,0.0,,,,,,,,,,,,,,,,,,,62.0,26.0,801.0,801.0,15.7,2.4,,2.4,21.1,,,39.3,0.0,0.0,0.0,7.6,5.9,,,,,32.0,446.0,33.0,416.0,32.0,466.0,33.0,432.0,,,7.0,1.0,,21.1,17.0,0.004,,,0.659,0.73,62.2,26.1,,,,,,2026-03-21-N890GF-SN35347-17.4.0.23677-USER_LOG_DATA.csv,,,,,,,87.8,78.8,,,,,89.6,834.8,91.4,780.8,89.6,870.8,91.4,809.6,,,78.98,801.0,90.5,1.030751708428246,0.89749430523918,0.01425,0.16866666666666666,392.0,True,2026-03-21 23:01:08 - Flight 11,
84.06,1.0,10.0,2026-03-21 23:02:27,37.08161,-121.59959,356.0,0.0,44.3,-12.6,,,,,0.0,10.8,-1.0,9.9,0.0,221.0,-0.0,-0.02,1.0,99.0,47.0,31.0,0.0,30.01,2189.0,,,153.0,,,,,0.0,0.0,,,,,,,,,,,,,,,,,,,62.0,26.0,773.0,773.0,15.5,2.2,,2.2,21.3,,,39.3,0.0,0.0,0.0,7.6,5.9,,,,,33.0,453.0,34.0,424.0,33.0,470.0,34.0,444.0,,,7.0,1.0,,21.3,17.0,0.004,,,0.658,0.726,62.3,26.1,,,,,,2026-03-21-N890GF-SN35347-17.4.0.23677-USER_LOG_DATA.csv,,,,,,,87.8,78.8,,,,,91.4,847.4,93.2,795.2,91.4,878.0,93.2,831.2,,,78.98,773.0,92.30000000000001,1.0512528473804101,0.89749430523918,0.014888888888888889,0.16866666666666666,392.0,True,2026-03-21 23:01:08 - Flight 11,
85.06,1.0,10.0,2026-03-21 23:02:28,37.08161,-121.59959,356.0,0.0,44.3,-12.6,,,,,0.0,10.7,-1.0,9.9,0.0,221.0,-0.0,-0.02,1.0,99.0,39.0,31.0,0.0,30.01,2199.0,,,153.0,,,,,0.0,0.0,,,,,,,,,,,,,,,,,,,61.0,27.0,768.0,768.0,16.6,2.2,,2.2,21.3,,,39.3,0.0,0.0,14.7,7.6,5.9,,,,,35.0,458.0,36.0,434.0,35.0,473.0,36.0,450.0,,,7.0,0.0,,21.3,17.0,0.004,,,0.657,0.726,60.8,27.2,,,,,,2026-03-21-N890GF-SN35347-17.4.0.23677-USER_LOG_DATA.csv,,,,,,,87.8,80.6,,,,,95.0,856.4,96.8,813.2,95.0,883.4,96.8,842.0,,,80.96,768.0,95.9,1.0922551252847381,0.9179954441913439,0.0155,0.16866666666666666,392.0,True,2026-03-21 23:01:08 - Flight 11,
86.06,1.0,10.0,2026-03-21 23:02:29,37.08161,-121.59959,356.0,0.0,44.3,-12.6,,,,,0.0,10.7,-1.1,9.8,0.0,221.0,-0.0,-0.02,1.0,99.0,62.0,31.0,0.0,30.01,2200.0,,,153.0,,,,,0.0,0.0,,,,,,,,,,,,,,,,,,,61.0,27.0,741.0,741.0,16.4,2.0,,2.0,21.5,,,39.3,0.0,0.0,27.9,7.6,5.9,,,,,35.0,460.0,36.0,439.0,35.0,480.0,36.0,445.0,,,7.0,0.0,,21.5,17.0,0.004,,,0.658,0.725,61.0,27.2,,,,,,2026-03-21-N890GF-SN35347-17.4.0.23677-USER_LOG_DATA.csv,,,,,,,87.8,80.6,,,,,95.0,860.0,96.8,822.2,95.0,896.0,96.8,833.0,,,80.96,741.0,95.9,1.0922551252847381,0.9179954441913439,0.016083333333333335,0.16866666666666666,392.0,True,2026-03-21 23:01:08 - Flight 11,
87.06,1.0,10.0,2026-03-21 23:02:30,37.08161,-121.59959,357.0,0.0,44.3,-12.6,,,,,0.0,10.7,-1.0,9.8,0.0,221.0,-0.0,-0.02,0.9,99.0,51.0,31.0,0.0,30.01,2200.0,,,153.0,,,,,0.0,0.0,,,,,,,2.0,,,7.0,,,,,,,,,60.0,27.0,691.0,691.0,16.5,2.0,,2.0,21.5,,,39.3,0.0,0.0,34.8,7.6,5.9,,,,,35.0,461.0,36.0,446.0,35.0,486.0,36.0,454.0,,,7.0,0.0,,21.5,17.0,0.004,,,0.657,0.726,60.4,27.1,,,,,,2026-03-21-N890GF-SN35347-17.4.0.23677-USER_LOG_DATA.csv,,,,,,,87.8,80.6,,,,,95.0,861.8,96.8,834.8,95.0,906.8,96.8,849.2,,,80.78,691.0,95.9,1.0922551252847381,0.9179954441913439,0.01663888888888889,0.16866666666666666,392.0,True,2026-03-21 23:01:08 - Flight 11,
88.06,1.0,10.0,2026-03-21 23:02:31,37.08161,-121.59959,357.0,0.0,44.3,-12.6,,,,,0.0,10.7,-1.1,9.7,0.0,221.0,-0.0,-0.01,1.0,99.0,36.0,31.0,0.0,30.01,2200.0,,,153.0,,,,,0.0,0.0,,,,,,,2.0,,,7.0,,,,,,,,,61.0,27.0,791.0,791.0,16.1,1.9,,1.9,21.9,,,39.3,0.0,0.0,40.1,7.6,5.9,,,,,36.0,464.0,37.0,452.0,36.0,498.0,37.0,461.0,,,7.0,0.0,,21.9,17.0,0.004,,,0.659,0.725,61.2,27.2,,,,,,2026-03-21-N890GF-SN35347-17.4.0.23677-USER_LOG_DATA.csv,,,,,,,87.8,80.6,,,,,96.8,867.2,98.6,845.6,96.8,928.4,98.6,861.8,,,80.96,791.0,97.7,1.1127562642369022,0.9179954441913439,0.017180555555555557,0.16866666666666666,392.0,True,2026-03-21 23:01:08 - Flight 11,
89.06,1.0,10.0,2026-03-21 23:02:32,37.08161,-121.59959,357.0,0.0,44.3,-12.6,,,,,0.0,10.7,-1.0,9.7,0.0,222.0,-0.0,-0.01,1.0,99.0,80.0,31.0,0.0,30.01,2201.0,,,153.0,,,,,0.0,0.0,,,,,,,2.0,,,7.0,,,,,,,,,62.0,27.0,786.0,786.0,15.5,1.8,,1.8,22.0,,,39.3,0.0,0.0,44.1,7.6,5.9,,,,,36.0,466.0,37.0,458.0,36.0,500.0,37.0,465.0,,,7.0,0.0,,22.0,17.0,0.004,,,0.657,0.726,62.1,27.2,,,,,,2026-03-21-N890GF-SN35347-17.4.0.23677-USER_LOG_DATA.csv,,,,,,,87.8,80.6,,,,,96.8,870.8,98.6,856.4,96.8,932.0,98.6,869.0,,,80.96,786.0,97.7,1.1127562642369022,0.9179954441913439,0.017694444444444443,0.16866666666666666,392.0,True,2026-03-21 23:01:08 - Flight 11,
90.06,1.0,10.0,2026-03-21 23:02:33,37.0816,-121.59959,358.0,0.0,44.3,-12.6,,,,,0.0,10.7,-1.0,9.7,0.0,222.0,0.0,-0.02,1.0,99.0,37.0,31.0,0.0,30.01,2201.0,,,153.0,,,,,0.0,0.0,,,,,,,2.0,,,7.0,,,,,3.0,0.0,0.0,1200.0,62.0,27.0,782.0,782.0,15.4,1.8,,1.8,22.3,,,39.3,0.0,0.0,46.0,7.6,5.9,,,,,37.0,471.0,38.0,465.0,37.0,501.0,38.0,469.0,,,7.0,0.0,,22.3,17.0,0.004,,,0.657,0.726,62.1,27.2,,,,,,2026-03-21-N890GF-SN35347-17.4.0.23677-USER_LOG_DATA.csv,,,,,,,87.8,80.6,,,,,98.6,879.8,100.4,869.0,98.6,933.8,100.4,876.2,,,80.96,782.0,99.5,1.133257403189066,0.9179954441913439,0.018194444444444444,0.16866666666666666,392.0,True,2026-03-21 23:01:08 - Flight 11,
91.06,1.0,10.0,2026-03-21 23:02:34,37.0816,-121.59959,358.0,0.0,44.3,-12.6,,,,,0.0,10.7,-1.1,9.8,0.0,223.0,-0.0,-0.02,1.0,99.0,61.0,31.0,0.0,30.01,2202.0,,,153.0,,,,,0.0,0.0,,,,,,,2.0,,,7.0,,,,,3.0,1.0,0.0,1200.0,62.0,27.0,844.0,844.0,15.9,1.8,,1.8,22.4,,,39.3,0.0,0.0,47.0,7.6,5.9,,,,,37.0,473.0,38.0,469.0,37.0,495.0,38.0,469.0,,,7.0,0.0,,22.4,17.0,0.004,,,0.657,0.731,62.1,27.3,,,,,,2026-03-21-N890GF-SN35347-17.4.0.23677-USER_LOG_DATA.csv,,,,,,,87.8,80.6,,,,,98.6,883.4,100.4,876.2,98.6,923.0,100.4,876.2,,,81.14,844.0,99.5,1.133257403189066,0.9179954441913439,0.018694444444444444,0.16866666666666666,392.0,True,2026-03-21 23:01:08 - Flight 11,
92.06,1.0,10.0,2026-03-21 23:02:35,37.0816,-121.59959,358.0,0.0,44.3,-12.6,,,,,0.0,10.7,-1.1,9.7,0.0,224.0,-0.0,-0.02,1.0,99.0,45.0,31.0,0.0,30.01,2203.0,,,153.0,,,,,0.0,0.0,,,,,,,2.0,,,7.0,,,,,1.0,0.0,0.0,1200.0,64.0,27.0,879.0,879.0,14.9,1.8,,1.8,22.5,,,39.3,0.0,0.0,46.6,7.6,5.9,,,,,37.0,476.0,38.0,473.0,37.0,504.0,39.0,475.0,,,7.0,0.0,,22.5,17.0,0.004,,,0.654,0.726,64.4,27.1,,,,,,2026-03-21-N890GF-SN35347-17.4.0.23677-USER_LOG_DATA.csv,,,,,,,87.8,80.6,,,,,98.6,888.8,100.4,883.4,98.6,939.2,102.2,887.0,,,80.78,879.0,99.95000000000002,1.1383826879271073,0.9179954441913439,0.019194444444444445,0.16866666666666666,392.0,True,2026-03-21 23:01:08 - Flight 11,
93.06,1.0,10.0,2026-03-21 23:02:36,37.0816,-121.59959,358.0,0.0,44.3,-12.6,,,,,0.0,10.7,-1.2,9.6,0.0,224.0,-0.0,-0.02,1.0,99.0,8.0,31.0,0.0,30.01,2203.0,,,153.0,,,,,0.0,0.0,,,,,,,2.0,,,7.0,,,,,1.0,0.0,0.0,1200.0,67.0,27.0,987.0,987.0,14.6,1.8,,1.8,22.7,,,39.3,0.0,0.0,41.4,7.6,5.9,,,,,37.0,481.0,38.0,477.0,37.0,514.0,39.0,484.0,,,7.0,0.0,,22.7,17.0,0.002,,,0.656,0.728,66.6,26.9,,,,,,2026-03-21-N890GF-SN35347-17.4.0.23677-USER_LOG_DATA.csv,,,,,,,87.8,80.6,,,,,98.6,897.8,100.4,890.6,98.6,957.2,102.2,903.2,,,80.42,987.0,99.95000000000002,1.1383826879271073,0.9179954441913439,0.019694444444444445,0.16866666666666666,392.0,True,2026-03-21 23:01:08 - Flight 11,
94.06,1.0,10.0,2026-03-21 23:02:37,37.0816,-121.59959,359.0,0.1,44.3,-12.6,,,,,0.0,10.8,-1.2,9.6,0.0,224.0,-0.0,-0.02,1.0,99.0,9.0,31.0,0.0,30.01,2214.0,,,153.0,,,,,0.0,0.0,,,,,,,2.0,,,7.0,,,,,,,,,68.0,27.0,974.0,974.0,14.1,1.8,,1.8,22.9,,,39.3,0.0,0.0,35.6,7.6,5.9,,,,,37.0,487.0,39.0,484.0,37.0,520.0,39.0,484.0,,,7.0,0.0,,22.9,17.0,0.002,,,0.656,0.723,67.8,26.8,,,,,,2026-03-21-N890GF-SN35347-17.4.0.23677-USER_LOG_DATA.csv,,,,,,,87.8,80.6,,,,,98.6,908.6,102.2,903.2,98.6,968.0,102.2,903.2,,,80.24000000000001,974.0,100.4,1.1435079726651483,0.9179954441913439,0.020194444444444445,0.253,392.0,True,2026-03-21 23:01:08 - Flight 11,
95.06,1.0,10.0,2026-03-21 23:02:38,37.0816,-121.59958,359.0,0.0,44.3,-12.6,,,,,0.0,10.8,-1.2,9.6,0.0,224.0,-0.0,-0.02,1.0,99.0,-17.0,31.0,0.0,30.01,2214.0,,,153.0,,,,,0.0,0.0,,,,,,,2.0,,,7.0,,,,,,,,,68.0,27.0,935.0,935.0,14.1,1.9,,1.9,23.1,,,39.3,0.0,0.0,30.2,7.6,5.9,,,,,38.0,495.0,39.0,487.0,38.0,519.0,39.0,491.0,,,7.0,0.0,,23.1,17.0,0.002,,,0.654,0.721,68.1,26.7,,,,,,2026-03-21-N890GF-SN35347-17.4.0.23677-USER_LOG_DATA.csv,,,,,,,87.8,80.6,,,,,100.4,923.0,102.2,908.6,100.4,966.2,102.2,915.8,,,80.06,935.0,101.30000000000001,1.1537585421412302,0.9179954441913439,0.020708333333333332,0.3373333333333333,392.0,True,2026-03-21 23:01:08 - Flight 11,
96.06,1.0,10.0,2026-03-21 23:02:39,37.08159,-121.59957,372.0,0.0,44.3,-12.6,,,,,0.0,10.7,-1.2,9.5,0.0,224.0,-0.0,-0.01,1.0,99.0,31.0,31.0,0.0,30.01,2214.0,,,153.0,,,,,0.0,0.0,,,,,,,2.0,,,7.0,,,,,,,,,69.0,27.0,1012.0,1012.0,14.0,1.9,,1.9,23.4,,,39.3,0.0,0.0,25.6,7.6,5.9,,,,,38.0,501.0,40.0,492.0,38.0,523.0,40.0,501.0,,,7.0,0.0,,23.4,17.0,0.002,,,0.654,0.723,68.8,26.7,,,,,,2026-03-21-N890GF-SN35347-17.4.0.23677-USER_LOG_DATA.csv,,,,,,,87.8,80.6,,,,,100.4,933.8,104.0,917.6,100.4,973.4,104.0,933.8,,,80.06,1012.0,102.19999999999999,1.164009111617312,0.9179954441913439,0.021236111111111112,0.3373333333333333,392.0,True,2026-03-21 23:01:08 - Flight 11,
97.06,1.0,10.0,2026-03-21 23:02:40,37.08159,-121.59957,373.0,0.0,44.3,-12.6,,,,,0.0,10.7,-1.1,9.5,0.0,225.0,-0.0,-0.01,1.0,99.0,-25.0,31.0,0.0,30.01,2215.0,,,153.0,,,,,0.0,0.0,,,,,,,2.0,,,7.0,,,,,,,,,71.0,27.0,1028.0,1028.0,13.3,2.0,,2.0,23.6,,,39.3,0.0,0.0,22.1,7.6,5.9,,,,,39.0,505.0,40.0,497.0,39.0,530.0,40.0,511.0,,,7.0,0.0,,23.6,17.0,0.002,,,0.654,0.72,70.5,26.6,,,,,,2026-03-21-N890GF-SN35347-17.4.0.23677-USER_LOG_DATA.csv,,,,,,,87.8,80.6,,,,,102.2,941.0,104.0,926.6,102.2,986.0,104.0,951.8,,,79.88,1028.0,103.1,1.174259681093394,0.9179954441913439,0.021777777777777778,0.3373333333333333,392.0,True,2026-03-21 23:01:08 - Flight 11,
98.06,1.0,10.0,2026-03-21 23:02:41,37.08158,-121.59957,373.0,0.0,44.3,-12.6,,,,,0.0,10.7,-1.2,9.5,0.0,225.0,-0.0,-0.02,1.0,99.0,-9.0,31.0,0.0,30.01,2215.0,,,153.0,,,,,0.0,0.0,,,,,,,2.0,,,7.0,,,,,,,,,71.0,27.0,1037.0,1037.0,13.3,2.0,,2.0,23.8,,,39.3,0.0,0.0,19.4,7.6,5.9,,,,,39.0,509.0,40.0,502.0,39.0,529.0,40.0,516.0,,,7.0,0.0,,23.8,17.0,0.002,,,0.656,0.721,71.0,26.6,,,,,,2026-03-21-N890GF-SN35347-17.4.0.23677-USER_LOG_DATA.csv,,,,,,,87.8,80.6,,,,,102.2,948.2,104.0,935.6,102.2,984.2,104.0,960.8,,,79.88,1037.0,103.1,1.174259681093394,0.9179954441913439,0.022333333333333334,0.3373333333333333,392.0,True,2026-03-21 23:01:08 - Flight 11,
99.06,1.0,10.0,2026-03-21 23:02:42,37.08159,-121.59956,374.0,0.0,44.3,-12.6,,,,,0.0,10.7,-1.1,9.5,0.0,225.0,-0.0,-0.02,1.0,99.0,-15.0,31.0,0.0,30.01,2215.0,,,153.0,,,,,0.0,0.0,,,,,,,2.0,,,7.0,,,,,,,,,71.0,27.0,1024.0,1024.0,13.1,2.1,,2.1,24.0,,,39.3,0.0,0.0,17.2,7.6,5.9,,,,,40.0,512.0,41.0,507.0,40.0,532.0,41.0,525.0,,,7.0,0.0,,24.0,17.0,0.002,,,0.654,0.724,71.1,26.6,,,,,,2026-03-21-N890GF-SN35347-17.4.0.23677-USER_LOG_DATA.csv,,,,,,,87.8,80.6,,,,,104.0,953.6,105.8,944.6,104.0,989.6,105.8,977.0,,,79.88,1024.0,104.9,1.1947608200455582,0.9179954441913439,0.02290277777777778,0.3373333333333333,392.0,True,2026-03-21 23:01:08 - Flight 11,
