Session Time,GPS Fix Quality,Number of Satellites,GPS Date & Time,Latitude (deg),Longitude (deg),GPS Altitude (feet),Ground Speed (knots),Ground Track (deg),Mag Var (deg),Cross Track Error (NM),Destination Waypoint ID,Range to Destination (NM),Bearing to Destination (deg),System Time,Pitch (deg),Roll (deg),Magnetic Heading (deg),Indicated Airspeed (knots),Pressure Altitude (ft),Turn Rate (deg/s),Lateral Accel (g),Vertical Accel(g),Angle of Attack (%),Vertical Speed (ft/min),OAT (deg C),True Airspeed (knots),Barometer Setting (inHg),Density Altitude (ft),Wind Direction (deg),Wind Speed (knots),Heading Bug (deg),Altitude Bug (ft),Airspeed Bug (knots),Vertical Speed Bug (ft/min),Course (deg),CDI Source Type,CDI Source Port,CDI Scale (NM),CDI Deflection (%),Glideslope (%),AP Engaged,AP Roll Mode,AP Roll Force,AP Roll Position (steps),AP Roll Slip (bool),AP Pitch Force,AP Pitch Position (steps),AP Pitch Slip (bool),AP Yaw Force,AP Yaw Position,AP Yaw Slip (bool),Transponder Status,Transponder Reply (bool),Transponder Identing (bool),Transponder Code (octal),Oil Pressure (PSI),Oil Temp (deg C),RPM L,RPM R,Manifold Pressure (inHg),Fuel Flow 1 (gal/hr),Fuel Flow 2 (gal/hr),Total Fuel Flow (gal/hr),Fuel Pressure (PSI),Fuel Level L (gal),Fuel Level R (gal),Fuel Remaining (gal),Volts 1,Volts 2,Amps,Hobbs Time,Tach Time,Thermocouple 1 (deg C),Thermocouple 2 (deg C),Thermocouple 3 (deg C),Thermocouple 4 (deg C),CHT 4 (deg C),EGT 4 (deg C),CHT 3 (deg C),EGT 3 (deg C),CHT 2 (deg C),EGT 2 (deg C),CHT 1 (deg C),EGT 1 (deg C),Thermocouple 13 (deg C),Thermocouple 14 (deg C),ELEV POSITION (%),CO PPM PRESSURE (PSI),GP Input 3,FUEL PRESSURE (PSI),AILERN POSITION (%),CANOPY CONTACT (V),GP Input 7,GP Input 8,LEFT LEVEL (Sensor V),RIGHT LEVEL (Sensor V),OIL PRESSURE (PSI),OIL TEMPERATURE (deg C),GP Input 13,Contacts,Percent Power,EGT Leaning State,Unnamed: 103,OAT (deg F),Oil Temp (deg F),Thermocouple 1 (deg F),Thermocouple 2 (deg F),Thermocouple 3 (deg F),Thermocouple 4 (deg F),CHT 4 (deg F),EGT 4 (deg F),CHT 3 (deg F),EGT 3 (deg F),CHT 2 (deg F),EGT 2 (deg F),CHT 1 (deg F),EGT 1 (deg F),Thermocouple 13 (deg F),Thermocouple 14 (deg F),OIL TEMPERATURE (deg F),RPM,AVG_CHT,CHT_Delta_T,OIL_Delta_T,Fuel Flow Integral,Distance Traveled,MPG,Max CHT,Engine Run,Flight ID
8.06,1,8,2026-05-01 22:48:46,37.08171,-121.59971,396.0,0.1,206.1,-12.6,0.0,,0.0,0.0,0.0,10.6,-1.0,20.1,0.0,304.0,0.1,-0.02,1.0,99.0,-148.0,32.0,0.0,29.99,2341.0,0.0,0.0,144.0,0.0,0.0,0.0,0.0,0.0,0.0,0.0,0.0,0.0,0.0,0.0,0.0,0.0,0.0,0.0,0.0,0.0,0.0,0.0,0.0,0.0,0.0,0.0,0.0,0.0,24.0,0.0,0.0,29.9,0.0,0.0,0.0,0.1,0.0,0.0,20.1,0.0,0.0,-0.1,13.3,10.9,0.0,0.0,0.0,0.0,25.0,27.0,25.0,27.0,25.0,27.0,26.0,27.0,0.0,0.0,15.0,254.1,0.0,0.1,3.0,4.998,0.0,0.0,1.472,0.835,0.0,23.7,0.0,0.0,0.0,,0.0,89.6,75.2,0.0,0.0,0.0,0.0,77.0,80.6,77.0,80.6,77.0,80.6,78.8,80.6,0.0,0.0,74.66,0.0,77.45,-12.149999999999991,-14.939999999999998,0.0,0.0,0.0,399.2,True,2026-05-01 22:48:46
9.06,1,9,2026-05-01 22:48:47,37.08171,-121.59965,342.0,0.0,206.1,-12.6,0.0,,0.0,0.0,0.0,10.7,-1.0,20.1,0.0,303.0,0.1,-0.02,1.0,99.0,-152.0,32.0,0.0,29.99,2342.0,0.0,0.0,144.0,0.0,0.0,0.0,0.0,0.0,0.0,0.0,0.0,0.0,0.0,0.0,0.0,0.0,0.0,0.0,0.0,0.0,0.0,0.0,0.0,0.0,0.0,0.0,0.0,0.0,24.0,0.0,0.0,29.9,0.0,0.0,0.0,0.1,0.0,0.0,20.1,0.0,0.0,-0.1,13.3,10.9,0.0,0.0,0.0,0.0,25.0,27.0,25.0,27.0,25.0,27.0,26.0,27.0,0.0,0.0,15.0,254.1,0.0,0.1,3.0,4.998,0.0,0.0,1.472,0.835,0.0,23.7,0.0,0.0,0.0,,0.0,89.6,75.2,0.0,0.0,0.0,0.0,77.0,80.6,77.0,80.6,77.0,80.6,78.8,80.6,0.0,0.0,74.66,0.0,77.45,-12.149999999999991,-14.939999999999998,0.0,0.08433333333333333,0.0,399.2,True,2026-05-01 22:48:46
10.06,1,10,2026-05-01 22:48:48,37.08172,-121.59965,341.0,0.0,206.1,-12.6,0.0,,0.0,0.0,0.0,10.6,-1.0,20.1,0.0,301.0,0.1,-0.02,1.0,99.0,-120.0,32.0,0.0,29.99,2342.0,0.0,0.0,144.0,0.0,0.0,0.0,0.0,0.0,0.0,0.0,0.0,0.0,0.0,0.0,0.0,0.0,0.0,0.0,0.0,0.0,0.0,0.0,0.0,0.0,0.0,0.0,0.0,0.0,24.0,0.0,0.0,29.9,0.0,0.0,0.0,0.1,0.0,0.0,20.1,0.0,0.0,-0.1,13.3,10.9,0.0,0.0,0.0,0.0,25.0,27.0,25.0,27.0,26.0,27.0,26.0,27.0,0.0,0.0,15.0,254.1,0.0,0.1,3.0,4.998,0.0,0.0,1.472,0.836,0.0,23.6,0.0,0.0,0.0,,0.0,89.6,75.2,0.0,0.0,0.0,0.0,77.0,80.6,77.0,80.6,78.8,80.6,78.8,80.6,0.0,0.0,74.48,0.0,77.9,-11.699999999999989,-15.11999999999999,0.0,0.08433333333333333,0.0,399.2,True,2026-05-01 22:48:46
11.06,1,10,2026-05-01 22:48:49,37.08172,-121.59965,340.0,0.0,206.1,-12.6,0.0,,0.0,0.0,0.0,10.6,-0.9,20.2,0.0,299.0,0.1,-0.01,1.0,99.0,-98.0,32.0,0.0,29.99,2342.0,0.0,0.0,144.0,0.0,0.0,0.0,0.0,0.0,0.0,0.0,0.0,0.0,0.0,0.0,0.0,0.0,0.0,0.0,0.0,0.0,0.0,0.0,0.0,0.0,0.0,0.0,0.0,0.0,24.0,0.0,0.0,29.9,0.0,0.0,0.0,0.1,0.0,0.0,20.1,0.0,0.0,-0.1,13.3,10.9,0.0,0.0,0.0,0.0,25.0,27.0,25.0,27.0,26.0,27.0,26.0,27.0,0.0,0.0,15.0,254.1,0.0,0.1,3.0,4.998,0.0,0.0,1.472,0.835,0.0,23.6,0.0,0.0,0.0,,0.0,89.6,75.2,0.0,0.0,0.0,0.0,77.0,80.6,77.0,80.6,78.8,80.6,78.8,80.6,0.0,0.0,74.48,0.0,77.9,-11.699999999999989,-15.11999999999999,0.0,0.08433333333333333,0.0,399.2,True,2026-05-01 22:48:46
12.06,1,10,2026-05-01 22:48:50,37.08172,-121.59965,340.0,0.0,206.1,-12.6,0.0,,0.0,0.0,0.0,10.7,-0.9,20.2,0.0,299.0,0.1,-0.02,1.0,99.0,-80.0,32.0,0.0,29.99,2337.0,0.0,0.0,144.0,0.0,0.0,0.0,0.0,0.0,0.0,0.0,0.0,0.0,0.0,0.0,0.0,0.0,0.0,0.0,0.0,0.0,0.0,0.0,0.0,0.0,0.0,0.0,0.0,0.0,24.0,0.0,0.0,30.0,0.0,0.0,0.0,0.1,0.0,0.0,20.1,0.0,0.0,-0.1,13.3,10.9,0.0,0.0,0.0,0.0,25.0,27.0,25.0,27.0,26.0,27.0,26.0,27.0,0.0,0.0,15.0,254.1,0.0,0.1,3.0,4.998,0.0,0.0,1.472,0.835,0.0,23.6,0.0,0.0,0.0,,0.0,89.6,75.2,0.0,0.0,0.0,0.0,77.0,80.6,77.0,80.6,78.8,80.6,78.8,80.6,0.0,0.0,74.48,0.0,77.9,-11.699999999999989,-15.11999999999999,0.0,0.08433333333333333,0.0,399.2,True,2026-05-01 22:48:46
13.06,1,10,2026-05-01 22:48:51,37.08172,-121.59965,339.0,0.0,206.1,-12.6,0.0,,0.0,0.0,0.0,10.7,-0.9,20.1,0.0,298.0,0.1,-0.02,1.0,99.0,-85.0,32.0,0.0,29.99,2338.0,0.0,0.0,144.0,0.0,0.0,0.0,0.0,0.0,0.0,0.0,0.0,0.0,0.0,0.0,0.0,0.0,0.0,0.0,0.0,0.0,0.0,0.0,0.0,0.0,0.0,0.0,0.0,0.0,24.0,0.0,0.0,30.0,0.0,0.0,0.0,0.1,0.0,0.0,20.1,0.0,0.0,-0.1,13.3,10.9,0.0,0.0,0.0,0.0,25.0,27.0,25.0,27.0,26.0,27.0,26.0,27.0,0.0,0.0,15.0,254.1,0.0,0.1,3.0,4.998,0.0,0.0,1.472,0.835,0.0,23.6,0.0,0.0,0.0,,0.0,89.6,75.2,0.0,0.0,0.0,0.0,77.0,80.6,77.0,80.6,78.8,80.6,78.8,80.6,0.0,0.0,74.48,0.0,77.9,-11.699999999999989,-15.11999999999999,0.0,0.08433333333333333,0.0,399.2,True,2026-05-01 22:48:46
14.06,1,10,2026-05-01 22:48:52,37.08172,-121.59965,338.0,0.0,206.1,-12.6,0.0,,0.0,0.0,0.0,10.7,-1.0,20.1,0.0,297.0,0.1,-0.02,1.0,99.0,-48.0,32.0,0.0,29.99,2338.0,0.0,0.0,144.0,0.0,0.0,0.0,0.0,0.0,0.0,0.0,0.0,0.0,0.0,0.0,0.0,0.0,0.0,0.0,0.0,0.0,0.0,0.0,0.0,0.0,0.0,0.0,0.0,0.0,24.0,0.0,0.0,29.9,0.0,0.0,0.0,0.1,0.0,0.0,20.1,0.0,0.0,-0.1,13.3,10.9,0.0,0.0,0.0,0.0,25.0,27.0,25.0,27.0,26.0,27.0,26.0,27.0,0.0,0.0,15.0,254.1,0.0,0.1,3.0,4.998,0.0,0.0,1.472,0.836,0.0,23.6,0.0,0.0,0.0,,0.0,89.6,75.2,0.0,0.0,0.0,0.0,77.0,80.6,77.0,80.6,78.8,80.6,78.8,80.6,0.0,0.0,74.48,0.0,77.9,-11.699999999999989,-15.11999999999999,0.0,0.08433333333333333,0.0,399.2,True,2026-05-01 22:48:46
15.06,1,10,2026-05-01 22:48:53,37.08172,-121.59964,338.0,0.0,206.1,-12.6,0.0,,0.0,0.0,0.0,10.7,-1.0,20.1,0.0,297.0,0.1,-0.02,1.0,99.0,-58.0,32.0,0.0,29.99,2338.0,0.0,0.0,144.0,0.0,0.0,0.0,0.0,0.0,0.0,0.0,0.0,0.0,0.0,0.0,0.0,0.0,0.0,0.0,0.0,0.0,0.0,0.0,0.0,0.0,0.0,0.0,0.0,0.0,24.0,0.0,0.0,29.9,0.0,0.0,0.0,0.1,0.0,0.0,20.1,0.0,0.0,-0.1,13.3,10.9,0.0,0.0,0.0,0.0,25.0,27.0,25.0,27.0,26.0,27.0,26.0,27.0,0.0,0.0,15.0,254.1,0.0,0.1,3.0,4.998,0.0,0.0,1.472,0.836,0.0,23.6,0.0,0.0,0.0,,0.0,89.6,75.2,0.0,0.0,0.0,0.0,77.0,80.6,77.0,80.6,78.8,80.6,78.8,80.6,0.0,0.0,74.48,0.0,77.9,-11.699999999999989,-15.11999999999999,0.0,0.08433333333333333,0.0,399.2,True,2026-05-01 22:48:46
16.06,1,10,2026-05-01 22:48:54,37.08172,-121.59964,337.0,0.0,206.1,-12.6,0.0,,0.0,0.0,0.0,10.7,-0.9,20.1,0.0,294.0,0.1,-0.02,1.0,99.0,-81.0,32.0,0.0,29.99,2344.0,0.0,0.0,144.0,0.0,0.0,0.0,0.0,0.0,0.0,0.0,0.0,0.0,0.0,0.0,0.0,0.0,0.0,0.0,0.0,0.0,0.0,0.0,0.0,0.0,0.0,0.0,0.0,0.0,24.0,0.0,0.0,30.0,0.0,0.0,0.0,0.0,0.0,0.0,20.1,0.0,0.0,-0.1,13.3,10.9,0.0,0.0,0.0,0.0,25.0,27.0,25.0,27.0,26.0,27.0,26.0,27.0,0.0,0.0,15.0,254.1,0.0,0.0,3.0,4.998,0.0,0.0,1.472,0.835,0.0,23.6,0.0,0.0,0.0,,0.0,89.6,75.2,0.0,0.0,0.0,0.0,77.0,80.6,77.0,80.6,78.8,80.6,78.8,80.6,0.0,0.0,74.48,0.0,77.9,-11.699999999999989,-15.11999999999999,0.0,0.08433333333333333,0.0,399.2,True,2026-05-01 22:48:46
17.06,1,10,2026-05-01 22:48:55,37.08172,-121.59964,337.0,0.0,206.1,-12.6,0.0,,0.0,0.0,0.0,10.7,-1.0,20.0,0.0,293.0,0.1,-0.02,1.0,99.0,-90.0,32.0,0.0,29.99,2344.0,0.0,0.0,144.0,0.0,0.0,0.0,0.0,0.0,0.0,0.0,0.0,0.0,0.0,0.0,0.0,0.0,0.0,0.0,0.0,0.0,0.0,0.0,0.0,0.0,0.0,0.0,0.0,0.0,24.0,0.0,0.0,30.0,0.0,0.0,0.0,0.0,0.0,0.0,20.1,0.0,0.0,-0.1,13.3,10.9,0.0,0.0,0.0,0.0,25.0,27.0,25.0,27.0,26.0,27.0,26.0,27.0,0.0,0.0,15.0,254.1,0.0,0.0,3.0,4.998,0.0,0.0,1.472,0.835,0.0,23.6,0.0,0.0,0.0,,0.0,89.6,75.2,0.0,0.0,0.0,0.0,77.0,80.6,77.0,80.6,78.8,80.6,78.8,80.6,0.0,0.0,74.48,0.0,77.9,-11.699999999999989,-15.11999999999999,0.0,0.08433333333333333,0.0,399.2,True,2026-05-01 22:48:46
18.06,1,10,2026-05-01 22:48:56,37.08172,-121.59964,337.0,0.0,206.1,-12.6,0.0,,0.0,0.0,0.0,10.7,-1.0,20.0,0.0,292.0,0.0,-0.02,1.0,99.0,-71.0,32.0,0.0,29.99,2344.0,0.0,0.0,144.0,0.0,0.0,0.0,0.0,0.0,0.0,0.0,0.0,0.0,0.0,0.0,0.0,0.0,0.0,0.0,0.0,0.0,0.0,0.0,0.0,0.0,0.0,0.0,0.0,0.0,24.0,0.0,0.0,30.0,0.0,0.0,0.0,0.0,0.0,0.0,20.1,0.0,0.0,-0.1,13.3,10.9,0.0,0.0,0.0,0.0,25.0,27.0,25.0,27.0,26.0,27.0,26.0,27.0,0.0,0.0,15.0,254.1,0.0,0.0,3.0,4.998,0.0,0.0,1.472,0.834,0.0,23.6,0.0,0.0,0.0,,0.0,89.6,75.2,0.0,0.0,0.0,0.0,77.0,80.6,77.0,80.6,78.8,80.6,78.8,80.6,0.0,0.0,74.48,0.0,77.9,-11.699999999999989,-15.11999999999999,0.0,0.08433333333333333,0.0,399.2,True,2026-05-01 22:48:46
19.06,1,10,2026-05-01 22:48:57,37.08172,-121.59964,336.0,0.0,206.1,-12.6,0.0,,0.0,0.0,0.0,10.6,-1.0,20.0,0.0,292.0,0.1,-0.01,1.0,99.0,-39.0,32.0,0.0,29.99,2339.0,0.0,0.0,144.0,0.0,0.0,0.0,0.0,0.0,0.0,0.0,0.0,0.0,0.0,0.0,0.0,0.0,0.0,0.0,0.0,0.0,0.0,0.0,0.0,0.0,0.0,0.0,0.0,0.0,24.0,0.0,0.0,29.9,0.0,0.0,0.0,0.0,0.0,0.0,20.1,0.0,0.0,-0.1,13.3,10.9,0.0,0.0,0.0,0.0,25.0,27.0,25.0,27.0,26.0,27.0,26.0,27.0,0.0,0.0,15.0,254.1,0.0,0.0,3.0,4.998,0.0,0.0,1.472,0.835,0.0,23.6,0.0,0.0,0.0,,0.0,89.6,75.2,0.0,0.0,0.0,0.0,77.0,80.6,77.0,80.6,78.8,80.6,78.8,80.6,0.0,0.0,74.48,0.0,77.9,-11.699999999999989,-15.11999999999999,0.0,0.08433333333333333,0.0,399.2,True,2026-05-01 22:48:46
20.06,1,10,2026-05-01 22:48:58,37.08172,-121.59964,335.0,0.0,206.1,-12.6,0.0,,0.0,0.0,0.0,10.7,-1.0,20.0,0.0,292.0,0.1,-0.02,1.0,99.0,-24.0,32.0,0.0,29.99,2341.0,0.0,0.0,144.0,0.0,0.0,0.0,0.0,0.0,0.0,0.0,0.0,0.0,0.0,0.0,0.0,0.0,0.0,0.0,0.0,0.0,0.0,0.0,0.0,0.0,0.0,0.0,0.0,0.0,24.0,0.0,0.0,30.0,0.0,0.0,0.0,0.0,0.0,0.0,20.1,0.0,0.0,-0.1,13.3,10.9,0.0,0.0,0.0,0.0,25.0,27.0,25.0,27.0,26.0,27.0,26.0,27.0,0.0,0.0,15.0,254.1,0.0,0.0,3.0,4.998,0.0,0.0,1.472,0.834,0.0,23.6,0.0,0.0,0.0,,0.0,89.6,75.2,0.0,0.0,0.0,0.0,77.0,80.6,77.0,80.6,78.8,80.6,78.8,80.6,0.0,0.0,74.48,0.0,77.9,-11.699999999999989,-15.11999999999999,0.0,0.08433333333333333,0.0,399.2,True,2026-05-01 22:48:46
21.06,1,10,2026-05-01 22:48:59,37.08172,-121.59964,335.0,0.0,206.1,-12.6,0.0,,0.0,0.0,0.0,10.6,-0.9,20.0,0.0,292.0,0.1,-0.01,1.0,99.0,-25.0,32.0,0.0,29.99,2341.0,0.0,0.0,144.0,0.0,0.0,0.0,0.0,0.0,0.0,0.0,0.0,0.0,0.0,0.0,0.0,0.0,0.0,0.0,0.0,0.0,0.0,0.0,0.0,0.0,0.0,0.0,0.0,0.0,24.0,0.0,0.0,30.0,0.0,0.0,0.0,0.0,0.0,0.0,20.1,0.0,0.0,-0.1,13.3,10.9,0.0,0.0,0.0,0.0,25.0,27.0,25.0,27.0,26.0,27.0,26.0,27.0,0.0,0.0,15.0,254.2,0.0,0.0,3.0,4.998,0.0,0.0,1.472,0.834,0.0,23.6,0.0,0.0,0.0,,0.0,89.6,75.2,0.0,0.0,0.0,0.0,77.0,80.6,77.0,80.6,78.8,80.6,78.8,80.6,0.0,0.0,74.48,0.0,77.9,-11.699999999999989,-15.11999999999999,0.0,0.08433333333333333,0.0,399.2,True,2026-05-01 22:48:46
22.06,1,10,2026-05-01 22:49:00,37.08172,-121.59964,334.0,0.0,206.1,-12.6,0.0,,0.0,0.0,0.0,10.6,-0.9,20.0,0.0,292.0,0.0,-0.02,1.0,99.0,-18.0,32.0,0.0,29.99,2341.0,0.0,0.0,144.0,0.0,0.0,0.0,0.0,0.0,0.0,0.0,0.0,0.0,0.0,0.0,0.0,0.0,0.0,0.0,0.0,0.0,0.0,0.0,0.0,0.0,0.0,0.0,0.0,0.0,24.0,0.0,0.0,30.0,0.0,0.0,0.0,0.0,0.0,0.0,20.1,0.0,0.0,-0.1,13.3,10.9,0.0,0.0,0.0,0.0,25.0,27.0,25.0,27.0,26.0,27.0,26.0,27.0,0.0,0.0,15.0,254.2,0.0,0.0,3.0,4.998,0.0,0.0,1.472,0.834,0.0,23.6,0.0,0.0,0.0,,0.0,89.6,75.2,0.0,0.0,0.0,0.0,77.0,80.6,77.0,80.6,78.8,80.6,78.8,80.6,0.0,0.0,74.48,0.0,77.9,-11.699999999999989,-15.11999999999999,0.0,0.08433333333333333,0.0,399.2,True,2026-05-01 22:48:46
23.06,1,10,2026-05-01 22:49:01,37.08171,-121.59964,334.0,0.0,206.1,-12.6,0.0,,0.0,0.0,0.0,10.7,-1.0,20.1,0.0,291.0,0.1,-0.02,1.0,99.0,-35.0,32.0,0.0,29.99,2350.0,0.0,0.0,144.0,0.0,0.0,0.0,0.0,0.0,0.0,0.0,0.0,0.0,0.0,0.0,0.0,0.0,0.0,0.0,0.0,0.0,0.0,0.0,0.0,0.0,0.0,0.0,0.0,0.0,24.0,0.0,0.0,30.0,0.0,0.0,0.0,0.0,0.0,0.0,20.1,0.0,0.0,-0.1,13.3,10.9,0.0,0.0,0.0,0.0,25.0,27.0,25.0,27.0,26.0,27.0,26.0,27.0,0.0,0.0,15.0,254.2,0.0,0.0,3.0,4.998,0.0,0.0,1.472,0.835,0.0,23.6,0.0,0.0,0.0,,0.0,89.6,75.2,0.0,0.0,0.0,0.0,77.0,80.6,77.0,80.6,78.8,80.6,78.8,80.6,0.0,0.0,74.48,0.0,77.9,-11.699999999999989,-15.11999999999999,0.0,0.08433333333333333,0.0,399.2,True,2026-05-01 22:48:46
24.06,1,10,2026-05-01 22:49:02,37.08171,-121.59964,333.0,0.0,206.1,-12.6,0.0,,0.0,0.0,0.0,10.7,-0.9,20.1,0.0,290.0,0.1,-0.02,1.0,99.0,-15.0,32.0,0.0,29.99,2350.0,0.0,0.0,144.0,0.0,0.0,0.0,0.0,0.0,0.0,0.0,0.0,0.0,0.0,0.0,0.0,0.0,0.0,0.0,0.0,0.0,0.0,0.0,0.0,0.0,0.0,0.0,0.0,0.0,24.0,0.0,0.0,30.0,0.0,0.0,0.0,0.0,0.0,0.0,20.1,0.0,0.0,-0.1,13.3,10.9,0.0,0.0,0.0,0.0,25.0,27.0,26.0,27.0,26.0,27.0,26.0,27.0,0.0,0.0,15.0,254.2,0.0,0.0,3.0,4.998,0.0,0.0,1.472,0.834,0.0,23.6,0.0,0.0,0.0,,0.0,89.6,75.2,0.0,0.0,0.0,0.0,77.0,80.6,78.8,80.6,78.8,80.6,78.8,80.6,0.0,0.0,74.48,0.0,78.35,-11.25,-15.11999999999999,0.0,0.08433333333333333,0.0,399.2,True,2026-05-01 22:48:46
25.06,1,10,2026-05-01 22:49:03,37.08171,-121.59964,332.0,0.0,206.1,-12.6,0.0,,0.0,0.0,0.0,10.7,-0.9,20.1,0.0,289.0,0.1,-0.01,1.0,99.0,-57.0,32.0,0.0,29.99,2350.0,0.0,0.0,144.0,0.0,0.0,0.0,0.0,0.0,0.0,0.0,0.0,0.0,0.0,0.0,0.0,0.0,0.0,0.0,0.0,0.0,0.0,0.0,0.0,0.0,0.0,0.0,0.0,0.0,24.0,0.0,0.0,29.9,0.0,0.0,0.0,0.0,0.0,0.0,20.1,0.0,0.0,-0.1,13.3,10.9,0.0,0.0,0.0,0.0,26.0,27.0,26.0,27.0,26.0,27.0,26.0,27.0,0.0,0.0,15.0,254.2,0.0,0.0,3.0,4.998,0.0,0.0,1.472,0.834,0.0,23.6,0.0,0.0,0.0,,0.0,89.6,75.2,0.0,0.0,0.0,0.0,78.8,80.6,78.8,80.6,78.8,80.6,78.8,80.6,0.0,0.0,74.48,0.0,78.8,-10.799999999999997,-15.11999999999999,0.0,0.08433333333333333,0.0,399.2,True,2026-05-01 22:48:46
26.06,1,10,2026-05-01 22:49:04,37.08171,-121.59964,331.0,0.0,206.1,-12.6,0.0,,0.0,0.0,0.0,10.7,-1.0,20.1,0.0,288.0,0.1,-0.02,1.0,99.0,-54.0,32.0,0.0,29.99,2346.0,0.0,0.0,144.0,0.0,0.0,0.0,0.0,0.0,0.0,0.0,0.0,0.0,0.0,0.0,0.0,0.0,0.0,0.0,0.0,0.0,0.0,0.0,0.0,0.0,0.0,0.0,0.0,0.0,24.0,0.0,0.0,30.0,0.0,0.0,0.0,0.0,0.0,0.0,20.1,0.0,0.0,-0.1,13.3,10.9,0.0,0.0,0.0,0.0,26.0,27.0,26.0,27.0,26.0,27.0,26.0,27.0,0.0,0.0,15.0,254.2,0.0,0.0,3.0,4.998,0.0,0.0,1.472,0.834,0.0,23.6,0.0,0.0,0.0,,0.0,89.6,75.2,0.0,0.0,0.0,0.0,78.8,80.6,78.8,80.6,78.8,80.6,78.8,80.6,0.0,0.0,74.48,0.0,78.8,-10.799999999999997,-15.11999999999999,0.0,0.08433333333333333,0.0,399.2,True,2026-05-01 22:48:46
27.06,1,10,2026-05-01 22:49:05,37.08171,-121.59964,331.0,0.0,206.1,-12.6,0.0,,0.0,0.0,0.0,10.7,-1.0,20.1,0.0,286.0,0.1,-0.02,1.0,99.0,-85.0,32.0,0.0,29.99,2346.0,0.0,0.0,144.0,0.0,0.0,0.0,0.0,0.0,0.0,0.0,0.0,0.0,0.0,0.0,0.0,0.0,0.0,0.0,0.0,0.0,0.0,0.0,0.0,0.0,0.0,0.0,0.0,0.0,24.0,0.0,0.0,30.0,0.0,0.0,0.0,0.0,0.0,0.0,20.1,0.0,0.0,-0.1,13.3,10.9,0.0,0.0,0.0,0.0,25.0,27.0,26.0,27.0,26.0,27.0,26.0,27.0,0.0,0.0,15.0,254.2,0.0,0.0,3.0,4.998,0.0,0.0,1.472,0.834,0.0,23.6,0.0,0.0,0.0,,0.0,89.6,75.2,0.0,0.0,0.0,0.0,77.0,80.6,78.8,80.6,78.8,80.6,78.8,80.6,0.0,0.0,74.48,0.0,78.35,-11.25,-15.11999999999999,0.0,0.08433333333333333,0.0,399.2,True,2026-05-01 22:48:46
28.06,1,10,2026-05-01 22:49:06,37.08171,-121.59964,330.0,0.1,206.1,-12.6,0.0,,0.0,0.0,0.0,10.7,-1.0,20.0,0.0,285.0,0.1,-0.02,1.0,99.0,-78.0,32.0,0.0,29.99,2346.0,0.0,0.0,144.0,0.0,0.0,0.0,0.0,0.0,0.0,0.0,0.0,0.0,0.0,0.0,0.0,0.0,0.0,0.0,0.0,0.0,0.0,0.0,0.0,0.0,0.0,0.0,0.0,0.0,24.0,0.0,0.0,29.9,0.0,0.0,0.0,0.0,0.0,0.0,20.1,0.0,0.0,-0.1,13.3,10.9,0.0,0.0,0.0,0.0,25.0,27.0,26.0,27.0,26.0,27.0,26.0,27.0,0.0,0.0,15.0,254.2,0.0,0.0,3.0,4.998,0.0,0.0,1.472,0.834,0.0,23.6,0.0,0.0,0.0,,0.0,89.6,75.2,0.0,0.0,0.0,0.0,77.0,80.6,78.8,80.6,78.8,80.6,78.8,80.6,0.0,0.0,74.48,0.0,78.35,-11.25,-15.11999999999999,0.0,0.16866666666666666,0.0,399.2,True,2026-05-01 22:48:46
29.06,1,10,2026-05-01 22:49:07,37.08171,-121.59964,329.0,0.0,206.1,-12.6,0.0,,0.0,0.0,0.0,10.7,-1.0,20.0,0.0,283.0,0.1,-0.02,1.0,99.0,-108.0,32.0,0.0,29.99,2351.0,0.0,0.0,144.0,0.0,0.0,0.0,0.0,0.0,0.0,0.0,0.0,0.0,0.0,0.0,0.0,0.0,0.0,0.0,0.0,0.0,0.0,0.0,0.0,0.0,0.0,0.0,0.0,0.0,24.0,0.0,0.0,30.0,0.0,0.0,0.0,0.0,0.0,0.0,20.1,0.0,0.0,-0.1,13.3,10.9,0.0,0.0,0.0,0.0,25.0,27.0,26.0,27.0,26.0,27.0,26.0,27.0,0.0,0.0,15.0,254.2,0.0,0.0,3.0,4.998,0.0,0.0,1.472,0.834,0.0,23.6,0.0,0.0,0.0,,0.0,89.6,75.2,0.0,0.0,0.0,0.0,77.0,80.6,78.8,80.6,78.8,80.6,78.8,80.6,0.0,0.0,74.48,0.0,78.35,-11.25,-15.11999999999999,0.0,0.253,0.0,399.2,True,2026-05-01 22:48:46
30.06,1,10,2026-05-01 22:49:08,37.08171,-121.59964,329.0,0.0,206.1,-12.6,0.0,,0.0,0.0,0.0,10.7,-1.0,19.9,0.0,282.0,0.1,-0.02,1.0,99.0,-81.0,32.0,0.0,29.99,2351.0,0.0,0.0,144.0,0.0,0.0,0.0,0.0,0.0,0.0,0.0,0.0,0.0,0.0,0.0,0.0,0.0,0.0,0.0,0.0,0.0,0.0,0.0,0.0,0.0,0.0,0.0,0.0,0.0,24.0,0.0,0.0,29.9,0.0,0.0,0.0,0.0,0.0,0.0,20.1,0.0,0.0,-0.1,13.3,10.9,0.0,0.0,0.0,0.0,25.0,27.0,26.0,27.0,26.0,27.0,26.0,27.0,0.0,0.0,15.0,254.2,0.0,0.0,3.0,4.998,0.0,0.0,1.472,0.834,0.0,23.6,0.0,0.0,0.0,,0.0,89.6,75.2,0.0,0.0,0.0,0.0,77.0,80.6,78.8,80.6,78.8,80.6,78.8,80.6,0.0,0.0,74.48,0.0,78.35,-11.25,-15.11999999999999,0.0,0.253,0.0,399.2,True,2026-05-01 22:48:46
31.06,1,10,2026-05-01 22:49:09,37.08171,-121.59964,328.0,0.0,206.1,-12.6,0.0,,0.0,0.0,0.0,10.7,-1.0,19.9,0.0,278.0,0.0,-0.02,1.0,99.0,-156.0,32.0,0.0,29.99,2351.0,0.0,0.0,144.0,0.0,0.0,0.0,0.0,0.0,0.0,0.0,0.0,0.0,0.0,0.0,0.0,0.0,0.0,0.0,0.0,0.0,0.0,0.0,0.0,0.0,0.0,0.0,0.0,0.0,24.0,0.0,0.0,29.9,0.0,0.0,0.0,0.0,0.0,0.0,20.1,0.0,0.0,-0.1,13.3,10.9,0.0,0.0,0.0,0.0,25.0,27.0,26.0,27.0,26.0,27.0,26.0,27.0,0.0,0.0,15.0,254.1,0.0,0.0,3.0,4.998,0.0,0.0,1.472,0.834,0.0,23.6,0.0,0.0,0.0,,0.0,89.6,75.2,0.0,0.0,0.0,0.0,77.0,80.6,78.8,80.6,78.8,80.6,78.8,80.6,0.0,0.0,74.48,0.0,78.35,-11.25,-15.11999999999999,0.0,0.253,0.0,399.2,True,2026-05-01 22:48:46
32.06,1,10,2026-05-01 22:49:10,37.08171,-121.59964,327.0,0.0,206.1,-12.6,0.0,,0.0,0.0,0.0,10.7,-1.0,19.9,0.0,276.0,0.1,-0.01,1.0,99.0,-101.0,32.0,0.0,29.99,2343.0,0.0,0.0,144.0,0.0,0.0,0.0,0.0,0.0,0.0,0.0,0.0,0.0,0.0,0.0,0.0,0.0,0.0,0.0,0.0,0.0,0.0,0.0,0.0,0.0,0.0,0.0,0.0,0.0,24.0,0.0,0.0,29.9,0.0,0.0,0.0,0.0,0.0,0.0,20.1,0.0,0.0,-0.1,13.3,10.9,0.0,0.0,0.0,0.0,25.0,27.0,25.0,27.0,26.0,27.0,26.0,27.0,0.0,0.0,15.0,254.1,0.0,0.0,3.0,4.998,0.0,0.0,1.472,0.834,0.0,23.6,0.0,0.0,0.0,,0.0,89.6,75.2,0.0,0.0,0.0,0.0,77.0,80.6,77.0,80.6,78.8,80.6,78.8,80.6,0.0,0.0,74.48,0.0,77.9,-11.699999999999989,-15.11999999999999,0.0,0.253,0.0,399.2,True,2026-05-01 22:48:46
33.06,1,10,2026-05-01 22:49:11,37.08171,-121.59964,327.0,0.0,206.1,-12.6,0.0,,0.0,0.0,0.0,10.7,-1.0,20.0,0.0,276.0,0.1,-0.02,1.0,99.0,-98.0,32.0,0.0,29.99,2343.0,0.0,0.0,144.0,0.0,0.0,0.0,0.0,0.0,0.0,0.0,0.0,0.0,0.0,0.0,0.0,0.0,0.0,0.0,0.0,0.0,0.0,0.0,0.0,0.0,0.0,0.0,0.0,0.0,24.0,0.0,0.0,29.9,0.0,0.0,0.0,0.0,0.0,0.0,20.1,0.0,0.0,-0.1,13.3,10.9,0.0,0.0,0.0,0.0,25.0,27.0,25.0,27.0,26.0,27.0,26.0,27.0,0.0,0.0,15.0,254.1,0.0,0.0,3.0,4.998,0.0,0.0,1.472,0.834,0.0,23.6,0.0,0.0,0.0,,0.0,89.6,75.2,0.0,0.0,0.0,0.0,77.0,80.6,77.0,80.6,78.8,80.6,78.8,80.6,0.0,0.0,74.48,0.0,77.9,-11.699999999999989,-15.11999999999999,0.0,0.253,0.0,399.2,True,2026-05-01 22:48:46
34.06,1,10,2026-05-01 22:49:12,37.08171,-121.59963,327.0,0.0,206.1,-12.6,0.0,,0.0,0.0,0.0,10.7,-1.0,19.9,0.0,275.0,0.1,-0.02,1.0,99.0,-81.0,32.0,0.0,29.99,2343.0,0.0,0.0,144.0,0.0,0.0,0.0,0.0,0.0,0.0,0.0,0.0,0.0,0.0,0.0,0.0,0.0,0.0,0.0,0.0,0.0,0.0,0.0,0.0,0.0,0.0,0.0,0.0,0.0,24.0,0.0,0.0,29.9,0.0,0.0,0.0,0.0,0.0,0.0,20.1,0.0,0.0,-0.1,13.3,10.9,0.0,0.0,0.0,0.0,25.0,27.0,25.0,27.0,26.0,27.0,26.0,27.0,0.0,0.0,15.0,254.1,0.0,0.0,3.0,4.998,0.0,0.0,1.472,0.834,0.0,23.6,0.0,0.0,0.0,,0.0,89.6,75.2,0.0,0.0,0.0,0.0,77.0,80.6,77.0,80.6,78.8,80.6,78.8,80.6,0.0,0.0,74.48,0.0,77.9,-11.699999999999989,-15.11999999999999,0.0,0.253,0.0,399.2,True,2026-05-01 22:48:46
35.06,1,10,2026-05-01 22:49:13,37.08171,-121.59963,326.0,0.0,206.1,-12.6,0.0,,0.0,0.0,0.0,10.7,-1.0,20.0,0.0,273.0,0.1,-0.02,1.0,99.0,-90.0,32.0,0.0,29.99,2340.0,0.0,0.0,144.0,0.0,0.0,0.0,0.0,0.0,0.0,0.0,0.0,0.0,0.0,0.0,0.0,0.0,0.0,0.0,0.0,0.0,0.0,0.0,0.0,0.0,0.0,0.0,0.0,0.0,24.0,0.0,0.0,30.0,0.0,0.0,0.0,0.0,0.0,0.0,20.1,0.0,0.0,-0.1,13.3,10.9,0.0,0.0,0.0,0.0,25.0,27.0,25.0,27.0,26.0,27.0,26.0,27.0,0.0,0.0,15.0,254.1,0.0,0.0,3.0,4.998,0.0,0.0,1.472,0.834,0.0,23.6,0.0,0.0,0.0,,0.0,89.6,75.2,0.0,0.0,0.0,0.0,77.0,80.6,77.0,80.6,78.8,80.6,78.8,80.6,0.0,0.0,74.48,0.0,77.9,-11.699999999999989,-15.11999999999999,0.0,0.253,0.0,399.2,True,2026-05-01 22:48:46
36.06,1,10,2026-05-01 22:49:14,37.08171,-121.59964,326.0,0.0,206.1,-12.6,0.0,,0.0,0.0,0.0,10.7,-1.0,19.9,0.0,272.0,0.1,-0.02,1.0,99.0,-58.0,32.0,0.0,29.99,2340.0,0.0,0.0,144.0,0.0,0.0,0.0,0.0,0.0,0.0,0.0,0.0,0.0,0.0,0.0,0.0,0.0,0.0,0.0,0.0,0.0,0.0,0.0,0.0,0.0,0.0,0.0,0.0,0.0,24.0,0.0,0.0,29.9,0.0,0.0,0.0,0.0,0.0,0.0,20.1,0.0,0.0,-0.1,13.3,10.9,0.0,0.0,0.0,0.0,25.0,27.0,25.0,27.0,26.0,27.0,26.0,27.0,0.0,0.0,15.0,254.1,0.0,0.0,3.0,4.998,0.0,0.0,1.472,0.834,0.0,23.6,0.0,0.0,0.0,,0.0,89.6,75.2,0.0,0.0,0.0,0.0,77.0,80.6,77.0,80.6,78.8,80.6,78.8,80.6,0.0,0.0,74.48,0.0,77.9,-11.699999999999989,-15.11999999999999,0.0,0.253,0.0,399.2,True,2026-05-01 22:48:46
37.06,1,10,2026-05-01 22:49:15,37.08171,-121.59963,325.0,0.0,206.1,-12.6,0.0,,0.0,0.0,0.0,10.7,-1.1,19.9,0.0,272.0,0.1,-0.02,1.0,99.0,-35.0,32.0,0.0,29.99,2340.0,0.0,0.0,144.0,0.0,0.0,0.0,0.0,0.0,0.0,0.0,0.0,0.0,0.0,0.0,0.0,0.0,0.0,0.0,0.0,0.0,0.0,0.0,0.0,0.0,0.0,0.0,0.0,0.0,24.0,0.0,0.0,29.9,0.0,0.0,0.0,0.0,0.0,0.0,20.1,0.0,0.0,-0.1,13.3,10.9,0.0,0.0,0.0,0.0,25.0,27.0,25.0,27.0,26.0,27.0,26.0,27.0,0.0,0.0,15.0,254.1,0.0,0.0,3.0,4.998,0.0,0.0,1.472,0.834,0.0,23.6,0.0,0.0,0.0,,0.0,89.6,75.2,0.0,0.0,0.0,0.0,77.0,80.6,77.0,80.6,78.8,80.6,78.8,80.6,0.0,0.0,74.48,0.0,77.9,-11.699999999999989,-15.11999999999999,0.0,0.253,0.0,399.2,True,2026-05-01 22:48:46
38.06,1,10,2026-05-01 22:49:16,37.08171,-121.59963,325.0,0.0,206.1,-12.6,0.0,,0.0,0.0,0.0,10.7,-1.1,19.8,0.0,272.0,0.0,-0.02,1.0,99.0,-57.0,32.0,0.0,29.99,2348.0,0.0,0.0,144.0,0.0,0.0,0.0,0.0,0.0,0.0,0.0,0.0,0.0,0.0,0.0,0.0,0.0,0.0,0.0,0.0,0.0,0.0,0.0,0.0,0.0,0.0,0.0,0.0,0.0,24.0,0.0,0.0,29.9,0.0,0.0,0.0,0.0,0.0,0.0,20.1,0.0,0.0,-0.1,13.3,10.9,0.0,0.0,0.0,0.0,25.0,27.0,25.0,27.0,26.0,27.0,26.0,27.0,0.0,0.0,15.0,254.1,0.0,0.0,3.0,4.998,0.0,0.0,1.472,0.834,0.0,23.6,0.0,0.0,0.0,,0.0,89.6,75.2,0.0,0.0,0.0,0.0,77.0,80.6,77.0,80.6,78.8,80.6,78.8,80.6,0.0,0.0,74.48,0.0,77.9,-11.699999999999989,-15.11999999999999,0.0,0.253,0.0,399.2,True,2026-05-01 22:48:46
39.06,1,10,2026-05-01 22:49:17,37.08171,-121.59963,325.0,0.0,206.1,-12.6,0.0,,0.0,0.0,0.0,10.7,-1.1,19.7,0.0,270.0,0.0,-0.02,1.0,99.0,-88.0,32.0,0.0,29.99,2348.0,0.0,0.0,144.0,0.0,0.0,0.0,0.0,0.0,0.0,0.0,0.0,0.0,0.0,0.0,0.0,0.0,0.0,0.0,0.0,0.0,0.0,0.0,0.0,0.0,0.0,0.0,0.0,0.0,24.0,0.0,0.0,29.9,0.0,0.0,0.0,0.0,0.0,0.0,20.1,0.0,0.0,-0.1,13.3,10.9,0.0,0.0,0.0,0.0,25.0,27.0,25.0,27.0,26.0,27.0,26.0,27.0,0.0,0.0,15.0,254.1,0.0,0.0,3.0,4.998,0.0,0.0,1.472,0.834,0.0,23.6,0.0,0.0,0.0,,0.0,89.6,75.2,0.0,0.0,0.0,0.0,77.0,80.6,77.0,80.6,78.8,80.6,78.8,80.6,0.0,0.0,74.48,0.0,77.9,-11.699999999999989,-15.11999999999999,0.0,0.253,0.0,399.2,True,2026-05-01 22:48:46
40.06,1,10,2026-05-01 22:49:18,37.08171,-121.59963,325.0,0.0,206.1,-12.6,0.0,,0.0,0.0,0.0,10.7,-1.1,19.8,0.0,269.0,0.0,-0.02,1.0,99.0,-66.0,32.0,0.0,29.99,2348.0,0.0,0.0,144.0,0.0,0.0,0.0,0.0,0.0,0.0,0.0,0.0,0.0,0.0,0.0,0.0,0.0,0.0,0.0,0.0,0.0,0.0,0.0,0.0,0.0,0.0,0.0,0.0,0.0,24.0,0.0,0.0,29.9,0.0,0.0,0.0,0.0,0.0,0.0,20.1,0.0,0.0,-0.1,13.3,10.9,0.0,0.0,0.0,0.0,25.0,27.0,25.0,27.0,26.0,27.0,26.0,27.0,0.0,0.0,15.0,254.1,0.0,0.0,3.0,4.998,0.0,0.0,1.472,0.834,0.0,23.6,0.0,0.0,0.0,,0.0,89.6,75.2,0.0,0.0,0.0,0.0,77.0,80.6,77.0,80.6,78.8,80.6,78.8,80.6,0.0,0.0,74.48,0.0,77.9,-11.699999999999989,-15.11999999999999,0.0,0.253,0.0,399.2,True,2026-05-01 22:48:46
41.06,1,10,2026-05-01 22:49:19,37.08171,-121.59963,325.0,0.0,206.1,-12.6,0.0,,0.0,0.0,0.0,10.7,-1.0,19.8,0.0,269.0,0.0,-0.02,1.0,99.0,-36.0,32.0,0.0,29.99,2344.0,0.0,0.0,144.0,0.0,0.0,0.0,0.0,0.0,0.0,0.0,0.0,0.0,0.0,0.0,0.0,0.0,0.0,0.0,0.0,0.0,0.0,0.0,0.0,0.0,0.0,0.0,0.0,0.0,24.0,0.0,0.0,29.9,0.0,0.0,0.0,0.0,0.0,0.0,20.1,0.0,0.0,-0.1,13.3,10.9,0.0,0.0,0.0,0.0,25.0,27.0,25.0,27.0,26.0,27.0,26.0,27.0,0.0,0.0,15.0,254.2,0.0,0.0,3.0,4.998,0.0,0.0,1.472,0.834,0.0,23.6,0.0,0.0,0.0,,0.0,89.6,75.2,0.0,0.0,0.0,0.0,77.0,80.6,77.0,80.6,78.8,80.6,78.8,80.6,0.0,0.0,74.48,0.0,77.9,-11.699999999999989,-15.11999999999999,0.0,0.253,0.0,399.2,True,2026-05-01 22:48:46
42.06,1,10,2026-05-01 22:49:20,37.08171,-121.59963,325.0,0.0,206.1,-12.6,0.0,,0.0,0.0,0.0,10.7,-1.1,19.8,0.0,268.0,0.1,-0.02,1.0,99.0,-46.0,32.0,0.0,29.99,2344.0,0.0,0.0,144.0,0.0,0.0,0.0,0.0,0.0,0.0,0.0,0.0,0.0,0.0,0.0,0.0,0.0,0.0,0.0,0.0,0.0,0.0,0.0,0.0,0.0,0.0,0.0,0.0,0.0,24.0,0.0,0.0,29.9,0.0,0.0,0.0,0.0,0.0,0.0,20.1,0.0,0.0,-0.1,13.3,10.9,0.0,0.0,0.0,0.0,25.0,27.0,25.0,27.0,26.0,27.0,26.0,27.0,0.0,0.0,16.0,226.4,0.0,0.0,3.0,4.998,0.0,0.0,1.472,0.834,0.0,23.6,0.0,0.0,0.0,,0.0,89.6,75.2,0.0,0.0,0.0,0.0,77.0,80.6,77.0,80.6,78.8,80.6,78.8,80.6,0.0,0.0,74.48,0.0,77.9,-11.699999999999989,-15.11999999999999,0.0,0.253,0.0,399.2,True,2026-05-01 22:48:46
43.06,1,10,2026-05-01 22:49:21,37.08171,-121.59962,325.0,0.0,206.1,-12.6,0.0,,0.0,0.0,0.0,10.7,-1.1,19.8,0.0,268.0,0.0,-0.02,1.0,99.0,-8.0,32.0,0.0,29.99,2344.0,0.0,0.0,144.0,0.0,0.0,0.0,0.0,0.0,0.0,0.0,0.0,0.0,0.0,0.0,0.0,0.0,0.0,0.0,0.0,0.0,0.0,0.0,0.0,0.0,0.0,0.0,0.0,0.0,24.0,0.0,0.0,29.9,0.0,0.0,0.0,0.0,0.0,0.0,20.1,0.0,0.0,-0.1,13.3,10.9,0.0,0.0,0.0,0.0,25.0,27.0,25.0,27.0,26.0,27.0,26.0,27.0,0.0,0.0,15.0,176.2,0.0,0.0,3.0,4.998,0.0,0.0,1.472,0.834,0.0,23.6,0.0,0.0,0.0,,0.0,89.6,75.2,0.0,0.0,0.0,0.0,77.0,80.6,77.0,80.6,78.8,80.6,78.8,80.6,0.0,0.0,74.48,0.0,77.9,-11.699999999999989,-15.11999999999999,0.0,0.253,0.0,399.2,True,2026-05-01 22:48:46
44.06,1,10,2026-05-01 22:49:22,37.08171,-121.59962,325.0,0.0,206.1,-12.6,0.0,,0.0,0.0,0.0,10.7,-1.1,19.8,0.0,268.0,0.1,-0.02,1.0,99.0,-13.0,32.0,0.0,29.99,2344.0,0.0,0.0,144.0,0.0,0.0,0.0,0.0,0.0,0.0,0.0,0.0,0.0,0.0,0.0,0.0,0.0,0.0,0.0,0.0,0.0,0.0,0.0,0.0,0.0,0.0,0.0,0.0,0.0,24.0,0.0,0.0,29.9,0.0,0.0,0.0,0.0,0.0,0.0,20.1,0.0,0.0,-0.1,13.3,10.9,0.0,0.0,0.0,0.0,25.0,27.0,25.0,27.0,26.0,27.0,26.0,27.0,0.0,0.0,16.0,137.2,0.0,0.0,3.0,4.998,0.0,0.0,1.472,0.834,0.0,23.6,0.0,0.0,0.0,,0.0,89.6,75.2,0.0,0.0,0.0,0.0,77.0,80.6,77.0,80.6,78.8,80.6,78.8,80.6,0.0,0.0,74.48,0.0,77.9,-11.699999999999989,-15.11999999999999,0.0,0.253,0.0,399.2,True,2026-05-01 22:48:46
45.06,1,10,2026-05-01 22:49:23,37.08171,-121.59962,325.0,0.0,206.1,-12.6,0.0,,0.0,0.0,0.0,10.7,-1.1,19.8,0.0,268.0,0.1,-0.02,1.0,99.0,-5.0,32.0,0.0,29.99,2344.0,0.0,0.0,144.0,0.0,0.0,0.0,0.0,0.0,0.0,0.0,0.0,0.0,0.0,0.0,0.0,0.0,0.0,0.0,0.0,0.0,0.0,0.0,0.0,0.0,0.0,0.0,0.0,0.0,24.0,0.0,0.0,29.9,0.0,0.0,0.0,0.0,0.0,0.0,20.1,0.0,0.0,-0.1,13.3,10.9,0.0,0.0,0.0,0.0,26.0,27.0,26.0,27.0,26.0,27.0,26.0,27.0,0.0,0.0,16.0,106.8,0.0,0.0,3.0,4.998,0.0,0.0,1.472,0.834,0.0,23.6,0.0,0.0,0.0,,0.0,89.6,75.2,0.0,0.0,0.0,0.0,78.8,80.6,78.8,80.6,78.8,80.6,78.8,80.6,0.0,0.0,74.48,0.0,78.8,-10.799999999999997,-15.11999999999999,0.0,0.253,0.0,399.2,True,2026-05-01 22:48:46
46.06,1,10,2026-05-01 22:49:24,37.08171,-121.59962,325.0,0.0,206.1,-12.6,0.0,,0.0,0.0,0.0,10.7,-1.2,19.8,0.0,268.0,0.1,-0.02,1.0,99.0,-23.0,32.0,0.0,29.99,2344.0,0.0,0.0,144.0,0.0,0.0,0.0,0.0,0.0,0.0,0.0,0.0,0.0,0.0,0.0,0.0,0.0,0.0,0.0,0.0,0.0,0.0,0.0,0.0,0.0,0.0,0.0,0.0,0.0,24.0,0.0,0.0,29.9,0.0,0.0,0.0,0.0,0.0,0.0,20.1,0.0,0.0,-0.1,13.3,10.9,0.0,0.0,0.0,0.0,26.0,27.0,26.0,27.0,26.0,27.0,26.0,27.0,0.0,0.0,16.0,83.3,0.0,0.0,3.0,4.998,0.0,0.0,1.472,0.834,0.0,23.6,0.0,0.0,0.0,,0.0,89.6,75.2,0.0,0.0,0.0,0.0,78.8,80.6,78.8,80.6,78.8,80.6,78.8,80.6,0.0,0.0,74.48,0.0,78.8,-10.799999999999997,-15.11999999999999,0.0,0.253,0.0,399.2,True,2026-05-01 22:48:46
47.06,1,10,2026-05-01 22:49:25,37.08171,-121.59962,325.0,0.0,206.1,-12.6,0.0,,0.0,0.0,0.0,10.7,-1.1,19.8,0.0,267.0,0.1,-0.02,1.0,99.0,-21.0,32.0,0.0,29.99,2354.0,0.0,0.0,144.0,0.0,0.0,0.0,0.0,0.0,0.0,0.0,0.0,0.0,0.0,0.0,0.0,0.0,0.0,0.0,0.0,0.0,0.0,0.0,0.0,0.0,0.0,0.0,0.0,0.0,24.0,0.0,0.0,29.9,0.0,0.0,0.0,0.0,0.0,0.0,20.1,0.0,0.0,-0.1,13.3,10.9,0.0,0.0,0.0,0.0,26.0,27.0,26.0,27.0,26.0,27.0,26.0,27.0,0.0,0.0,15.0,64.9,0.0,0.0,3.0,4.998,0.0,0.0,1.472,0.834,0.0,23.6,0.0,0.0,0.0,,0.0,89.6,75.2,0.0,0.0,0.0,0.0,78.8,80.6,78.8,80.6,78.8,80.6,78.8,80.6,0.0,0.0,74.48,0.0,78.8,-10.799999999999997,-15.11999999999999,0.0,0.253,0.0,399.2,True,2026-05-01 22:48:46
48.06,1,10,2026-05-01 22:49:26,37.08171,-121.59962,325.0,0.0,206.1,-12.6,0.0,,0.0,0.0,0.0,10.7,-1.1,19.7,0.0,267.0,0.1,-0.02,1.0,99.0,1.0,32.0,0.0,29.99,2354.0,0.0,0.0,144.0,0.0,0.0,0.0,0.0,0.0,0.0,0.0,0.0,0.0,0.0,0.0,0.0,0.0,0.0,0.0,0.0,0.0,0.0,0.0,0.0,0.0,0.0,0.0,0.0,0.0,24.0,0.0,0.0,29.9,0.0,0.0,0.0,0.0,0.0,0.0,20.1,0.0,0.0,-0.1,13.3,10.9,0.0,0.0,0.0,0.0,26.0,27.0,26.0,27.0,26.0,27.0,26.0,27.0,0.0,0.0,15.0,50.7,0.0,0.0,3.0,4.998,0.0,0.0,1.472,0.834,0.0,23.6,0.0,0.0,0.0,,0.0,89.6,75.2,0.0,0.0,0.0,0.0,78.8,80.6,78.8,80.6,78.8,80.6,78.8,80.6,0.0,0.0,74.48,0.0,78.8,-10.799999999999997,-15.11999999999999,0.0,0.253,0.0,399.2,True,2026-05-01 22:48:46
49.06,1,10,2026-05-01 22:49:27,37.08171,-121.59962,325.0,0.0,206.1,-12.6,0.0,,0.0,0.0,0.0,10.7,-1.1,19.8,0.0,267.0,0.1,-0.02,1.0,99.0,2.0,32.0,0.0,29.99,2354.0,0.0,0.0,144.0,0.0,0.0,0.0,0.0,0.0,0.0,0.0,0.0,0.0,0.0,0.0,0.0,0.0,0.0,0.0,0.0,0.0,0.0,0.0,0.0,0.0,0.0,0.0,0.0,0.0,24.0,0.0,0.0,29.9,0.0,0.0,0.0,0.0,0.0,0.0,20.1,0.0,0.0,-0.1,13.3,10.9,0.0,0.0,0.0,0.0,26.0,27.0,26.0,27.0,26.0,27.0,26.0,27.0,0.0,0.0,15.0,39.6,0.0,0.0,3.0,4.998,0.0,0.0,1.472,0.834,0.0,23.6,0.0,0.0,0.0,,0.0,89.6,75.2,0.0,0.0,0.0,0.0,78.8,80.6,78.8,80.6,78.8,80.6,78.8,80.6,0.0,0.0,74.48,0.0,78.8,-10.799999999999997,-15.11999999999999,0.0,0.253,0.0,399.2,True,2026-05-01 22:48:46
50.06,1,10,2026-05-01 22:49:28,37.0817,-121.59962,325.0,0.0,206.1,-12.6,0.0,,0.0,0.0,0.0,10.7,-1.1,19.8,0.0,267.0,0.0,-0.02,1.0,99.0,22.0,32.0,0.0,29.99,2353.0,0.0,0.0,144.0,0.0,0.0,0.0,0.0,0.0,0.0,0.0,0.0,0.0,0.0,0.0,0.0,0.0,0.0,0.0,0.0,0.0,0.0,0.0,0.0,0.0,0.0,0.0,0.0,0.0,24.0,0.0,0.0,29.9,0.0,0.0,0.0,0.0,0.0,0.0,20.1,0.0,0.0,-0.1,13.3,10.9,0.0,0.0,0.0,0.0,26.0,27.0,26.0,27.0,26.0,27.0,26.0,27.0,0.0,0.0,15.0,31.0,0.0,0.0,3.0,4.998,0.0,0.0,1.472,0.834,0.0,23.6,0.0,0.0,0.0,,0.0,89.6,75.2,0.0,0.0,0.0,0.0,78.8,80.6,78.8,80.6,78.8,80.6,78.8,80.6,0.0,0.0,74.48,0.0,78.8,-10.799999999999997,-15.11999999999999,0.0,0.253,0.0,399.2,True,2026-05-01 22:48:46
51.06,1,10,2026-05-01 22:49:29,37.0817,-121.59962,325.0,0.0,206.1,-12.6,0.0,,0.0,0.0,0.0,10.7,-1.0,19.8,0.0,267.0,0.1,-0.02,1.0,99.0,-5.0,32.0,0.0,29.99,2354.0,0.0,0.0,144.0,0.0,0.0,0.0,0.0,0.0,0.0,0.0,0.0,0.0,0.0,0.0,0.0,0.0,0.0,0.0,0.0,0.0,0.0,0.0,0.0,0.0,0.0,0.0,0.0,0.0,24.0,0.0,0.0,29.9,0.0,0.0,0.0,0.0,0.0,0.0,20.1,0.0,0.0,-0.1,13.3,10.9,0.0,0.0,0.0,0.0,26.0,27.0,26.0,27.0,26.0,27.0,26.0,27.0,0.0,0.0,15.0,24.3,0.0,0.0,3.0,4.998,0.0,0.0,1.472,0.834,0.0,23.6,0.0,0.0,0.0,,0.0,89.6,75.2,0.0,0.0,0.0,0.0,78.8,80.6,78.8,80.6,78.8,80.6,78.8,80.6,0.0,0.0,74.48,0.0,78.8,-10.799999999999997,-15.11999999999999,0.0,0.253,0.0,399.2,True,2026-05-01 22:48:46
52.06,1,10,2026-05-01 22:49:30,37.0817,-121.59962,326.0,0.0,206.1,-12.6,0.0,,0.0,0.0,0.0,10.7,-1.0,19.8,0.0,267.0,0.0,-0.02,1.0,99.0,-16.0,32.0,0.0,29.99,2354.0,0.0,0.0,144.0,0.0,0.0,0.0,0.0,0.0,0.0,0.0,0.0,0.0,0.0,0.0,0.0,0.0,0.0,0.0,0.0,0.0,0.0,0.0,0.0,0.0,0.0,0.0,0.0,0.0,24.0,0.0,0.0,29.9,0.0,0.0,0.0,0.0,0.0,0.0,20.1,0.0,0.0,-0.1,13.3,10.9,0.0,0.0,0.0,0.0,26.0,27.0,26.0,27.0,26.0,27.0,26.0,27.0,0.0,0.0,15.0,19.1,0.0,0.0,3.0,4.998,0.0,0.0,1.472,0.834,0.0,23.6,0.0,0.0,0.0,,0.0,89.6,75.2,0.0,0.0,0.0,0.0,78.8,80.6,78.8,80.6,78.8,80.6,78.8,80.6,0.0,0.0,74.48,0.0,78.8,-10.799999999999997,-15.11999999999999,0.0,0.253,0.0,399.2,True,2026-05-01 22:48:46
53.06,1,10,2026-05-01 22:49:31,37.0817,-121.59962,326.0,0.0,206.1,-12.6,0.0,,0.0,0.0,0.0,10.7,-1.0,19.8,0.0,267.0,0.1,-0.02,1.0,99.0,-26.0,32.0,0.0,29.99,2354.0,0.0,0.0,144.0,0.0,0.0,0.0,0.0,0.0,0.0,0.0,0.0,0.0,0.0,0.0,0.0,0.0,0.0,0.0,0.0,0.0,0.0,0.0,0.0,0.0,0.0,0.0,0.0,0.0,24.0,0.0,0.0,29.9,0.0,0.0,0.0,0.0,0.0,0.0,20.1,0.0,0.0,-0.1,13.3,10.9,0.0,0.0,0.0,0.0,26.0,27.0,26.0,27.0,26.0,27.0,26.0,27.0,0.0,0.0,15.0,15.1,0.0,0.0,3.0,4.998,0.0,0.0,1.472,0.834,0.0,23.6,0.0,0.0,0.0,,0.0,89.6,75.2,0.0,0.0,0.0,0.0,78.8,80.6,78.8,80.6,78.8,80.6,78.8,80.6,0.0,0.0,74.48,0.0,78.8,-10.799999999999997,-15.11999999999999,0.0,0.253,0.0,399.2,True,2026-05-01 22:48:46
54.06,1,10,2026-05-01 22:49:32,37.0817,-121.59962,326.0,0.0,206.1,-12.6,0.0,,0.0,0.0,0.0,10.7,-1.0,19.9,0.0,266.0,0.1,-0.02,1.0,99.0,-29.0,32.0,0.0,29.99,2353.0,0.0,0.0,144.0,0.0,0.0,0.0,0.0,0.0,0.0,0.0,0.0,0.0,0.0,0.0,0.0,0.0,0.0,0.0,0.0,0.0,0.0,0.0,0.0,0.0,0.0,0.0,0.0,0.0,24.0,0.0,0.0,29.9,0.0,0.0,0.0,0.0,0.0,0.0,20.1,0.0,0.0,-0.1,13.3,10.9,0.0,0.0,0.0,0.0,26.0,27.0,26.0,27.0,26.0,27.0,26.0,27.0,0.0,0.0,15.0,11.9,0.0,0.0,3.0,4.998,0.0,0.0,1.472,0.834,0.0,23.6,0.0,0.0,0.0,,0.0,89.6,75.2,0.0,0.0,0.0,0.0,78.8,80.6,78.8,80.6,78.8,80.6,78.8,80.6,0.0,0.0,74.48,0.0,78.8,-10.799999999999997,-15.11999999999999,0.0,0.253,0.0,399.2,True,2026-05-01 22:48:46
55.06,1,10,2026-05-01 22:49:33,37.0817,-121.59962,326.0,0.0,206.1,-12.6,0.0,,0.0,0.0,0.0,10.7,-1.0,19.9,0.0,265.0,0.1,-0.02,1.0,99.0,-36.0,32.0,0.0,29.99,2353.0,0.0,0.0,144.0,0.0,0.0,0.0,0.0,0.0,0.0,0.0,0.0,0.0,0.0,0.0,0.0,0.0,0.0,0.0,0.0,0.0,0.0,0.0,0.0,0.0,0.0,0.0,0.0,0.0,24.0,0.0,0.0,29.9,0.0,0.0,0.0,0.0,0.0,0.0,20.1,0.0,0.0,-0.1,13.3,10.9,0.0,0.0,0.0,0.0,26.0,27.0,26.0,27.0,26.0,27.0,26.0,27.0,0.0,0.0,16.0,9.5,0.0,0.0,3.0,4.998,0.0,0.0,1.472,0.834,0.0,23.6,0.0,0.0,0.0,,0.0,89.6,75.2,0.0,0.0,0.0,0.0,78.8,80.6,78.8,80.6,78.8,80.6,78.8,80.6,0.0,0.0,74.48,0.0,78.8,-10.799999999999997,-15.11999999999999,0.0,0.253,0.0,399.2,True,2026-05-01 22:48:46
56.06,1,10,2026-05-01 22:49:34,37.0817,-121.59962,326.0,0.0,206.1,-12.6,0.0,,0.0,0.0,0.0,10.7,-1.0,19.9,0.0,265.0,0.1,-0.02,1.0,99.0,-13.0,32.0,0.0,29.99,2353.0,0.0,0.0,144.0,0.0,0.0,0.0,0.0,0.0,0.0,0.0,0.0,0.0,0.0,0.0,0.0,0.0,0.0,0.0,0.0,0.0,0.0,0.0,0.0,0.0,0.0,0.0,0.0,0.0,24.0,0.0,0.0,29.9,0.0,0.0,0.0,0.0,0.0,0.0,20.1,0.0,0.0,-0.1,13.3,10.9,0.0,0.0,0.0,0.0,26.0,27.0,26.0,27.0,26.0,27.0,26.0,27.0,0.0,0.0,16.0,7.6,0.0,0.0,3.0,4.998,0.0,0.0,1.472,0.834,0.0,23.6,0.0,0.0,0.0,,0.0,89.6,75.2,0.0,0.0,0.0,0.0,78.8,80.6,78.8,80.6,78.8,80.6,78.8,80.6,0.0,0.0,74.48,0.0,78.8,-10.799999999999997,-15.11999999999999,0.0,0.253,0.0,399.2,True,2026-05-01 22:48:46
57.06,1,10,2026-05-01 22:49:35,37.0817,-121.59962,327.0,0.0,206.1,-12.6,0.0,,0.0,0.0,0.0,10.7,-1.0,19.9,0.0,264.0,0.0,-0.02,1.0,99.0,-20.0,32.0,0.0,29.99,2360.0,0.0,0.0,144.0,0.0,0.0,0.0,0.0,0.0,0.0,0.0,0.0,0.0,0.0,0.0,0.0,0.0,0.0,0.0,0.0,0.0,0.0,0.0,0.0,0.0,0.0,0.0,0.0,0.0,24.0,0.0,0.0,29.9,0.0,0.0,0.0,0.0,0.0,0.0,20.1,0.0,0.0,-0.1,13.3,10.9,0.0,0.0,0.0,0.0,26.0,27.0,26.0,27.0,26.0,27.0,26.0,27.0,0.0,0.0,16.0,6.1,0.0,0.0,3.0,4.998,0.0,0.0,1.472,0.834,0.0,23.6,0.0,0.0,0.0,,0.0,89.6,75.2,0.0,0.0,0.0,0.0,78.8,80.6,78.8,80.6,78.8,80.6,78.8,80.6,0.0,0.0,74.48,0.0,78.8,-10.799999999999997,-15.11999999999999,0.0,0.253,0.0,399.2,True,2026-05-01 22:48:46
58.06,1,10,2026-05-01 22:49:36,37.0817,-121.59962,327.0,0.0,206.1,-12.6,0.0,,0.0,0.0,0.0,10.7,-1.0,19.9,0.0,263.0,0.0,-0.02,1.0,99.0,-35.0,32.0,0.0,29.99,2360.0,0.0,0.0,144.0,0.0,0.0,0.0,0.0,0.0,0.0,0.0,0.0,0.0,0.0,0.0,0.0,0.0,0.0,0.0,0.0,0.0,0.0,0.0,0.0,0.0,0.0,0.0,0.0,0.0,24.0,0.0,0.0,29.9,0.0,0.0,0.0,0.0,0.0,0.0,20.1,0.0,0.0,-0.1,13.3,10.9,0.0,0.0,0.0,0.0,26.0,27.0,26.0,27.0,26.0,27.0,26.0,27.0,0.0,0.0,16.0,5.0,0.0,0.0,3.0,4.998,0.0,0.0,1.472,0.834,0.0,23.6,0.0,0.0,0.0,,0.0,89.6,75.2,0.0,0.0,0.0,0.0,78.8,80.6,78.8,80.6,78.8,80.6,78.8,80.6,0.0,0.0,74.48,0.0,78.8,-10.799999999999997,-15.11999999999999,0.0,0.253,0.0,399.2,True,2026-05-01 22:48:46
59.06,1,10,2026-05-01 22:49:37,37.0817,-121.59962,327.0,0.0,206.1,-12.6,0.0,,0.0,0.0,0.0,10.7,-1.0,19.9,0.0,262.0,0.1,-0.02,1.0,99.0,-56.0,32.0,0.0,29.99,2360.0,0.0,0.0,144.0,0.0,0.0,0.0,0.0,0.0,0.0,0.0,0.0,0.0,0.0,0.0,0.0,0.0,0.0,0.0,0.0,0.0,0.0,0.0,0.0,0.0,0.0,0.0,0.0,0.0,24.0,0.0,0.0,29.9,0.0,0.0,0.0,0.0,0.0,0.0,20.1,0.0,0.0,-0.1,13.3,10.9,0.0,0.0,0.0,0.0,26.0,27.0,26.0,27.0,26.0,27.0,26.0,27.0,0.0,0.0,16.0,4.1,0.0,0.0,3.0,4.998,0.0,0.0,1.472,0.834,0.0,23.6,0.0,0.0,0.0,,0.0,89.6,75.2,0.0,0.0,0.0,0.0,78.8,80.6,78.8,80.6,78.8,80.6,78.8,80.6,0.0,0.0,74.48,0.0,78.8,-10.799999999999997,-15.11999999999999,0.0,0.253,0.0,399.2,True,2026-05-01 22:48:46
60.06,1,10,2026-05-01 22:49:38,37.0817,-121.59962,327.0,0.0,206.1,-12.6,0.0,,0.0,0.0,0.0,10.7,-1.1,19.8,0.0,261.0,0.0,-0.02,1.0,99.0,-36.0,32.0,0.0,29.99,2357.0,0.0,0.0,144.0,0.0,0.0,0.0,0.0,0.0,0.0,0.0,0.0,0.0,0.0,0.0,0.0,0.0,0.0,0.0,0.0,0.0,0.0,0.0,0.0,0.0,0.0,0.0,0.0,0.0,24.0,0.0,0.0,29.9,0.0,0.0,0.0,0.0,0.0,0.0,20.1,0.0,0.0,-0.1,13.3,10.9,0.0,0.0,0.0,0.0,26.0,27.0,26.0,27.0,26.0,27.0,26.0,27.0,0.0,0.0,16.0,3.4,0.0,0.0,3.0,4.998,0.0,0.0,1.472,0.834,0.0,23.6,0.0,0.0,0.0,,0.0,89.6,75.2,0.0,0.0,0.0,0.0,78.8,80.6,78.8,80.6,78.8,80.6,78.8,80.6,0.0,0.0,74.48,0.0,78.8,-10.799999999999997,-15.11999999999999,0.0,0.253,0.0,399.2,True,2026-05-01 22:48:46
61.06,1,10,2026-05-01 22:49:39,37.0817,-121.59962,327.0,0.0,206.1,-12.6,0.0,,0.0,0.0,0.0,10.7,-1.1,19.8,0.0,261.0,0.0,-0.02,1.0,99.0,-27.0,32.0,0.0,29.99,2357.0,0.0,0.0,144.0,0.0,0.0,0.0,0.0,0.0,0.0,0.0,0.0,0.0,0.0,0.0,0.0,0.0,0.0,0.0,0.0,0.0,0.0,0.0,0.0,0.0,0.0,0.0,0.0,0.0,24.0,0.0,0.0,29.9,0.0,0.0,0.0,0.0,0.0,0.0,20.1,0.0,0.0,-0.1,13.3,10.9,0.0,0.0,0.0,0.0,26.0,27.0,26.0,27.0,26.0,27.0,26.0,27.0,0.0,0.0,16.0,2.9,0.0,0.0,3.0,4.998,0.0,0.0,1.472,0.834,0.0,23.6,0.0,0.0,0.0,,0.0,89.6,75.2,0.0,0.0,0.0,0.0,78.8,80.6,78.8,80.6,78.8,80.6,78.8,80.6,0.0,0.0,74.48,0.0,78.8,-10.799999999999997,-15.11999999999999,0.0,0.253,0.0,399.2,True,2026-05-01 22:48:46
62.06,1,10,2026-05-01 22:49:40,37.0817,-121.59962,327.0,0.0,206.1,-12.6,0.0,,0.0,0.0,0.0,10.7,-1.1,19.7,0.0,261.0,0.0,-0.02,1.0,99.0,-43.0,32.0,0.0,29.99,2357.0,0.0,0.0,144.0,0.0,0.0,0.0,0.0,0.0,0.0,0.0,0.0,0.0,0.0,0.0,0.0,0.0,0.0,0.0,0.0,0.0,0.0,0.0,0.0,0.0,0.0,0.0,0.0,0.0,24.0,0.0,0.0,29.9,0.0,0.0,0.0,0.0,0.0,0.0,20.1,0.0,0.0,-0.1,13.3,10.9,0.0,0.0,0.0,0.0,26.0,27.0,26.0,27.0,26.0,27.0,26.0,27.0,0.0,0.0,16.0,2.4,0.0,0.0,3.0,4.998,0.0,0.0,1.472,0.834,0.0,23.6,0.0,0.0,0.0,,0.0,89.6,75.2,0.0,0.0,0.0,0.0,78.8,80.6,78.8,80.6,78.8,80.6,78.8,80.6,0.0,0.0,74.48,0.0,78.8,-10.799999999999997,-15.11999999999999,0.0,0.253,0.0,399.2,True,2026-05-01 22:48:46
63.06,1,10,2026-05-01 22:49:41,37.0817,-121.59962,327.0,0.0,206.1,-12.6,0.0,,0.0,0.0,0.0,10.7,-1.1,19.7,0.0,260.0,0.0,-0.02,1.0,99.0,-36.0,32.0,0.0,29.99,2366.0,0.0,0.0,144.0,0.0,0.0,0.0,0.0,0.0,0.0,0.0,0.0,0.0,0.0,0.0,0.0,0.0,0.0,0.0,0.0,0.0,0.0,0.0,0.0,0.0,0.0,0.0,0.0,0.0,24.0,0.0,0.0,29.9,0.0,0.0,0.0,0.0,0.0,0.0,20.1,0.0,0.0,-0.1,13.3,10.9,0.0,0.0,0.0,0.0,26.0,27.0,26.0,27.0,26.0,27.0,26.0,27.0,0.0,0.0,16.0,2.1,0.0,0.0,3.0,4.998,0.0,0.0,1.472,0.834,0.0,23.6,0.0,0.0,0.0,,0.0,89.6,75.2,0.0,0.0,0.0,0.0,78.8,80.6,78.8,80.6,78.8,80.6,78.8,80.6,0.0,0.0,74.48,0.0,78.8,-10.799999999999997,-15.11999999999999,0.0,0.253,0.0,399.2,True,2026-05-01 22:48:46
64.06,1,10,2026-05-01 22:49:42,37.0817,-121.59962,327.0,0.0,206.1,-12.6,0.0,,0.0,0.0,0.0,10.7,-1.1,19.7,0.0,260.0,0.0,-0.02,1.0,99.0,-20.0,32.0,0.0,29.99,2366.0,0.0,0.0,144.0,0.0,0.0,0.0,0.0,0.0,0.0,0.0,0.0,0.0,0.0,0.0,0.0,0.0,0.0,0.0,0.0,0.0,0.0,0.0,0.0,0.0,0.0,0.0,0.0,0.0,24.0,0.0,0.0,29.9,0.0,0.0,0.0,0.0,0.0,0.0,20.1,0.0,0.0,-0.1,13.3,10.9,0.0,0.0,0.0,0.0,26.0,27.0,26.0,27.0,26.0,27.0,26.0,27.0,0.0,0.0,16.0,1.9,0.0,0.0,3.0,4.998,0.0,0.0,1.472,0.834,0.0,23.6,0.0,0.0,0.0,,0.0,89.6,75.2,0.0,0.0,0.0,0.0,78.8,80.6,78.8,80.6,78.8,80.6,78.8,80.6,0.0,0.0,74.48,0.0,78.8,-10.799999999999997,-15.11999999999999,0.0,0.253,0.0,399.2,True,2026-05-01 22:48:46
65.06,1,10,2026-05-01 22:49:43,37.0817,-121.59962,327.0,0.0,206.1,-12.6,0.0,,0.0,0.0,0.0,10.7,-1.1,19.8,0.0,260.0,0.1,-0.02,1.0,99.0,-7.0,32.0,0.0,29.99,2366.0,0.0,0.0,144.0,0.0,0.0,0.0,0.0,0.0,0.0,0.0,0.0,0.0,0.0,0.0,0.0,0.0,0.0,0.0,0.0,0.0,0.0,0.0,0.0,0.0,0.0,0.0,0.0,0.0,24.0,0.0,0.0,29.9,0.0,0.0,0.0,0.0,0.0,0.0,20.1,0.0,0.0,-0.1,13.3,10.9,0.0,0.0,0.0,0.0,26.0,27.0,26.0,27.0,26.0,27.0,26.0,27.0,0.0,0.0,16.0,1.6,0.0,0.0,3.0,4.998,0.0,0.0,1.472,0.834,0.0,23.6,0.0,0.0,0.0,,0.0,89.6,75.2,0.0,0.0,0.0,0.0,78.8,80.6,78.8,80.6,78.8,80.6,78.8,80.6,0.0,0.0,74.48,0.0,78.8,-10.799999999999997,-15.11999999999999,0.0,0.253,0.0,399.2,True,2026-05-01 22:48:46
66.06,1,10,2026-05-01 22:49:44,37.0817,-121.59962,327.0,0.1,206.1,-12.6,0.0,,0.0,0.0,0.0,10.8,-1.1,19.7,0.0,260.0,0.0,-0.02,1.0,99.0,-8.0,32.0,0.0,29.99,2365.0,0.0,0.0,144.0,0.0,0.0,0.0,0.0,0.0,0.0,0.0,0.0,0.0,0.0,0.0,0.0,0.0,0.0,0.0,0.0,0.0,0.0,0.0,0.0,0.0,0.0,0.0,0.0,0.0,24.0,0.0,0.0,29.9,0.0,0.0,0.0,0.0,0.0,0.0,20.1,0.0,0.0,-0.1,13.3,10.9,0.0,0.0,0.0,0.0,26.0,27.0,26.0,27.0,26.0,27.0,26.0,27.0,0.0,0.0,16.0,1.5,0.0,0.0,3.0,4.998,0.0,0.0,1.472,0.834,0.0,23.6,0.0,0.0,0.0,,0.0,89.6,75.2,0.0,0.0,0.0,0.0,78.8,80.6,78.8,80.6,78.8,80.6,78.8,80.6,0.0,0.0,74.48,0.0,78.8,-10.799999999999997,-15.11999999999999,0.0,0.3373333333333333,0.0,399.2,True,2026-05-01 22:48:46
67.06,1,10,2026-05-01 22:49:45,37.0817,-121.59962,327.0,0.0,206.1,-12.6,0.0,,0.0,0.0,0.0,10.8,-1.1,19.7,0.0,260.0,0.1,-0.02,1.0,99.0,-4.0,32.0,0.0,29.99,2365.0,0.0,0.0,144.0,0.0,0.0,0.0,0.0,0.0,0.0,0.0,0.0,0.0,0.0,0.0,0.0,0.0,0.0,0.0,0.0,0.0,0.0,0.0,0.0,0.0,0.0,0.0,0.0,0.0,24.0,0.0,0.0,29.9,0.0,0.0,0.0,0.0,0.0,0.0,20.1,0.0,0.0,-0.1,13.3,10.9,0.0,0.0,0.0,0.0,26.0,27.0,26.0,27.0,26.0,27.0,26.0,27.0,0.0,0.0,16.0,1.4,0.0,0.0,3.0,4.998,0.0,0.0,1.472,0.834,0.0,23.6,0.0,0.0,0.0,,0.0,89.6,75.2,0.0,0.0,0.0,0.0,78.8,80.6,78.8,80.6,78.8,80.6,78.8,80.6,0.0,0.0,74.48,0.0,78.8,-10.799999999999997,-15.11999999999999,0.0,0.42166666666666663,0.0,399.2,True,2026-05-01 22:48:46
68.06,1,10,2026-05-01 22:49:46,37.08168,-121.5996,326.0,0.0,206.1,-12.6,0.0,,0.0,0.0,0.0,10.9,-1.0,19.7,0.0,260.0,0.1,-0.02,0.9,99.0,-8.0,32.0,0.0,29.99,2365.0,0.0,0.0,144.0,0.0,0.0,0.0,0.0,0.0,0.0,0.0,0.0,0.0,0.0,0.0,0.0,0.0,0.0,0.0,0.0,0.0,0.0,0.0,0.0,0.0,0.0,0.0,0.0,0.0,24.0,0.0,0.0,29.9,0.0,0.0,0.0,0.0,0.0,0.0,20.1,0.0,0.0,-0.1,13.3,10.9,0.0,0.0,0.0,0.0,26.0,27.0,26.0,27.0,26.0,27.0,26.0,27.0,0.0,0.0,16.0,1.3,0.0,0.0,3.0,4.998,0.0,0.0,1.472,0.834,0.0,23.6,0.0,0.0,0.0,,0.0,89.6,75.2,0.0,0.0,0.0,0.0,78.8,80.6,78.8,80.6,78.8,80.6,78.8,80.6,0.0,0.0,74.48,0.0,78.8,-10.799999999999997,-15.11999999999999,0.0,0.42166666666666663,0.0,399.2,True,2026-05-01 22:48:46
69.06,1,10,2026-05-01 22:49:47,37.08168,-121.5996,328.0,0.0,206.1,-12.6,0.0,,0.0,0.0,0.0,10.8,-1.0,19.7,0.0,259.0,0.0,-0.02,1.0,99.0,-5.0,32.0,0.0,29.99,2365.0,0.0,0.0,144.0,0.0,0.0,0.0,0.0,0.0,0.0,0.0,0.0,0.0,0.0,0.0,0.0,0.0,0.0,0.0,0.0,0.0,0.0,0.0,0.0,0.0,0.0,0.0,0.0,0.0,24.0,0.0,0.0,29.9,0.0,0.0,0.0,0.0,0.0,0.0,20.1,0.0,0.0,-0.1,13.3,10.9,0.0,0.0,0.0,0.0,26.0,27.0,26.0,27.0,26.0,27.0,26.0,27.0,0.0,0.0,16.0,1.2,0.0,0.0,3.0,4.998,0.0,0.0,1.472,0.834,0.0,23.6,0.0,0.0,0.0,,0.0,89.6,75.2,0.0,0.0,0.0,0.0,78.8,80.6,78.8,80.6,78.8,80.6,78.8,80.6,0.0,0.0,74.48,0.0,78.8,-10.799999999999997,-15.11999999999999,0.0,0.42166666666666663,0.0,399.2,True,2026-05-01 22:48:46
70.06,1,10,2026-05-01 22:49:48,37.08168,-121.5996,328.0,0.1,206.1,-12.6,0.0,,0.0,0.0,0.0,10.8,-1.0,19.8,0.0,259.0,0.1,-0.01,1.0,99.0,8.0,32.0,0.0,29.99,2365.0,0.0,0.0,144.0,0.0,0.0,0.0,0.0,0.0,0.0,0.0,0.0,0.0,0.0,0.0,0.0,0.0,0.0,0.0,0.0,0.0,0.0,0.0,0.0,0.0,0.0,0.0,0.0,0.0,24.0,0.0,0.0,29.9,0.0,0.0,0.0,0.0,0.0,0.0,20.1,0.0,0.0,-0.1,13.3,10.9,0.0,0.0,0.0,0.0,26.0,27.0,26.0,27.0,26.0,27.0,26.0,27.0,0.0,0.0,16.0,1.2,0.0,0.0,3.0,4.998,0.0,0.0,1.472,0.834,0.0,23.6,0.0,0.0,0.0,,0.0,89.6,75.2,0.0,0.0,0.0,0.0,78.8,80.6,78.8,80.6,78.8,80.6,78.8,80.6,0.0,0.0,74.48,0.0,78.8,-10.799999999999997,-15.11999999999999,0.0,0.506,0.0,399.2,True,2026-05-01 22:48:46
71.06,1,10,2026-05-01 22:49:49,37.08167,-121.5996,328.0,0.0,206.1,-12.6,0.0,,0.0,0.0,0.0,10.8,-1.0,19.7,0.0,259.0,0.0,-0.02,1.0,99.0,46.0,32.0,0.0,29.99,2365.0,0.0,0.0,144.0,0.0,0.0,0.0,0.0,0.0,0.0,0.0,0.0,0.0,0.0,0.0,0.0,0.0,0.0,0.0,0.0,0.0,0.0,0.0,0.0,0.0,0.0,0.0,0.0,0.0,24.0,0.0,0.0,29.9,0.0,0.0,0.0,0.0,0.0,0.0,20.1,0.0,0.0,-0.1,13.3,10.9,0.0,0.0,0.0,0.0,26.0,27.0,26.0,27.0,26.0,27.0,26.0,27.0,0.0,0.0,16.0,1.1,0.0,0.0,3.0,4.998,0.0,0.0,1.472,0.834,0.0,23.6,0.0,0.0,0.0,,0.0,89.6,75.2,0.0,0.0,0.0,0.0,78.8,80.6,78.8,80.6,78.8,80.6,78.8,80.6,0.0,0.0,74.48,0.0,78.8,-10.799999999999997,-15.11999999999999,0.0,0.5903333333333333,0.0,399.2,True,2026-05-01 22:48:46
72.06,1,10,2026-05-01 22:49:50,37.08167,-121.5996,328.0,0.0,206.1,-12.6,0.0,,0.0,0.0,0.0,10.8,-1.1,19.7,0.0,259.0,0.0,-0.02,1.0,99.0,49.0,32.0,0.0,29.99,2375.0,0.0,0.0,144.0,0.0,0.0,0.0,0.0,0.0,0.0,0.0,0.0,0.0,0.0,0.0,0.0,0.0,0.0,0.0,0.0,0.0,0.0,0.0,0.0,0.0,0.0,0.0,0.0,0.0,24.0,0.0,0.0,29.9,0.0,0.0,0.0,0.0,0.0,0.0,20.1,0.0,0.0,-0.1,13.3,10.9,0.0,0.0,0.0,0.0,26.0,27.0,26.0,27.0,26.0,27.0,26.0,27.0,0.0,0.0,16.0,1.1,0.0,0.0,3.0,4.998,0.0,0.0,1.472,0.834,0.0,23.6,0.0,0.0,0.0,,0.0,89.6,75.2,0.0,0.0,0.0,0.0,78.8,80.6,78.8,80.6,78.8,80.6,78.8,80.6,0.0,0.0,74.48,0.0,78.8,-10.799999999999997,-15.11999999999999,0.0,0.5903333333333333,0.0,399.2,True,2026-05-01 22:48:46
73.06,1,10,2026-05-01 22:49:51,37.08167,-121.5996,328.0,0.0,206.1,-12.6,0.0,,0.0,0.0,0.0,10.8,-1.1,19.7,0.0,259.0,0.0,-0.02,1.0,99.0,52.0,32.0,0.0,29.99,2375.0,0.0,0.0,144.0,0.0,0.0,0.0,0.0,0.0,0.0,0.0,0.0,0.0,0.0,0.0,0.0,0.0,0.0,0.0,0.0,0.0,0.0,0.0,0.0,0.0,0.0,0.0,0.0,0.0,24.0,0.0,0.0,29.9,0.0,0.0,0.0,0.0,0.0,0.0,20.1,0.0,0.0,-0.1,13.3,10.9,0.0,0.0,0.0,0.0,26.0,27.0,26.0,27.0,26.0,27.0,26.0,27.0,0.0,0.0,16.0,1.1,0.0,0.0,3.0,4.998,0.0,0.0,1.472,0.834,0.0,23.6,0.0,0.0,0.0,,0.0,89.6,75.2,0.0,0.0,0.0,0.0,78.8,80.6,78.8,80.6,78.8,80.6,78.8,80.6,0.0,0.0,74.48,0.0,78.8,-10.799999999999997,-15.11999999999999,0.0,0.5903333333333333,0.0,399.2,True,2026-05-01 22:48:46
74.06,1,10,2026-05-01 22:49:52,37.08167,-121.5996,327.0,0.0,206.1,-12.6,0.0,,0.0,0.0,0.0,10.8,-1.1,19.7,0.0,259.0,0.0,-0.02,1.0,99.0,15.0,32.0,0.0,29.99,2375.0,0.0,0.0,144.0,0.0,0.0,0.0,0.0,0.0,0.0,0.0,0.0,0.0,0.0,0.0,0.0,0.0,0.0,0.0,0.0,0.0,0.0,0.0,0.0,0.0,0.0,0.0,0.0,0.0,24.0,0.0,0.0,29.9,0.0,0.0,0.0,0.0,0.0,0.0,20.1,0.0,0.0,-0.1,13.3,10.9,0.0,0.0,0.0,0.0,26.0,27.0,26.0,27.0,26.0,27.0,26.0,27.0,0.0,0.0,16.0,1.0,0.0,0.0,3.0,4.998,0.0,0.0,1.472,0.834,0.0,23.6,0.0,0.0,0.0,,0.0,89.6,75.2,0.0,0.0,0.0,0.0,78.8,80.6,78.8,80.6,78.8,80.6,78.8,80.6,0.0,0.0,74.48,0.0,78.8,-10.799999999999997,-15.11999999999999,0.0,0.5903333333333333,0.0,399.2,True,2026-05-01 22:48:46
75.06,1,10,2026-05-01 22:49:53,37.08167,-121.5996,327.0,0.0,206.1,-12.6,0.0,,0.0,0.0,0.0,10.8,-1.1,19.6,0.0,259.0,0.0,-0.02,1.0,99.0,34.0,32.0,0.0,29.99,2375.0,0.0,0.0,144.0,0.0,0.0,0.0,0.0,0.0,0.0,0.0,0.0,0.0,0.0,0.0,0.0,0.0,0.0,0.0,0.0,0.0,0.0,0.0,0.0,0.0,0.0,0.0,0.0,0.0,24.0,0.0,0.0,29.9,0.0,0.0,0.0,0.0,0.0,0.0,20.1,0.0,0.0,-0.1,13.3,10.9,0.0,0.0,0.0,0.0,26.0,27.0,26.0,27.0,26.0,27.0,26.0,27.0,0.0,0.0,16.0,1.0,0.0,0.0,3.0,4.998,0.0,0.0,1.472,0.834,0.0,23.6,0.0,0.0,0.0,,0.0,89.6,75.2,0.0,0.0,0.0,0.0,78.8,80.6,78.8,80.6,78.8,80.6,78.8,80.6,0.0,0.0,74.48,0.0,78.8,-10.799999999999997,-15.11999999999999,0.0,0.5903333333333333,0.0,399.2,True,2026-05-01 22:48:46
76.06,1,10,2026-05-01 22:49:54,37.08167,-121.5996,327.0,0.0,206.1,-12.6,0.0,,0.0,0.0,0.0,10.8,-1.0,19.7,0.0,259.0,0.0,-0.02,1.0,99.0,8.0,32.0,0.0,29.99,2375.0,0.0,0.0,144.0,0.0,0.0,0.0,0.0,0.0,0.0,0.0,0.0,0.0,0.0,0.0,0.0,0.0,0.0,0.0,0.0,0.0,0.0,0.0,0.0,0.0,0.0,0.0,0.0,0.0,24.0,0.0,0.0,29.9,0.0,0.0,0.0,0.0,0.0,0.0,20.1,0.0,0.0,-0.1,13.3,10.9,0.0,0.0,0.0,0.0,26.0,27.0,26.0,27.0,26.0,27.0,27.0,27.0,0.0,0.0,16.0,1.0,0.0,0.0,3.0,4.998,0.0,0.0,1.472,0.834,0.0,23.6,0.0,0.0,0.0,,0.0,89.6,75.2,0.0,0.0,0.0,0.0,78.8,80.6,78.8,80.6,78.8,80.6,80.6,80.6,0.0,0.0,74.48,0.0,79.25,-10.349999999999994,-15.11999999999999,0.0,0.5903333333333333,0.0,399.2,True,2026-05-01 22:48:46
77.06,1,10,2026-05-01 22:49:55,37.08167,-121.59959,327.0,0.0,206.1,-12.6,0.0,,0.0,0.0,0.0,10.8,-1.0,19.7,0.0,259.0,0.0,-0.02,1.0,99.0,8.0,32.0,0.0,29.99,2376.0,0.0,0.0,144.0,0.0,0.0,0.0,0.0,0.0,0.0,0.0,0.0,0.0,0.0,0.0,0.0,0.0,0.0,0.0,0.0,0.0,0.0,0.0,0.0,0.0,0.0,0.0,0.0,0.0,24.0,0.0,0.0,29.9,0.0,0.0,0.0,0.0,0.0,0.0,20.1,0.0,0.0,-0.1,13.3,10.9,0.0,0.0,0.0,0.0,26.0,27.0,26.0,27.0,26.0,27.0,26.0,27.0,0.0,0.0,16.0,1.0,0.0,0.0,3.0,4.998,0.0,0.0,1.472,0.834,0.0,23.6,0.0,0.0,0.0,,0.0,89.6,75.2,0.0,0.0,0.0,0.0,78.8,80.6,78.8,80.6,78.8,80.6,78.8,80.6,0.0,0.0,74.48,0.0,78.8,-10.799999999999997,-15.11999999999999,0.0,0.5903333333333333,0.0,399.2,True,2026-05-01 22:48:46
78.06,1,10,2026-05-01 22:49:56,37.08167,-121.59959,327.0,0.0,206.1,-12.6,0.0,,0.0,0.0,0.0,10.8,-1.0,19.8,0.0,259.0,0.1,-0.01,1.0,99.0,36.0,32.0,0.0,29.99,2376.0,0.0,0.0,144.0,0.0,0.0,0.0,0.0,0.0,0.0,0.0,0.0,0.0,0.0,0.0,0.0,0.0,0.0,0.0,0.0,0.0,0.0,0.0,0.0,0.0,0.0,0.0,0.0,0.0,24.0,0.0,0.0,29.9,0.0,0.0,0.0,0.0,0.0,0.0,20.1,0.0,0.0,-0.1,13.3,10.9,0.0,0.0,0.0,0.0,26.0,27.0,26.0,27.0,26.0,27.0,27.0,27.0,0.0,0.0,16.0,1.0,0.0,0.0,3.0,4.998,0.0,0.0,1.472,0.834,0.0,23.6,0.0,0.0,0.0,,0.0,89.6,75.2,0.0,0.0,0.0,0.0,78.8,80.6,78.8,80.6,78.8,80.6,80.6,80.6,0.0,0.0,74.48,0.0,79.25,-10.349999999999994,-15.11999999999999,0.0,0.5903333333333333,0.0,399.2,True,2026-05-01 22:48:46
79.06,1,10,2026-05-01 22:49:57,37.08167,-121.59959,327.0,0.0,206.1,-12.6,0.0,,0.0,0.0,0.0,10.8,-1.0,19.8,0.0,259.0,0.1,-0.02,1.0,99.0,34.0,32.0,0.0,29.99,2376.0,0.0,0.0,144.0,0.0,0.0,0.0,0.0,0.0,0.0,0.0,0.0,0.0,0.0,0.0,0.0,0.0,0.0,0.0,0.0,0.0,0.0,0.0,0.0,0.0,0.0,0.0,0.0,0.0,24.0,0.0,0.0,29.9,0.0,0.0,0.0,0.0,0.0,0.0,20.1,0.0,0.0,-0.1,13.3,10.9,0.0,0.0,0.0,0.0,26.0,27.0,26.0,27.0,26.0,27.0,27.0,27.0,0.0,0.0,16.0,1.0,0.0,0.0,3.0,4.998,0.0,0.0,1.472,0.834,0.0,23.6,0.0,0.0,0.0,,0.0,89.6,75.2,0.0,0.0,0.0,0.0,78.8,80.6,78.8,80.6,78.8,80.6,80.6,80.6,0.0,0.0,74.48,0.0,79.25,-10.349999999999994,-15.11999999999999,0.0,0.5903333333333333,0.0,399.2,True,2026-05-01 22:48:46
80.06,2,10,2026-05-01 22:49:58,37.08167,-121.59959,325.0,0.0,206.1,-12.6,0.0,,0.0,0.0,0.0,10.8,-1.0,19.9,0.0,259.0,0.1,-0.01,1.0,99.0,-5.0,32.0,0.0,29.99,2386.0,0.0,0.0,144.0,0.0,0.0,0.0,0.0,0.0,0.0,0.0,0.0,0.0,0.0,0.0,0.0,0.0,0.0,0.0,0.0,0.0,0.0,0.0,0.0,0.0,0.0,0.0,0.0,0.0,24.0,0.0,0.0,29.9,0.0,0.0,0.0,0.0,0.0,0.0,20.1,0.0,0.0,-0.1,13.3,10.9,0.0,0.0,0.0,0.0,26.0,27.0,26.0,27.0,26.0,27.0,27.0,27.0,0.0,0.0,16.0,1.0,0.0,0.0,3.0,4.998,0.0,0.0,1.472,0.834,0.0,23.6,0.0,0.0,0.0,,0.0,89.6,75.2,0.0,0.0,0.0,0.0,78.8,80.6,78.8,80.6,78.8,80.6,80.6,80.6,0.0,0.0,74.48,0.0,79.25,-10.349999999999994,-15.11999999999999,0.0,0.5903333333333333,0.0,399.2,True,2026-05-01 22:48:46
81.06,2,10,2026-05-01 22:49:59,37.08167,-121.59959,325.0,0.0,206.1,-12.6,0.0,,0.0,0.0,0.0,10.8,-1.0,19.9,0.0,259.0,0.1,-0.01,1.0,99.0,10.0,32.0,0.0,29.99,2386.0,0.0,0.0,144.0,0.0,0.0,0.0,0.0,0.0,0.0,0.0,0.0,0.0,0.0,0.0,0.0,0.0,0.0,0.0,0.0,0.0,0.0,0.0,0.0,0.0,0.0,0.0,0.0,0.0,24.0,0.0,0.0,29.9,0.0,0.0,0.0,0.0,0.0,0.0,20.1,0.0,0.0,-0.1,13.3,10.9,0.0,0.0,0.0,0.0,26.0,27.0,26.0,27.0,26.0,27.0,26.0,27.0,0.0,0.0,16.0,1.0,0.0,0.0,3.0,4.998,0.0,0.0,1.472,0.834,0.0,23.6,0.0,0.0,0.0,,0.0,89.6,75.2,0.0,0.0,0.0,0.0,78.8,80.6,78.8,80.6,78.8,80.6,78.8,80.6,0.0,0.0,74.48,0.0,78.8,-10.799999999999997,-15.11999999999999,0.0,0.5903333333333333,0.0,399.2,True,2026-05-01 22:48:46
82.06,2,10,2026-05-01 22:50:00,37.08167,-121.59959,325.0,0.0,206.1,-12.6,0.0,,0.0,0.0,0.0,10.8,-1.1,19.8,0.0,259.0,0.1,-0.02,1.0,99.0,35.0,32.0,0.0,29.99,2386.0,0.0,0.0,144.0,0.0,0.0,0.0,0.0,0.0,0.0,0.0,0.0,0.0,0.0,0.0,0.0,0.0,0.0,0.0,0.0,0.0,0.0,0.0,0.0,0.0,0.0,0.0,0.0,0.0,24.0,0.0,0.0,29.9,0.0,0.0,0.0,0.0,0.0,0.0,20.1,0.0,0.0,-0.1,13.3,10.9,0.0,0.0,0.0,0.0,26.0,27.0,26.0,27.0,26.0,27.0,26.0,27.0,0.0,0.0,16.0,1.0,0.0,0.0,3.0,4.998,0.0,0.0,1.472,0.834,0.0,23.6,0.0,0.0,0.0,,0.0,89.6,75.2,0.0,0.0,0.0,0.0,78.8,80.6,78.8,80.6,78.8,80.6,78.8,80.6,0.0,0.0,74.48,0.0,78.8,-10.799999999999997,-15.11999999999999,0.0,0.5903333333333333,0.0,399.2,True,2026-05-01 22:48:46
83.06,2,10,2026-05-01 22:50:01,37.08167,-121.59959,324.0,0.0,206.1,-12.6,0.0,,0.0,0.0,0.0,10.8,-1.1,19.7,0.0,259.0,0.0,-0.02,1.0,99.0,27.0,32.0,0.0,29.99,2387.0,0.0,0.0,144.0,0.0,0.0,0.0,0.0,0.0,0.0,0.0,0.0,0.0,0.0,0.0,0.0,0.0,0.0,0.0,0.0,0.0,0.0,0.0,0.0,0.0,0.0,0.0,0.0,0.0,24.0,0.0,0.0,30.0,0.0,0.0,0.0,0.0,0.0,0.0,20.1,0.0,0.0,-0.1,13.3,10.9,0.0,0.0,0.0,0.0,26.0,27.0,26.0,27.0,26.0,27.0,26.0,27.0,0.0,0.0,16.0,1.0,0.0,0.0,3.0,4.998,0.0,0.0,1.472,0.834,0.0,23.6,0.0,0.0,0.0,,0.0,89.6,75.2,0.0,0.0,0.0,0.0,78.8,80.6,78.8,80.6,78.8,80.6,78.8,80.6,0.0,0.0,74.48,0.0,78.8,-10.799999999999997,-15.11999999999999,0.0,0.5903333333333333,0.0,399.2,True,2026-05-01 22:48:46
84.06,2,10,2026-05-01 22:50:02,37.08167,-121.59959,324.0,0.0,206.1,-12.6,0.0,,0.0,0.0,0.0,10.9,-1.1,19.7,0.0,259.0,0.1,-0.02,1.0,99.0,23.0,32.0,0.0,29.99,2387.0,0.0,0.0,144.0,0.0,0.0,0.0,0.0,0.0,0.0,0.0,0.0,0.0,0.0,0.0,0.0,0.0,0.0,0.0,0.0,0.0,0.0,0.0,0.0,0.0,0.0,0.0,0.0,0.0,24.0,0.0,0.0,29.9,0.0,0.0,0.0,0.0,0.0,0.0,20.1,0.0,0.0,-0.1,13.3,10.9,0.0,0.0,0.0,0.0,26.0,27.0,26.0,27.0,26.0,27.0,26.0,27.0,0.0,0.0,16.0,1.0,0.0,0.0,3.0,4.998,0.0,0.0,1.472,0.834,0.0,23.6,0.0,0.0,0.0,,0.0,89.6,75.2,0.0,0.0,0.0,0.0,78.8,80.6,78.8,80.6,78.8,80.6,78.8,80.6,0.0,0.0,74.48,0.0,78.8,-10.799999999999997,-15.11999999999999,0.0,0.5903333333333333,0.0,399.2,True,2026-05-01 22:48:46
85.06,2,10,2026-05-01 22:50:03,37.08167,-121.59959,324.0,0.1,206.1,-12.6,0.0,,0.0,0.0,0.0,10.8,-1.1,19.7,0.0,259.0,0.0,-0.02,1.0,99.0,5.0,33.0,0.0,29.99,2387.0,0.0,0.0,144.0,0.0,0.0,0.0,0.0,0.0,0.0,0.0,0.0,0.0,0.0,0.0,0.0,0.0,0.0,0.0,0.0,0.0,0.0,0.0,0.0,0.0,0.0,0.0,0.0,0.0,24.0,0.0,0.0,29.9,0.0,0.0,0.0,0.0,0.0,0.0,20.1,0.0,0.0,-0.1,13.3,10.9,0.0,0.0,0.0,0.0,26.0,27.0,26.0,27.0,26.0,27.0,26.0,27.0,0.0,0.0,16.0,1.0,0.0,0.0,3.0,4.998,0.0,0.0,1.472,0.834,0.0,23.6,0.0,0.0,0.0,,0.0,91.4,75.2,0.0,0.0,0.0,0.0,78.8,80.6,78.8,80.6,78.8,80.6,78.8,80.6,0.0,0.0,74.48,0.0,78.8,-12.600000000000009,-16.92,0.0,0.6746666666666666,0.0,399.2,True,2026-05-01 22:48:46
86.06,2,10,2026-05-01 22:50:04,37.08167,-121.59959,323.0,0.1,206.1,-12.6,0.0,,0.0,0.0,0.0,10.9,-1.1,19.7,0.0,259.0,0.1,-0.02,1.0,99.0,11.0,33.0,0.0,29.99,2396.0,0.0,0.0,144.0,0.0,0.0,0.0,0.0,0.0,0.0,0.0,0.0,0.0,0.0,0.0,0.0,0.0,0.0,0.0,0.0,0.0,0.0,0.0,0.0,0.0,0.0,0.0,0.0,0.0,24.0,0.0,0.0,29.9,0.0,0.0,0.0,0.0,0.0,0.0,20.1,0.0,0.0,-0.1,13.3,10.9,0.0,0.0,0.0,0.0,26.0,27.0,26.0,27.0,26.0,27.0,26.0,27.0,0.0,0.0,16.0,0.0,0.0,0.0,3.0,4.998,0.0,0.0,1.472,0.834,0.0,23.6,0.0,0.0,0.0,,0.0,91.4,75.2,0.0,0.0,0.0,0.0,78.8,80.6,78.8,80.6,78.8,80.6,78.8,80.6,0.0,0.0,74.48,0.0,78.8,-12.600000000000009,-16.92,0.0,0.8433333333333333,0.0,399.2,True,2026-05-01 22:48:46
87.06,2,10,2026-05-01 22:50:05,37.08167,-121.59959,323.0,0.0,206.1,-12.6,0.0,,0.0,0.0,0.0,10.9,-1.0,19.7,0.0,259.0,0.1,-0.02,1.0,99.0,-5.0,33.0,0.0,29.99,2396.0,0.0,0.0,144.0,0.0,0.0,0.0,0.0,0.0,0.0,0.0,0.0,0.0,0.0,0.0,0.0,0.0,0.0,0.0,0.0,0.0,0.0,0.0,0.0,0.0,0.0,0.0,0.0,0.0,24.0,0.0,0.0,29.9,0.0,0.0,0.0,0.0,0.0,0.0,20.1,0.0,0.0,-0.1,13.3,10.9,0.0,0.0,0.0,0.0,26.0,27.0,26.0,27.0,26.0,27.0,26.0,27.0,0.0,0.0,16.0,0.0,0.0,0.0,3.0,4.998,0.0,0.0,1.472,0.834,0.0,23.6,0.0,0.0,0.0,,0.0,91.4,75.2,0.0,0.0,0.0,0.0,78.8,80.6,78.8,80.6,78.8,80.6,78.8,80.6,0.0,0.0,74.48,0.0,78.8,-12.600000000000009,-16.92,0.0,0.9276666666666666,0.0,399.2,True,2026-05-01 22:48:46
88.06,2,10,2026-05-01 22:50:06,37.08167,-121.59959,323.0,0.0,206.1,-12.6,0.0,,0.0,0.0,0.0,10.9,-1.1,19.7,0.0,259.0,0.1,-0.02,1.0,99.0,-10.0,33.0,0.0,29.99,2396.0,0.0,0.0,144.0,0.0,0.0,0.0,0.0,0.0,0.0,0.0,0.0,0.0,0.0,0.0,0.0,0.0,0.0,0.0,0.0,0.0,0.0,0.0,0.0,0.0,0.0,0.0,0.0,0.0,24.0,0.0,0.0,29.9,0.0,0.0,0.0,0.0,0.0,0.0,20.1,0.0,0.0,-0.1,13.3,10.9,0.0,0.0,0.0,0.0,26.0,27.0,26.0,27.0,26.0,27.0,26.0,27.0,0.0,0.0,16.0,0.0,0.0,0.0,3.0,4.998,0.0,0.0,1.472,0.834,0.0,23.6,0.0,0.0,0.0,,0.0,91.4,75.2,0.0,0.0,0.0,0.0,78.8,80.6,78.8,80.6,78.8,80.6,78.8,80.6,0.0,0.0,74.48,0.0,78.8,-12.600000000000009,-16.92,0.0,0.9276666666666666,0.0,399.2,True,2026-05-01 22:48:46
89.06,2,10,2026-05-01 22:50:07,37.08167,-121.59959,323.0,0.0,206.1,-12.6,0.0,,0.0,0.0,0.0,10.9,-1.0,19.7,0.0,259.0,0.1,-0.02,1.0,99.0,-16.0,33.0,0.0,29.99,2397.0,0.0,0.0,144.0,0.0,0.0,0.0,0.0,0.0,0.0,0.0,0.0,0.0,0.0,0.0,0.0,0.0,0.0,0.0,0.0,0.0,0.0,0.0,0.0,0.0,0.0,0.0,0.0,0.0,24.0,0.0,0.0,29.9,0.0,0.0,0.0,0.0,0.0,0.0,20.1,0.0,0.0,-0.1,13.3,10.9,0.0,0.0,0.0,0.0,26.0,27.0,26.0,27.0,26.0,27.0,26.0,27.0,0.0,0.0,16.0,0.0,0.0,0.0,3.0,4.998,0.0,0.0,1.472,0.834,0.0,23.6,0.0,0.0,0.0,,0.0,91.4,75.2,0.0,0.0,0.0,0.0,78.8,80.6,78.8,80.6,78.8,80.6,78.8,80.6,0.0,0.0,74.48,0.0,78.8,-12.600000000000009,-16.92,0.0,0.9276666666666666,0.0,399.2,True,2026-05-01 22:48:46
90.06,2,10,2026-05-01 22:50:08,37.08167,-121.59959,322.0,0.0,206.1,-12.6,0.0,,0.0,0.0,0.0,11.0,-1.0,19.7,0.0,259.0,0.1,-0.02,1.0,99.0,-9.0,33.0,0.0,29.99,2397.0,0.0,0.0,144.0,0.0,0.0,0.0,0.0,0.0,0.0,0.0,0.0,0.0,0.0,0.0,0.0,0.0,0.0,0.0,0.0,0.0,0.0,0.0,0.0,0.0,0.0,0.0,0.0,0.0,24.0,0.0,0.0,30.0,0.0,0.0,0.0,0.0,0.0,0.0,20.1,0.0,0.0,-0.1,13.3,10.9,0.0,0.0,0.0,0.0,26.0,27.0,26.0,27.0,26.0,27.0,26.0,27.0,0.0,0.0,16.0,0.0,0.0,0.0,3.0,4.998,0.0,0.0,1.472,0.834,0.0,23.6,0.0,0.0,0.0,,0.0,91.4,75.2,0.0,0.0,0.0,0.0,78.8,80.6,78.8,80.6,78.8,80.6,78.8,80.6,0.0,0.0,74.48,0.0,78.8,-12.600000000000009,-16.92,0.0,0.9276666666666666,0.0,399.2,True,2026-05-01 22:48:46
91.06,2,10,2026-05-01 22:50:09,37.08167,-121.59959,323.0,0.0,206.1,-12.6,0.0,,0.0,0.0,0.0,10.9,-1.1,19.7,0.0,259.0,0.0,-0.02,1.0,99.0,-5.0,33.0,0.0,29.99,2397.0,0.0,0.0,144.0,0.0,0.0,0.0,0.0,0.0,0.0,0.0,0.0,0.0,0.0,0.0,0.0,0.0,0.0,0.0,0.0,0.0,0.0,0.0,0.0,0.0,0.0,0.0,0.0,0.0,24.0,0.0,0.0,30.0,0.0,0.0,0.0,0.0,0.0,0.0,20.1,0.0,0.0,-0.1,13.3,10.9,0.0,0.0,0.0,0.0,26.0,27.0,26.0,27.0,26.0,27.0,27.0,27.0,0.0,0.0,16.0,0.0,0.0,0.0,3.0,4.998,0.0,0.0,1.472,0.834,0.0,23.6,0.0,0.0,0.0,,0.0,91.4,75.2,0.0,0.0,0.0,0.0,78.8,80.6,78.8,80.6,78.8,80.6,80.6,80.6,0.0,0.0,74.48,0.0,79.25,-12.150000000000006,-16.92,0.0,0.9276666666666666,0.0,399.2,True,2026-05-01 22:48:46
92.06,2,10,2026-05-01 22:50:10,37.08167,-121.59959,323.0,0.0,206.1,-12.6,0.0,,0.0,0.0,0.0,10.9,-1.1,19.6,0.0,259.0,0.0,-0.02,1.0,99.0,3.0,33.0,0.0,29.99,2397.0,0.0,0.0,144.0,0.0,0.0,0.0,0.0,0.0,0.0,0.0,0.0,0.0,0.0,0.0,0.0,0.0,0.0,0.0,0.0,0.0,0.0,0.0,0.0,0.0,0.0,0.0,0.0,0.0,24.0,0.0,0.0,30.0,0.0,0.0,0.0,0.0,0.0,0.0,20.1,0.0,0.0,-0.1,13.3,10.9,0.0,0.0,0.0,0.0,26.0,27.0,26.0,27.0,26.0,27.0,26.0,27.0,0.0,0.0,16.0,0.0,0.0,0.0,3.0,4.998,0.0,0.0,1.472,0.834,0.0,23.6,0.0,0.0,0.0,,0.0,91.4,75.2,0.0,0.0,0.0,0.0,78.8,80.6,78.8,80.6,78.8,80.6,78.8,80.6,0.0,0.0,74.48,0.0,78.8,-12.600000000000009,-16.92,0.0,0.9276666666666666,0.0,399.2,True,2026-05-01 22:48:46
93.06,2,10,2026-05-01 22:50:11,37.08167,-121.59959,322.0,0.0,206.1,-12.6,0.0,,0.0,0.0,0.0,10.9,-1.2,19.6,0.0,259.0,0.0,-0.02,1.0,99.0,40.0,33.0,0.0,29.99,2398.0,0.0,0.0,144.0,0.0,0.0,0.0,0.0,0.0,0.0,0.0,0.0,0.0,0.0,0.0,0.0,0.0,0.0,0.0,0.0,0.0,0.0,0.0,0.0,0.0,0.0,0.0,0.0,0.0,24.0,0.0,0.0,30.0,0.0,0.0,0.0,0.0,0.0,0.0,20.1,0.0,0.0,-0.1,13.3,10.9,0.0,0.0,0.0,0.0,26.0,27.0,26.0,27.0,26.0,27.0,27.0,27.0,0.0,0.0,16.0,0.0,0.0,0.0,3.0,4.998,0.0,0.0,1.472,0.834,0.0,23.6,0.0,0.0,0.0,,0.0,91.4,75.2,0.0,0.0,0.0,0.0,78.8,80.6,78.8,80.6,78.8,80.6,80.6,80.6,0.0,0.0,74.48,0.0,79.25,-12.150000000000006,-16.92,0.0,0.9276666666666666,0.0,399.2,True,2026-05-01 22:48:46
94.06,2,10,2026-05-01 22:50:12,37.08167,-121.59959,322.0,0.0,206.1,-12.6,0.0,,0.0,0.0,0.0,10.9,-1.2,19.5,0.0,259.0,0.0,-0.02,1.0,99.0,8.0,33.0,0.0,29.99,2398.0,0.0,0.0,144.0,0.0,0.0,0.0,0.0,0.0,0.0,0.0,0.0,0.0,0.0,0.0,0.0,0.0,0.0,0.0,0.0,0.0,0.0,0.0,0.0,0.0,0.0,0.0,0.0,0.0,24.0,0.0,0.0,29.9,0.0,0.0,0.0,0.0,0.0,0.0,20.1,0.0,0.0,-0.1,13.3,10.9,0.0,0.0,0.0,0.0,26.0,27.0,26.0,27.0,26.0,27.0,26.0,27.0,0.0,0.0,16.0,0.0,0.0,0.0,3.0,4.998,0.0,0.0,1.472,0.834,0.0,23.6,0.0,0.0,0.0,,0.0,91.4,75.2,0.0,0.0,0.0,0.0,78.8,80.6,78.8,80.6,78.8,80.6,78.8,80.6,0.0,0.0,74.48,0.0,78.8,-12.600000000000009,-16.92,0.0,0.9276666666666666,0.0,399.2,True,2026-05-01 22:48:46
