Session Time,GPS Fix Quality,Number of Satellites,GPS Date & Time,Latitude (deg),Longitude (deg),GPS Altitude (feet),Ground Speed (knots),Ground Track (deg),Mag Var (deg),Cross Track Error (NM),Destination Waypoint ID,Range to Destination (NM),Bearing to Destination (deg),System Time,Pitch (deg),Roll (deg),Magnetic Heading (deg),Indicated Airspeed (knots),Pressure Altitude (ft),Turn Rate (deg/s),Lateral Accel (g),Vertical Accel(g),Angle of Attack (%),Vertical Speed (ft/min),OAT (deg F),True Airspeed (knots),Barometer Setting (inHg),Density Altitude (ft),Wind Direction (deg),Wind Speed (knots),Heading Bug (deg),Altitude Bug (ft),Airspeed Bug (knots),Vertical Speed Bug (ft/min),Course (deg),CDI Source Type,CDI Source Port,CDI Scale (NM),CDI Deflection (%),Glideslope (%),AP Engaged,AP Roll Mode,AP Roll Force,AP Roll Position (steps),AP Roll Slip (bool),AP Pitch Force,AP Pitch Position (steps),AP Pitch Slip (bool),AP Yaw Force,AP Yaw Position,AP Yaw Slip (bool),Transponder Status,Transponder Reply (bool),Transponder Identing (bool),Transponder Code (octal),Oil Pressure (PSI),Oil Temp (deg F),RPM L,RPM R,Manifold Pressure (inHg),Fuel Flow 1 (gal/hr),Fuel Flow 2 (gal/hr),Total Fuel Flow (gal/hr),Fuel Pressure (PSI),Fuel Level L (gal),Fuel Level R (gal),Fuel Remaining (gal),Volts 1,Volts 2,Amps,Hobbs Time,Tach Time,Thermocouple 1 (deg F),Thermocouple 2 (deg F),Thermocouple 3 (deg F),Thermocouple 4 (deg F),CHT 4 (deg F),EGT 4 (deg F),CHT 3 (deg F),EGT 3 (deg F),CHT 2 (deg F),EGT 2 (deg F),CHT 1 (deg F),EGT 1 (deg F),Thermocouple 13 (deg F),Thermocouple 14 (deg F),ELEV POSITION (%),CO PPM PRESSURE (PSI),GP Input 3,FUEL PRESSURE (PSI),AILERN POSITION (%),CANOPY CONTACT (V),GP Input 7,GP Input 8,LEFT LEVEL (Sensor V),RIGHT LEVEL (Sensor V),OIL PRESSURE (PSI),OIL TEMPERATURE (deg F),GP Input 13,Contacts,Percent Power,EGT Leaning State,Unnamed: 103,RPM,AVG_CHT,CHT_OAT_Ratio,OIL_OAT_Ratio,Fuel Flow Integral,Distance Traveled,Max CHT,Engine Run,Flight ID,Fuel Flow,MPG
0.06,0.0,0.0,2026-03-11 00:08:48,36.88911,-121.40324,,0.1,11.9,-12.6,,,,,0.0,,,,,,,,,,,77.0,,,,,,140.0,,130.0,-100.0,,0.0,0.0,,,,,,,,,,,,,,,,,,,,,0.0,0.0,,0.0,,,,,,13.7,,,,4.4,3.0,,,,,,,,,,,,,,,,,,,,,,,,,,,,,,,,0.0,,,,0.0,0.0,408.2,True,2026-03-11 00:08:48 - Flight 2,0.0,0.0
1.06,1.0,9.0,2026-03-11 00:08:49,36.889,-121.4033,272.0,0.0,11.9,-12.5,,,,,0.0,10.3,-0.5,216.0,0.0,31.0,-0.0,-0.01,1.0,,-118.0,77.0,0.0,30.15,1172.0,,,140.0,,130.0,-100.0,,0.0,0.0,,,,,,,,,,,,,,,,,,,,,0.0,0.0,,0.0,,0.0,,,,13.7,0.0,0.0,-0.2,4.4,3.0,,,,,258.8,181.4,269.6,213.8,269.6,201.2,267.8,206.6,,,9.0,254.2,,3.5,-18.0,4.998,,,0.656,0.833,0.0,180.5,,,,,,0.0,266.45000000000005,3.460389610389611,,0.0,0.08433333333333333,408.2,True,2026-03-11 00:08:48 - Flight 2,0.0,0.0
2.06,1.0,9.0,2026-03-11 00:08:50,36.889,-121.4033,272.0,0.0,11.9,-12.5,,,,,0.0,10.3,-0.5,216.0,0.0,30.0,-0.0,-0.01,1.0,,-94.0,77.0,0.0,30.15,1172.0,,,140.0,,130.0,-100.0,,0.0,0.0,,,,,,,,,,,,,,,,,,,,,0.0,0.0,,0.1,,0.1,,,,13.7,0.0,0.0,-0.2,4.4,3.0,,,,,258.8,179.6,269.6,213.8,269.6,201.2,267.8,206.6,,,9.0,254.2,,3.5,-18.0,4.998,,,0.654,0.833,0.0,180.5,,,,,,0.0,266.45000000000005,3.460389610389611,,1.388888888888889e-05,0.08433333333333333,408.2,True,2026-03-11 00:08:48 - Flight 2,0.1,0.0
3.06,1.0,9.0,2026-03-11 00:08:51,36.889,-121.40331,272.0,0.0,11.9,-12.5,,,,,0.0,10.3,-0.5,216.0,0.0,30.0,-0.0,-0.01,1.0,,-85.0,77.0,0.0,30.15,1168.0,,,140.0,,130.0,-100.0,,0.0,0.0,,,,,,,,,,,,,,,,,,,,,0.0,0.0,,0.1,,0.1,,,,13.7,0.0,0.0,-0.2,4.4,3.0,,,,,258.8,181.4,269.6,213.8,269.6,201.2,267.8,206.6,,,9.0,254.2,,3.5,-18.0,4.998,,,0.654,0.833,0.0,180.5,,,,,,0.0,266.45000000000005,3.460389610389611,,4.166666666666667e-05,0.08433333333333333,408.2,True,2026-03-11 00:08:48 - Flight 2,0.1,0.0
4.06,1.0,9.0,2026-03-11 00:08:52,36.889,-121.40331,271.0,0.0,11.9,-12.5,,,,,0.0,10.3,-0.5,216.0,0.0,29.0,-0.0,-0.01,1.0,,-68.0,77.0,0.0,30.15,1168.0,,,140.0,,130.0,-100.0,,0.0,0.0,,,,,,,,,,,,,,,,,,,,,0.0,0.0,,0.1,,0.1,,,,13.7,0.0,0.0,-0.2,4.4,3.0,,,,,258.8,181.4,269.6,213.8,269.6,201.2,267.8,206.6,,,9.0,254.2,,3.5,-18.0,4.998,,,0.654,0.833,0.0,180.68,,,,,,0.0,266.45000000000005,3.460389610389611,,6.944444444444443e-05,0.08433333333333333,408.2,True,2026-03-11 00:08:48 - Flight 2,0.1,0.0
5.06,1.0,9.0,2026-03-11 00:08:53,36.889,-121.40331,270.0,0.0,11.9,-12.5,,,,,0.0,10.3,-0.5,216.1,0.0,29.0,0.0,-0.01,1.0,,-41.0,77.0,0.0,30.15,1168.0,,,140.0,,,,,0.0,0.0,,,,,,,,,,,,,,,,,,,0.0,181.4,0.0,0.0,30.3,0.2,,0.2,3.5,,,13.7,0.0,0.0,-0.2,4.4,3.0,,,,,258.8,181.4,269.6,213.8,269.6,201.2,267.8,206.6,,,9.0,254.2,,3.5,-18.0,4.998,,,0.654,0.833,0.0,180.68,,,,,,0.0,266.45000000000005,3.460389610389611,2.355844155844156,0.0001111111111111111,0.08433333333333333,408.2,True,2026-03-11 00:08:48 - Flight 2,0.2,0.0
6.06,1.0,9.0,2026-03-11 00:08:54,36.889,-121.40331,269.0,0.0,11.9,-12.5,,,,,0.0,10.3,-0.5,216.0,0.0,28.0,0.0,-0.01,1.0,,-10.0,77.0,0.0,30.15,1166.0,,,140.0,,,,,0.0,0.0,,,,,,,,,,,,,,,,,,,0.0,181.4,0.0,0.0,30.3,0.1,,0.1,3.5,,,13.7,0.0,0.0,-0.2,4.4,3.0,,,,,258.8,181.4,269.6,213.8,269.6,201.2,267.8,206.6,,,9.0,254.2,,3.5,-18.0,4.998,,,0.654,0.833,0.0,180.68,,,,,,0.0,266.45000000000005,3.460389610389611,2.355844155844156,0.00015277777777777777,0.08433333333333333,408.2,True,2026-03-11 00:08:48 - Flight 2,0.1,0.0
7.06,1.0,9.0,2026-03-11 00:08:55,36.889,-121.40331,268.0,0.0,11.9,-12.5,,,,,0.0,10.3,-0.5,216.1,0.0,27.0,0.0,-0.01,1.0,,-52.0,77.0,0.0,30.15,1166.0,,,140.0,,,,,0.0,0.0,,,,,,,,,,,,,,,,,,,0.0,181.4,0.0,0.0,30.3,0.2,,0.2,3.5,,,13.7,0.0,0.0,-0.2,4.4,3.0,,,,,258.8,181.4,269.6,213.8,269.6,201.2,267.8,204.8,,,9.0,254.2,,3.5,-18.0,4.998,,,0.654,0.833,0.0,180.68,,,,,,0.0,266.45000000000005,3.460389610389611,2.355844155844156,0.00019444444444444446,0.08433333333333333,408.2,True,2026-03-11 00:08:48 - Flight 2,0.2,0.0
8.06,1.0,9.0,2026-03-11 00:08:56,36.889,-121.40331,267.0,0.0,11.9,-12.5,,,,,0.0,10.4,-0.6,216.1,0.0,26.0,0.0,-0.01,1.0,,-62.0,77.0,0.0,30.15,1166.0,,,140.0,,,,,0.0,0.0,,,,,,,,,,,,,,,,,,,0.0,181.4,0.0,0.0,30.3,0.2,,0.2,3.5,,,13.7,0.0,0.0,-0.2,4.4,3.0,,,,,258.8,181.4,269.6,213.8,269.6,201.2,267.8,204.8,,,9.0,254.2,,3.5,-18.0,4.998,,,0.654,0.833,0.0,180.68,,,,,,0.0,266.45000000000005,3.460389610389611,2.355844155844156,0.00025000000000000006,0.08433333333333333,408.2,True,2026-03-11 00:08:48 - Flight 2,0.2,0.0
9.06,1.0,9.0,2026-03-11 00:08:57,36.889,-121.40331,265.0,0.0,11.9,-12.5,,,,,0.0,10.4,-0.6,216.1,0.0,25.0,-0.0,-0.01,1.0,,-72.0,77.0,0.0,30.15,1162.0,,,140.0,,,,,0.0,0.0,,,,,,,,,,,,,,,,,,,0.0,181.4,0.0,0.0,30.3,0.2,,0.2,3.5,,,13.7,0.0,0.0,-0.2,4.4,3.0,,,,,258.8,181.4,269.6,213.8,269.6,201.2,267.8,204.8,,,9.0,254.2,,3.5,-18.0,4.998,,,0.654,0.833,0.0,180.68,,,,,,0.0,266.45000000000005,3.460389610389611,2.355844155844156,0.0003055555555555556,0.08433333333333333,408.2,True,2026-03-11 00:08:48 - Flight 2,0.2,0.0
10.06,1.0,9.0,2026-03-11 00:08:58,36.889,-121.40332,264.0,0.0,11.9,-12.5,,,,,0.0,10.3,-0.5,216.2,0.0,23.0,0.0,-0.01,1.0,,-90.0,77.0,0.0,30.15,1162.0,,,140.0,,,,,0.0,0.0,,,,,,,,,,,,,,,,,,,0.0,181.4,0.0,0.0,30.3,0.2,,0.2,3.5,,,13.7,0.0,0.0,-0.2,4.4,3.0,,,,,258.8,181.4,269.6,213.8,269.6,201.2,266.0,204.8,,,9.0,254.2,,3.5,-18.0,4.998,,,0.654,0.833,0.0,180.68,,,,,,0.0,266.0,3.4545454545454546,2.355844155844156,0.00036111111111111115,0.08433333333333333,408.2,True,2026-03-11 00:08:48 - Flight 2,0.2,0.0
11.06,1.0,9.0,2026-03-11 00:08:59,36.889,-121.40332,263.0,0.0,11.9,-12.5,,,,,0.0,10.3,-0.5,216.1,0.0,22.0,-0.0,-0.01,1.0,,-89.0,77.0,0.0,30.15,1158.0,,,140.0,,,,,0.0,0.0,,,,,,,,,,,,,,,,,,,0.0,181.4,0.0,0.0,30.3,0.2,,0.2,3.5,,,13.7,0.0,0.0,-0.2,4.4,3.0,,,,,258.8,181.4,269.6,212.0,269.6,201.2,266.0,204.8,,,9.0,254.3,,3.5,-18.0,4.998,,,0.654,0.833,0.0,180.68,,,,,,0.0,266.0,3.4545454545454546,2.355844155844156,0.00041666666666666675,0.08433333333333333,408.2,True,2026-03-11 00:08:48 - Flight 2,0.2,0.0
12.06,1.0,9.0,2026-03-11 00:09:00,36.889,-121.40332,262.0,0.0,11.9,-12.5,,,,,0.0,10.3,-0.5,216.1,0.0,21.0,-0.0,-0.01,1.0,,-62.0,77.0,0.0,30.15,1158.0,,,140.0,,,,,0.0,0.0,,,,,,,,,,,,,,,,,,,0.0,181.4,0.0,0.0,30.3,0.2,,0.2,3.5,,,13.7,0.0,0.0,-0.2,4.4,3.0,,,,,258.8,181.4,269.6,212.0,269.6,201.2,266.0,204.8,,,9.0,254.3,,3.5,-18.0,4.998,,,0.654,0.833,0.0,180.68,,,,,,0.0,266.0,3.4545454545454546,2.355844155844156,0.0004722222222222223,0.08433333333333333,408.2,True,2026-03-11 00:08:48 - Flight 2,0.2,0.0
13.06,1.0,9.0,2026-03-11 00:09:01,36.889,-121.40332,261.0,0.0,11.9,-12.5,,,,,0.0,10.3,-0.5,216.1,0.0,21.0,0.0,-0.01,1.0,,-39.0,77.0,0.0,30.15,1158.0,,,140.0,,,,,0.0,0.0,,,,,,,,,,,,,,,,,,,0.0,181.4,0.0,0.0,30.3,0.2,,0.2,3.5,,,13.7,0.0,0.0,-0.2,4.4,3.0,,,,,258.8,181.4,269.6,212.0,269.6,201.2,266.0,204.8,,,9.0,254.3,,3.5,-18.0,4.998,,,0.654,0.833,0.0,180.68,,,,,,0.0,266.0,3.4545454545454546,2.355844155844156,0.0005277777777777778,0.08433333333333333,408.2,True,2026-03-11 00:08:48 - Flight 2,0.2,0.0
14.06,1.0,9.0,2026-03-11 00:09:02,36.889,-121.40332,260.0,0.0,11.9,-12.5,,,,,0.0,10.3,-0.5,216.1,0.0,21.0,0.0,-0.01,1.0,,-21.0,77.0,0.0,30.15,1157.0,,,140.0,,,,,0.0,0.0,,,,,,,,,,,,,,,,,,,0.0,181.4,0.0,0.0,30.3,0.2,,0.2,3.5,,,13.7,0.0,0.0,-0.2,4.4,3.0,,,,,258.8,181.4,269.6,212.0,269.6,201.2,266.0,204.8,,,9.0,254.3,,3.5,-18.0,4.998,,,0.654,0.833,0.0,180.68,,,,,,0.0,266.0,3.4545454545454546,2.355844155844156,0.0005833333333333334,0.08433333333333333,408.2,True,2026-03-11 00:08:48 - Flight 2,0.2,0.0
15.06,1.0,9.0,2026-03-11 00:09:03,36.889,-121.40332,259.0,0.0,11.9,-12.5,,,,,0.0,10.3,-0.5,216.1,0.0,21.0,0.0,-0.01,1.0,,-3.0,75.2,0.0,30.15,1157.0,,,140.0,,,,,0.0,0.0,,,,,,,,,,,,,,,,,,,0.0,181.4,0.0,0.0,30.3,0.2,,0.2,3.5,,,13.7,0.0,0.0,-0.2,4.4,3.0,,,,,258.8,181.4,269.6,212.0,269.6,201.2,266.0,204.8,,,9.0,254.3,,3.5,-18.0,4.998,,,0.656,0.833,0.0,180.68,,,,,,0.0,266.0,3.5372340425531914,2.4122340425531914,0.0006388888888888889,0.08433333333333333,408.2,True,2026-03-11 00:08:48 - Flight 2,0.2,0.0
16.06,1.0,9.0,2026-03-11 00:09:04,36.889,-121.40332,259.0,0.0,11.9,-12.5,,,,,0.0,10.3,-0.5,216.1,0.0,21.0,-0.0,-0.01,1.0,,5.0,75.2,0.0,30.15,1157.0,,,140.0,,,,,0.0,0.0,,,,,,,,,,,,,,,,,,,0.0,181.4,0.0,0.0,30.3,0.2,,0.2,3.6,,,13.7,0.0,0.0,-0.2,4.4,3.0,,,,,258.8,181.4,269.6,212.0,269.6,201.2,266.0,204.8,,,9.0,254.3,,3.6,-18.0,4.998,,,0.656,0.833,0.0,180.68,,,,,,0.0,266.0,3.5372340425531914,2.4122340425531914,0.0006944444444444444,0.08433333333333333,408.2,True,2026-03-11 00:08:48 - Flight 2,0.2,0.0
17.06,1.0,9.0,2026-03-11 00:09:05,36.889,-121.40332,258.0,0.0,11.9,-12.5,,,,,0.0,10.4,-0.5,216.1,0.0,21.0,0.0,-0.01,1.0,,21.0,75.2,0.0,30.15,1148.0,,,140.0,,,,,0.0,0.0,,,,,,,,,,,,,,,,,,,0.0,181.4,0.0,0.0,30.3,0.2,,0.2,3.6,,,13.7,0.0,0.0,-0.2,4.4,3.0,,,,,258.8,181.4,269.6,212.0,269.6,201.2,266.0,204.8,,,9.0,254.3,,3.6,-18.0,4.998,,,0.656,0.833,0.0,180.68,,,,,,0.0,266.0,3.5372340425531914,2.4122340425531914,0.00075,0.08433333333333333,408.2,True,2026-03-11 00:08:48 - Flight 2,0.2,0.0
18.06,1.0,9.0,2026-03-11 00:09:06,36.889,-121.40333,258.0,0.0,11.9,-12.5,,,,,0.0,10.4,-0.5,216.1,0.0,21.0,0.0,-0.01,1.0,,30.0,75.2,0.0,30.15,1148.0,,,140.0,,,,,0.0,0.0,,,,,,,,,,,,,,,,,,,0.0,181.4,0.0,0.0,30.3,0.2,,0.2,3.6,,,13.7,0.0,0.0,-0.2,4.4,3.0,,,,,258.8,181.4,269.6,212.0,269.6,201.2,266.0,204.8,,,9.0,254.3,,3.6,-18.0,4.998,,,0.654,0.833,0.0,180.68,,,,,,0.0,266.0,3.5372340425531914,2.4122340425531914,0.0008055555555555556,0.08433333333333333,408.2,True,2026-03-11 00:08:48 - Flight 2,0.2,0.0
19.06,1.0,9.0,2026-03-11 00:09:07,36.889,-121.40333,258.0,0.1,11.9,-12.5,,,,,0.0,10.4,-0.4,216.1,0.0,21.0,0.0,-0.01,1.0,,-12.0,75.2,0.0,30.15,1148.0,,,140.0,,,,,0.0,0.0,,,,,,,,,,,,,,,,,,,0.0,181.4,0.0,0.0,30.3,0.2,,0.2,3.6,,,13.7,0.0,0.0,-0.2,4.4,3.0,,,,,258.8,181.4,269.6,212.0,267.8,201.2,266.0,204.8,,,9.0,254.3,,3.6,-18.0,4.998,,,0.656,0.833,0.0,180.68,,,,,,0.0,265.55,3.53125,2.4122340425531914,0.0008611111111111111,0.16866666666666666,408.2,True,2026-03-11 00:08:48 - Flight 2,0.2,0.5
20.06,1.0,9.0,2026-03-11 00:09:08,36.889,-121.40333,258.0,0.0,11.9,-12.5,,,,,0.0,10.4,-0.5,216.1,0.0,21.0,0.0,-0.01,1.0,,3.0,75.2,0.0,30.15,1147.0,,,140.0,,,,,0.0,0.0,,,,,,,,,,,,,,,,,,,0.0,181.4,0.0,0.0,30.3,0.2,,0.2,3.6,,,13.7,0.0,0.0,-0.2,4.4,3.0,,,,,258.8,181.4,269.6,212.0,267.8,203.0,266.0,204.8,,,9.0,254.3,,3.6,-18.0,4.998,,,0.656,0.834,0.0,180.68,,,,,,0.0,265.55,3.53125,2.4122340425531914,0.0009166666666666666,0.253,408.2,True,2026-03-11 00:08:48 - Flight 2,0.2,0.0
21.06,1.0,9.0,2026-03-11 00:09:09,36.889,-121.40333,258.0,0.0,11.9,-12.5,,,,,0.0,10.4,-0.5,216.1,0.0,21.0,0.0,-0.01,1.0,,19.0,75.2,0.0,30.15,1147.0,,,140.0,,,,,0.0,0.0,,,,,,,,,,,,,,,,,,,0.0,181.4,0.0,0.0,30.3,0.2,,0.2,3.6,,,13.7,0.0,0.0,-0.2,4.4,3.0,,,,,258.8,181.4,269.6,212.0,267.8,203.0,266.0,204.8,,,9.0,254.2,,3.6,-18.0,4.998,,,0.656,0.833,0.0,180.68,,,,,,0.0,265.55,3.53125,2.4122340425531914,0.0009722222222222222,0.253,408.2,True,2026-03-11 00:08:48 - Flight 2,0.2,0.0
22.06,1.0,9.0,2026-03-11 00:09:10,36.889,-121.40333,258.0,0.0,11.9,-12.5,,,,,0.0,10.4,-0.5,216.1,0.0,21.0,-0.0,-0.01,1.0,,12.0,75.2,0.0,30.15,1147.0,,,140.0,,,,,0.0,0.0,,,,,,,,,,,,,,,,,,,0.0,181.4,0.0,0.0,30.3,0.2,,0.2,3.6,,,13.7,0.0,0.0,-0.2,4.4,3.0,,,,,258.8,181.4,269.6,212.0,267.8,203.0,266.0,204.8,,,9.0,254.2,,3.6,-18.0,4.998,,,0.656,0.833,0.0,180.68,,,,,,0.0,265.55,3.53125,2.4122340425531914,0.0010277777777777778,0.253,408.2,True,2026-03-11 00:08:48 - Flight 2,0.2,0.0
23.06,1.0,9.0,2026-03-11 00:09:11,36.889,-121.40333,258.0,0.0,11.9,-12.5,,,,,0.0,10.4,-0.6,216.1,0.0,21.0,-0.0,-0.01,1.0,,23.0,75.2,0.0,30.15,1147.0,,,140.0,,,,,0.0,0.0,,,,,,,,,,,,,,,,,,,0.0,181.4,0.0,0.0,30.3,0.2,,0.2,3.6,,,13.7,0.0,0.0,-0.2,4.4,3.0,,,,,258.8,181.4,269.6,212.0,267.8,203.0,266.0,204.8,,,9.0,254.2,,3.6,-18.0,4.998,,,0.654,0.833,0.0,180.68,,,,,,0.0,265.55,3.53125,2.4122340425531914,0.0010833333333333333,0.253,408.2,True,2026-03-11 00:08:48 - Flight 2,0.2,0.0
24.06,1.0,9.0,2026-03-11 00:09:12,36.889,-121.40333,258.0,0.0,11.9,-12.5,,,,,0.0,10.3,-0.6,216.2,0.0,21.0,-0.0,-0.01,1.0,,-6.0,75.2,0.0,30.15,1146.0,,,140.0,,,,,0.0,0.0,,,,,,,,,,,,,,,,,,,0.0,181.4,0.0,0.0,30.3,0.2,,0.2,3.6,,,13.7,0.0,0.0,-0.2,4.4,3.0,,,,,258.8,181.4,269.6,212.0,267.8,203.0,266.0,204.8,,,9.0,254.2,,3.6,-18.0,4.998,,,0.654,0.833,0.0,180.68,,,,,,0.0,265.55,3.53125,2.4122340425531914,0.001138888888888889,0.253,408.2,True,2026-03-11 00:08:48 - Flight 2,0.2,0.0
25.06,1.0,9.0,2026-03-11 00:09:13,36.88901,-121.40333,259.0,0.1,11.9,-12.5,,,,,0.0,10.3,-0.5,216.1,0.0,21.0,-0.0,-0.01,1.0,,-33.0,75.2,0.0,30.15,1146.0,,,140.0,,,,,0.0,0.0,,,,,,,,,,,,,,,,,,,0.0,181.4,0.0,0.0,30.3,0.2,,0.2,3.6,,,13.7,0.0,0.0,-0.2,4.4,3.0,,,,,258.8,183.2,269.6,212.0,267.8,203.0,266.0,204.8,,,9.0,254.2,,3.6,-18.0,4.998,,,0.656,0.834,0.0,180.68,,,,,,0.0,265.55,3.53125,2.4122340425531914,0.0011944444444444444,0.3373333333333333,408.2,True,2026-03-11 00:08:48 - Flight 2,0.2,0.5
26.06,1.0,9.0,2026-03-11 00:09:14,36.88901,-121.40333,259.0,0.0,11.9,-12.5,,,,,0.0,10.3,-0.5,216.1,0.0,21.0,-0.0,-0.01,1.0,,-57.0,75.2,0.0,30.15,1146.0,,,140.0,,,,,0.0,0.0,,,,,,,,,,,,,,,,,,,0.0,181.4,0.0,0.0,30.3,0.2,,0.2,3.6,,,13.7,0.0,0.0,-0.2,4.4,3.0,,,,,258.8,183.2,269.6,212.0,267.8,203.0,266.0,204.8,,,9.0,254.2,,3.6,-18.0,4.998,,,0.656,0.834,0.0,180.68,,,,,,0.0,265.55,3.53125,2.4122340425531914,0.00125,0.42166666666666663,408.2,True,2026-03-11 00:08:48 - Flight 2,0.2,0.0
27.06,1.0,9.0,2026-03-11 00:09:15,36.88901,-121.40333,259.0,0.0,11.9,-12.5,,,,,0.0,10.3,-0.5,216.1,0.0,21.0,-0.0,-0.01,1.0,,-60.0,75.2,0.0,30.15,1145.0,,,140.0,,,,,0.0,0.0,,,,,,,,,,,,,,,,,,,0.0,181.4,0.0,0.0,30.3,0.2,,0.2,3.6,,,13.7,0.0,0.0,-0.2,4.4,3.0,,,,,258.8,183.2,269.6,212.0,267.8,203.0,266.0,204.8,,,9.0,254.2,,3.6,-18.0,4.998,,,0.656,0.833,0.0,180.68,,,,,,0.0,265.55,3.53125,2.4122340425531914,0.0013055555555555555,0.42166666666666663,408.2,True,2026-03-11 00:08:48 - Flight 2,0.2,0.0
28.06,1.0,9.0,2026-03-11 00:09:16,36.88901,-121.40333,259.0,0.0,11.9,-12.5,,,,,0.0,10.4,-0.6,216.2,0.0,20.0,-0.0,-0.01,1.0,,-66.0,75.2,0.0,30.15,1144.0,,,140.0,,,,,0.0,0.0,,,,,,,,,,,,,,,,,,,0.0,181.4,0.0,0.0,30.3,0.2,,0.2,3.6,,,13.7,0.0,0.0,-0.2,4.4,3.0,,,,,258.8,183.2,269.6,212.0,267.8,203.0,266.0,204.8,,,9.0,254.2,,3.6,-18.0,4.998,,,0.654,0.834,0.0,180.68,,,,,,0.0,265.55,3.53125,2.4122340425531914,0.0013611111111111111,0.42166666666666663,408.2,True,2026-03-11 00:08:48 - Flight 2,0.2,0.0
29.06,1.0,9.0,2026-03-11 00:09:17,36.88901,-121.40333,259.0,0.0,11.9,-12.5,,,,,0.0,10.4,-0.6,216.2,0.0,19.0,0.0,-0.01,1.0,,-58.0,75.2,0.0,30.15,1143.0,,,140.0,,,,,0.0,0.0,,,,,,,,,,,,,,,,,,,0.0,181.4,0.0,0.0,30.3,0.2,,0.2,3.6,,,13.7,0.0,0.0,-0.2,4.4,3.0,,,,,258.8,183.2,269.6,212.0,267.8,203.0,266.0,204.8,,,9.0,254.2,,3.6,-18.0,4.998,,,0.654,0.833,0.0,180.68,,,,,,0.0,265.55,3.53125,2.4122340425531914,0.0014166666666666668,0.42166666666666663,408.2,True,2026-03-11 00:08:48 - Flight 2,0.2,0.0
30.06,1.0,9.0,2026-03-11 00:09:18,36.88901,-121.40333,260.0,0.0,11.9,-12.5,,,,,0.0,10.4,-0.6,216.2,0.0,17.0,-0.0,-0.01,1.0,,-60.0,75.2,0.0,30.15,1141.0,,,140.0,,,,,0.0,0.0,,,,,,,,,,,,,,,,,,,0.0,181.4,0.0,0.0,30.3,0.2,,0.2,3.6,,,13.7,0.0,0.0,-0.2,4.4,3.0,,,,,258.8,183.2,269.6,212.0,267.8,203.0,266.0,204.8,,,9.0,254.2,,3.6,-18.0,4.998,,,0.654,0.833,0.0,180.68,,,,,,0.0,265.55,3.53125,2.4122340425531914,0.0014722222222222222,0.42166666666666663,408.2,True,2026-03-11 00:08:48 - Flight 2,0.2,0.0
31.06,1.0,9.0,2026-03-11 00:09:19,36.88901,-121.40333,260.0,0.0,11.9,-12.5,,,,,0.0,10.4,-0.6,216.3,0.0,15.0,0.0,-0.01,1.0,,-115.0,75.2,0.0,30.15,1138.0,,,140.0,,,,,0.0,0.0,,,,,,,,,,,,,,,,,,,0.0,181.4,0.0,0.0,30.3,0.2,,0.2,3.6,,,13.7,0.0,0.0,-0.2,4.4,3.0,,,,,258.8,183.2,267.8,212.0,267.8,203.0,266.0,204.8,,,9.0,254.2,,3.6,-18.0,4.998,,,0.654,0.833,0.0,180.68,,,,,,0.0,265.09999999999997,3.5252659574468077,2.4122340425531914,0.0015277777777777779,0.42166666666666663,408.2,True,2026-03-11 00:08:48 - Flight 2,0.2,0.0
32.06,1.0,9.0,2026-03-11 00:09:20,36.88901,-121.40333,260.0,0.0,11.9,-12.5,,,,,0.0,10.4,-0.6,216.3,0.0,12.0,0.0,-0.01,1.0,,-125.0,75.2,0.0,30.15,1135.0,,,140.0,,,,,0.0,0.0,,,,,,,,,,,,,,,,,,,0.0,181.4,0.0,0.0,30.3,0.2,,0.2,3.6,,,13.7,0.0,0.0,-0.2,4.4,3.0,,,,,258.8,183.2,267.8,212.0,267.8,203.0,266.0,204.8,,,9.0,254.2,,3.6,-18.0,4.998,,,0.654,0.833,0.0,180.68,,,,,,0.0,265.09999999999997,3.5252659574468077,2.4122340425531914,0.0015833333333333335,0.42166666666666663,408.2,True,2026-03-11 00:08:48 - Flight 2,0.2,0.0
33.06,1.0,9.0,2026-03-11 00:09:21,36.889,-121.40333,260.0,0.0,11.9,-12.5,,,,,0.0,10.4,-0.6,216.3,0.0,11.0,0.0,-0.01,1.0,,-104.0,75.2,0.0,30.15,1134.0,,,140.0,,,,,0.0,0.0,,,,,,,,,,,,,,,,,,,0.0,181.4,0.0,0.0,30.3,0.2,,0.2,3.6,,,13.7,0.0,0.0,-0.2,4.4,3.0,,,,,258.8,183.2,267.8,212.0,267.8,203.0,266.0,204.8,,,9.0,254.2,,3.6,-18.0,4.998,,,0.656,0.833,0.0,180.68,,,,,,0.0,265.09999999999997,3.5252659574468077,2.4122340425531914,0.0016388888888888892,0.42166666666666663,408.2,True,2026-03-11 00:08:48 - Flight 2,0.2,0.0
34.06,1.0,9.0,2026-03-11 00:09:22,36.889,-121.40333,261.0,0.0,11.9,-12.5,,,,,0.0,10.4,-0.6,216.2,0.0,10.0,-0.0,-0.01,1.0,,-105.0,75.2,0.0,30.15,1132.0,,,140.0,,,,,0.0,0.0,,,,,,,,,,,,,,,,,,,0.0,181.4,0.0,0.0,30.3,0.2,,0.2,3.6,,,13.7,0.0,0.0,-0.2,4.4,3.0,,,,,258.8,183.2,267.8,212.0,267.8,203.0,266.0,204.8,,,9.0,254.2,,3.6,-18.0,4.998,,,0.656,0.833,0.0,180.68,,,,,,0.0,265.09999999999997,3.5252659574468077,2.4122340425531914,0.0016944444444444446,0.42166666666666663,408.2,True,2026-03-11 00:08:48 - Flight 2,0.2,0.0
35.06,1.0,9.0,2026-03-11 00:09:23,36.889,-121.40333,261.0,0.0,11.9,-12.5,,,,,0.0,10.4,-0.5,216.3,0.0,9.0,-0.0,-0.01,1.0,,-91.0,75.2,0.0,30.15,1131.0,,,140.0,,,,,0.0,0.0,,,,,,,,,,,,,,,,,,,0.0,181.4,0.0,0.0,30.3,0.2,,0.2,3.7,,,13.7,0.0,0.0,-0.2,4.4,3.0,,,,,258.8,183.2,267.8,212.0,267.8,203.0,266.0,204.8,,,9.0,254.2,,3.7,-18.0,4.998,,,0.656,0.833,0.0,180.68,,,,,,0.0,265.09999999999997,3.5252659574468077,2.4122340425531914,0.0017500000000000003,0.42166666666666663,408.2,True,2026-03-11 00:08:48 - Flight 2,0.2,0.0
36.06,1.0,9.0,2026-03-11 00:09:24,36.889,-121.40333,261.0,0.0,11.9,-12.5,,,,,0.0,10.5,-0.5,216.3,0.0,7.0,0.0,-0.01,1.0,,-76.0,75.2,0.0,30.15,1129.0,,,140.0,,,,,0.0,0.0,,,,,,,,,,,,,,,,,,,0.0,181.4,0.0,0.0,30.3,0.2,,0.2,3.7,,,13.7,0.0,0.0,-0.2,4.4,3.0,,,,,258.8,183.2,267.8,212.0,267.8,203.0,264.2,204.8,,,9.0,254.2,,3.7,-18.0,4.998,,,0.656,0.834,0.0,180.68,,,,,,0.0,264.65,3.5192819148936167,2.4122340425531914,0.0018055555555555557,0.42166666666666663,408.2,True,2026-03-11 00:08:48 - Flight 2,0.2,0.0
37.06,1.0,9.0,2026-03-11 00:09:25,36.889,-121.40333,261.0,0.0,11.9,-12.5,,,,,0.0,10.4,-0.5,216.3,0.0,7.0,0.0,-0.01,1.0,,-54.0,75.2,0.0,30.15,1119.0,,,140.0,,,,,0.0,0.0,,,,,,,,,,,,,,,,,,,0.0,181.4,0.0,0.0,30.3,0.2,,0.2,3.7,,,13.7,0.0,0.0,-0.2,4.4,3.0,,,,,257.0,183.2,267.8,212.0,267.8,203.0,264.2,204.8,,,9.0,254.2,,3.7,-18.0,4.998,,,0.654,0.833,0.0,180.68,,,,,,0.0,264.2,3.5132978723404253,2.4122340425531914,0.0018611111111111113,0.42166666666666663,408.2,True,2026-03-11 00:08:48 - Flight 2,0.2,0.0
38.06,1.0,9.0,2026-03-11 00:09:26,36.889,-121.40333,262.0,0.0,11.9,-12.5,,,,,0.0,10.5,-0.6,216.3,0.0,7.0,0.0,-0.01,1.0,,-54.0,75.2,0.0,30.15,1118.0,,,140.0,,,,,0.0,0.0,,,,,,,,,,,,,,,,,,,0.0,181.4,0.0,0.0,30.3,0.2,,0.2,3.7,,,13.7,0.0,0.0,-0.2,4.4,3.0,,,,,258.8,183.2,267.8,212.0,267.8,203.0,266.0,204.8,,,9.0,254.2,,3.7,-18.0,4.998,,,0.654,0.833,0.0,180.68,,,,,,0.0,265.09999999999997,3.5252659574468077,2.4122340425531914,0.001916666666666667,0.42166666666666663,408.2,True,2026-03-11 00:08:48 - Flight 2,0.2,0.0
39.06,1.0,9.0,2026-03-11 00:09:27,36.889,-121.40333,262.0,0.0,11.9,-12.5,,,,,0.0,10.5,-0.5,216.3,0.0,5.0,-0.0,-0.01,1.0,,-75.0,75.2,0.0,30.15,1116.0,,,140.0,,,,,0.0,0.0,,,,,,,,,,,,,,,,,,,0.0,181.4,0.0,0.0,30.3,0.2,,0.2,3.7,,,13.7,0.0,0.0,-0.2,4.4,3.0,,,,,258.8,183.2,267.8,212.0,267.8,204.8,266.0,204.8,,,9.0,254.2,,3.7,-18.0,4.998,,,0.656,0.833,0.0,180.68,,,,,,0.0,265.09999999999997,3.5252659574468077,2.4122340425531914,0.0019722222222222224,0.42166666666666663,408.2,True,2026-03-11 00:08:48 - Flight 2,0.2,0.0
40.06,1.0,9.0,2026-03-11 00:09:28,36.889,-121.40333,262.0,0.0,11.9,-12.5,,,,,0.0,10.5,-0.5,216.3,0.0,4.0,0.0,-0.01,1.0,,-64.0,75.2,0.0,30.15,1115.0,,,140.0,,,,,0.0,0.0,,,,,,,,,,,,,,,,,,,0.0,181.4,0.0,0.0,30.3,0.2,,0.2,3.7,,,13.7,0.0,0.0,-0.2,4.4,3.0,,,,,258.8,183.2,267.8,212.0,267.8,204.8,266.0,204.8,,,9.0,254.2,,3.7,-18.0,4.998,,,0.654,0.833,0.0,180.68,,,,,,0.0,265.09999999999997,3.5252659574468077,2.4122340425531914,0.002027777777777778,0.42166666666666663,408.2,True,2026-03-11 00:08:48 - Flight 2,0.2,0.0
41.06,1.0,9.0,2026-03-11 00:09:29,36.889,-121.40332,262.0,0.0,11.9,-12.5,,,,,0.0,10.5,-0.5,216.4,0.0,4.0,0.0,-0.01,1.0,,-38.0,75.2,0.0,30.15,1115.0,,,140.0,,,,,0.0,0.0,,,,,,,,,,,,,,,,,,,0.0,181.4,0.0,0.0,30.3,0.2,,0.2,3.7,,,13.7,0.0,0.0,-0.2,4.4,3.0,,,,,258.8,183.2,267.8,212.0,267.8,204.8,264.2,204.8,,,9.0,254.2,,3.7,-18.0,4.998,,,0.654,0.833,0.0,180.68,,,,,,0.0,264.65,3.5192819148936167,2.4122340425531914,0.0020833333333333337,0.42166666666666663,408.2,True,2026-03-11 00:08:48 - Flight 2,0.2,0.0
42.06,1.0,9.0,2026-03-11 00:09:30,36.889,-121.40332,263.0,0.0,11.9,-12.5,,,,,0.0,10.5,-0.6,216.4,0.0,2.0,0.0,-0.01,1.0,,-63.0,75.2,0.0,30.15,1113.0,,,140.0,,,,,0.0,0.0,,,,,,,,,,,,,,,,,,,0.0,181.4,0.0,0.0,30.3,0.2,,0.2,3.7,,,13.7,0.0,0.0,-0.2,4.4,3.0,,,,,258.8,183.2,267.8,212.0,267.8,204.8,264.2,204.8,,,9.0,227.8,,3.7,-18.0,4.998,,,0.654,0.833,0.0,180.68,,,,,,0.0,264.65,3.5192819148936167,2.4122340425531914,0.002138888888888889,0.42166666666666663,408.2,True,2026-03-11 00:08:48 - Flight 2,0.2,0.0
43.06,1.0,9.0,2026-03-11 00:09:31,36.889,-121.40332,263.0,0.0,11.9,-12.5,,,,,0.0,10.5,-0.6,216.4,0.0,1.0,0.0,-0.01,1.0,,-82.0,75.2,0.0,30.15,1111.0,,,140.0,,,,,0.0,0.0,,,,,,,,,,,,,,,,,,,0.0,181.4,0.0,0.0,30.3,0.2,,0.2,3.7,,,13.7,0.0,0.0,-0.2,4.4,3.0,,,,,258.8,185.0,267.8,212.0,267.8,204.8,264.2,204.8,,,9.0,177.3,,3.7,-18.0,4.998,,,0.654,0.833,0.0,180.68,,,,,,0.0,264.65,3.5192819148936167,2.4122340425531914,0.0021944444444444446,0.42166666666666663,408.2,True,2026-03-11 00:08:48 - Flight 2,0.2,0.0
44.06,1.0,9.0,2026-03-11 00:09:32,36.889,-121.40332,263.0,0.0,11.9,-12.5,,,,,0.0,10.4,-0.6,216.4,0.0,0.0,0.0,-0.01,1.0,,-76.0,75.2,0.0,30.15,1110.0,,,140.0,,,,,0.0,0.0,,,,,,,,,,,,,,,,,,,0.0,181.4,0.0,0.0,30.3,0.2,,0.2,3.7,,,13.7,0.0,0.0,-0.2,4.4,3.0,,,,,257.0,185.0,267.8,212.0,267.8,204.8,264.2,204.8,,,9.0,138.0,,3.7,-18.0,4.998,,,0.654,0.833,0.0,180.68,,,,,,0.0,264.2,3.5132978723404253,2.4122340425531914,0.0022500000000000003,0.42166666666666663,408.2,True,2026-03-11 00:08:48 - Flight 2,0.2,0.0
45.06,1.0,9.0,2026-03-11 00:09:33,36.889,-121.40332,263.0,0.0,11.9,-12.5,,,,,0.0,10.4,-0.5,216.3,0.0,0.0,-0.0,-0.01,1.0,,-64.0,75.2,0.0,30.15,1110.0,,,140.0,,,,,0.0,0.0,,,,,,,,,,,,,,,,,,,0.0,181.4,0.0,0.0,30.3,0.2,,0.2,3.7,,,13.7,0.0,0.0,-0.2,4.4,3.0,,,,,257.0,185.0,267.8,212.0,266.0,204.8,264.2,204.8,,,9.0,107.5,,3.7,-18.0,4.998,,,0.654,0.833,0.0,180.68,,,,,,0.0,263.75,3.507313829787234,2.4122340425531914,0.002305555555555556,0.42166666666666663,408.2,True,2026-03-11 00:08:48 - Flight 2,0.2,0.0
46.06,1.0,9.0,2026-03-11 00:09:34,36.889,-121.40332,263.0,0.0,11.9,-12.5,,,,,0.0,10.5,-0.5,216.3,0.0,-1.0,-0.0,-0.01,1.0,,-61.0,75.2,0.0,30.15,1109.0,,,140.0,,,,,0.0,0.0,,,,,,,,,,,,,,,,,,,0.0,181.4,0.0,0.0,30.3,0.2,,0.2,3.7,,,13.7,0.0,0.0,-0.2,4.4,3.0,,,,,257.0,185.0,267.8,212.0,266.0,204.8,264.2,204.8,,,9.0,83.8,,3.7,-18.0,4.998,,,0.654,0.833,0.0,180.68,,,,,,0.0,263.75,3.507313829787234,2.4122340425531914,0.0023611111111111116,0.42166666666666663,408.2,True,2026-03-11 00:08:48 - Flight 2,0.2,0.0
47.06,1.0,9.0,2026-03-11 00:09:35,36.889,-121.40332,263.0,0.0,11.9,-12.5,,,,,0.0,10.4,-0.6,216.3,0.0,-1.0,-0.0,-0.01,1.0,,-34.0,75.2,0.0,30.15,1098.0,,,140.0,,,,,0.0,0.0,,,,,,,,,,,,,,,,,,,0.0,181.4,0.0,0.0,30.3,0.2,,0.2,3.7,,,13.7,0.0,0.0,-0.2,4.4,3.0,,,,,257.0,185.0,267.8,212.0,266.0,204.8,264.2,204.8,,,9.0,65.3,,3.7,-18.0,4.998,,,0.656,0.833,0.0,180.68,,,,,,0.0,263.75,3.507313829787234,2.4122340425531914,0.002416666666666667,0.42166666666666663,408.2,True,2026-03-11 00:08:48 - Flight 2,0.2,0.0
48.06,1.0,9.0,2026-03-11 00:09:36,36.889,-121.40333,263.0,0.0,11.9,-12.5,,,,,0.0,10.4,-0.6,216.3,0.0,-1.0,0.0,-0.01,1.0,,-5.0,75.2,0.0,30.15,1098.0,,,140.0,,,,,0.0,0.0,,,,,,,,,,,,,,,,,,,0.0,181.4,0.0,0.0,30.3,0.2,,0.2,3.7,,,13.7,0.0,0.0,-0.2,4.4,3.0,,,,,257.0,185.0,267.8,212.0,266.0,204.8,264.2,204.8,,,9.0,51.0,,3.7,-18.0,4.998,,,0.654,0.833,0.0,180.68,,,,,,0.0,263.75,3.507313829787234,2.4122340425531914,0.0024722222222222224,0.42166666666666663,408.2,True,2026-03-11 00:08:48 - Flight 2,0.2,0.0
49.06,1.0,9.0,2026-03-11 00:09:37,36.889,-121.40333,263.0,0.0,11.9,-12.5,,,,,0.0,10.4,-0.5,216.4,0.0,-1.0,0.0,-0.01,1.0,,10.0,75.2,0.0,30.15,1098.0,,,140.0,,,,,0.0,0.0,,,,,,,,,,,,,,,,,,,0.0,181.4,0.0,0.0,30.3,0.2,,0.2,3.7,,,13.7,0.0,0.0,-0.2,4.4,3.0,,,,,257.0,185.0,267.8,212.0,266.0,204.8,264.2,204.8,,,9.0,39.8,,3.7,-18.0,4.998,,,0.654,0.833,0.0,180.68,,,,,,0.0,263.75,3.507313829787234,2.4122340425531914,0.002527777777777778,0.42166666666666663,408.2,True,2026-03-11 00:08:48 - Flight 2,0.2,0.0
50.06,1.0,9.0,2026-03-11 00:09:38,36.889,-121.40333,263.0,0.0,11.9,-12.5,,,,,0.0,10.4,-0.5,216.3,0.0,-1.0,0.0,-0.01,1.0,,24.0,75.2,0.0,30.15,1090.0,,,140.0,,,,,0.0,0.0,,,,,,,,,,,,,,,,,,,0.0,181.4,0.0,0.0,30.3,0.2,,0.2,3.8,,,13.7,0.0,0.0,-0.2,4.4,3.0,,,,,257.0,185.0,267.8,212.0,266.0,204.8,264.2,204.8,,,9.0,31.2,,3.8,-18.0,4.998,,,0.654,0.833,0.0,180.68,,,,,,0.0,263.75,3.507313829787234,2.4122340425531914,0.0025833333333333337,0.42166666666666663,408.2,True,2026-03-11 00:08:48 - Flight 2,0.2,0.0
51.06,1.0,9.0,2026-03-11 00:09:39,36.889,-121.40333,263.0,0.0,11.9,-12.5,,,,,0.0,10.4,-0.5,216.3,0.0,-1.0,0.0,-0.01,1.0,,8.0,75.2,0.0,30.15,1090.0,,,140.0,,,,,0.0,0.0,,,,,,,,,,,,,,,,,,,0.0,181.4,0.0,0.0,30.3,0.2,,0.2,3.8,,,13.7,0.0,0.0,-0.2,4.4,3.0,,,,,257.0,185.0,267.8,212.0,266.0,204.8,264.2,204.8,,,9.0,24.5,,3.8,-18.0,4.998,,,0.654,0.833,0.0,180.68,,,,,,0.0,263.75,3.507313829787234,2.4122340425531914,0.002638888888888889,0.42166666666666663,408.2,True,2026-03-11 00:08:48 - Flight 2,0.2,0.0
52.06,1.0,9.0,2026-03-11 00:09:40,36.889,-121.40333,263.0,0.0,11.9,-12.5,,,,,0.0,10.4,-0.5,216.3,0.0,-1.0,0.0,-0.01,1.0,,15.0,75.2,0.0,30.15,1090.0,,,140.0,,,,,0.0,0.0,,,,,,,,,,,,,,,,,,,0.0,181.4,0.0,0.0,30.3,0.2,,0.2,3.8,,,13.7,0.0,0.0,-0.2,4.4,3.0,,,,,257.0,185.0,267.8,212.0,266.0,204.8,264.2,204.8,,,9.0,19.2,,3.8,-18.0,4.998,,,0.654,0.833,0.0,180.68,,,,,,0.0,263.75,3.507313829787234,2.4122340425531914,0.0026944444444444446,0.42166666666666663,408.2,True,2026-03-11 00:08:48 - Flight 2,0.2,0.0
53.06,1.0,9.0,2026-03-11 00:09:41,36.889,-121.40333,262.0,0.0,11.9,-12.5,,,,,0.0,10.4,-0.5,216.3,0.0,-1.0,0.0,-0.01,1.0,,35.0,75.2,0.0,30.15,1089.0,,,140.0,,,,,0.0,0.0,,,,,,,,,,,,,,,,,,,0.0,181.4,0.0,0.0,30.3,0.2,,0.2,3.8,,,13.7,0.0,0.0,-0.2,4.4,3.0,,,,,257.0,185.0,267.8,212.0,266.0,204.8,264.2,204.8,,,9.0,15.2,,3.8,-18.0,4.998,,,0.654,0.833,0.0,180.68,,,,,,0.0,263.75,3.507313829787234,2.4122340425531914,0.0027500000000000003,0.42166666666666663,408.2,True,2026-03-11 00:08:48 - Flight 2,0.2,0.0
54.06,1.0,9.0,2026-03-11 00:09:42,36.889,-121.40333,262.0,0.0,11.9,-12.5,,,,,0.0,10.4,-0.5,216.3,0.0,-1.0,0.0,-0.01,1.0,,56.0,75.2,0.0,30.15,1089.0,,,140.0,,,,,0.0,0.0,,,,,,,,,,,,,,,,,,,0.0,181.4,0.0,0.0,30.3,0.2,,0.2,3.8,,,13.7,0.0,0.0,-0.2,4.4,3.0,,,,,257.0,185.0,267.8,212.0,266.0,204.8,264.2,204.8,,,9.0,12.0,,3.8,-18.0,4.998,,,0.656,0.833,0.0,180.68,,,,,,0.0,263.75,3.507313829787234,2.4122340425531914,0.002805555555555556,0.42166666666666663,408.2,True,2026-03-11 00:08:48 - Flight 2,0.2,0.0
55.06,1.0,9.0,2026-03-11 00:09:43,36.889,-121.40333,262.0,0.0,11.9,-12.5,,,,,0.0,10.5,-0.5,216.3,0.0,-1.0,0.0,-0.01,1.0,,20.0,75.2,0.0,30.15,1089.0,,,140.0,,,,,0.0,0.0,,,,,,,,,,,,,,,,,,,0.0,181.4,0.0,0.0,30.3,0.2,,0.2,3.8,,,13.7,0.0,0.0,-0.2,4.4,3.0,,,,,257.0,185.0,267.8,212.0,266.0,204.8,264.2,204.8,,,9.0,9.5,,3.8,-18.0,4.998,,,0.656,0.833,0.0,180.68,,,,,,0.0,263.75,3.507313829787234,2.4122340425531914,0.0028611111111111116,0.42166666666666663,408.2,True,2026-03-11 00:08:48 - Flight 2,0.2,0.0
56.06,1.0,9.0,2026-03-11 00:09:44,36.889,-121.40333,262.0,0.0,11.9,-12.5,,,,,0.0,10.5,-0.6,216.3,0.0,-1.0,0.0,-0.01,1.0,,16.0,75.2,0.0,30.15,1089.0,,,140.0,,,,,0.0,0.0,,,,,,,,,,,,,,,,,,,0.0,181.4,0.0,0.0,30.3,0.2,,0.2,3.8,,,13.7,0.0,0.0,-0.2,4.4,3.0,,,,,257.0,185.0,267.8,212.0,266.0,204.8,264.2,204.8,,,9.0,7.6,,3.8,-18.0,4.998,,,0.654,0.833,0.0,180.68,,,,,,0.0,263.75,3.507313829787234,2.4122340425531914,0.002916666666666667,0.42166666666666663,408.2,True,2026-03-11 00:08:48 - Flight 2,0.2,0.0
57.06,1.0,9.0,2026-03-11 00:09:45,36.889,-121.40333,262.0,0.0,11.9,-12.5,,,,,0.0,10.5,-0.6,216.3,0.0,-1.0,0.0,-0.01,1.0,,44.0,75.2,0.0,30.15,1089.0,,,140.0,,,,,0.0,0.0,,,,,,,,,,,,,,,,,,,0.0,181.4,0.0,0.0,30.3,0.2,,0.2,3.8,,,13.7,0.0,0.0,-0.2,4.4,3.0,,,,,257.0,185.0,267.8,212.0,266.0,206.6,264.2,204.8,,,9.0,6.1,,3.8,-18.0,4.998,,,0.654,0.833,0.0,180.68,,,,,,0.0,263.75,3.507313829787234,2.4122340425531914,0.0029722222222222225,0.42166666666666663,408.2,True,2026-03-11 00:08:48 - Flight 2,0.2,0.0
58.06,1.0,9.0,2026-03-11 00:09:46,36.889,-121.40333,262.0,0.0,11.9,-12.5,,,,,0.0,10.5,-0.5,216.3,0.0,-1.0,0.0,-0.01,1.0,,27.0,75.2,0.0,30.15,1089.0,,,140.0,,,,,0.0,0.0,,,,,,,,,,,,,,,,,,,0.0,181.4,0.0,0.0,30.3,0.2,,0.2,3.8,,,13.7,0.0,0.0,-0.2,4.4,3.0,,,,,257.0,185.0,267.8,212.0,266.0,206.6,264.2,204.8,,,9.0,5.0,,3.8,-18.0,4.998,,,0.656,0.833,0.0,180.68,,,,,,0.0,263.75,3.507313829787234,2.4122340425531914,0.003027777777777778,0.42166666666666663,408.2,True,2026-03-11 00:08:48 - Flight 2,0.2,0.0
59.06,1.0,9.0,2026-03-11 00:09:47,36.889,-121.40333,262.0,0.0,11.9,-12.5,,,,,0.0,10.5,-0.6,216.3,0.0,-1.0,-0.0,-0.01,1.0,,-4.0,75.2,0.0,30.15,1089.0,,,140.0,,,,,0.0,0.0,,,,,,,,,,,,,,,,,,,0.0,181.4,0.0,0.0,30.3,0.2,,0.2,3.8,,,13.7,0.0,0.0,-0.2,4.4,3.0,,,,,257.0,185.0,266.0,212.0,266.0,206.6,264.2,204.8,,,9.0,4.1,,3.8,-18.0,4.998,,,0.654,0.833,0.0,180.86,,,,,,0.0,263.3,3.5013297872340425,2.4122340425531914,0.0030833333333333338,0.42166666666666663,408.2,True,2026-03-11 00:08:48 - Flight 2,0.2,0.0
60.06,1.0,9.0,2026-03-11 00:09:48,36.889,-121.40333,262.0,0.0,11.9,-12.5,,,,,0.0,10.5,-0.6,216.3,0.0,-1.0,-0.0,-0.01,1.0,,5.0,75.2,0.0,30.15,1088.0,,,140.0,,,,,0.0,0.0,,,,,,,,,,,,,,,,,,,0.0,181.4,0.0,0.0,30.3,0.2,,0.2,3.8,,,13.7,0.0,0.0,-0.2,4.4,3.0,,,,,257.0,185.0,267.8,212.0,266.0,206.6,264.2,204.8,,,9.0,3.4,,3.8,-18.0,4.998,,,0.654,0.833,0.0,180.68,,,,,,0.0,263.75,3.507313829787234,2.4122340425531914,0.003138888888888889,0.42166666666666663,408.2,True,2026-03-11 00:08:48 - Flight 2,0.2,0.0
61.06,1.0,9.0,2026-03-11 00:09:49,36.88899,-121.40332,263.0,0.0,11.9,-12.5,,,,,0.0,10.5,-0.5,216.3,0.0,-1.0,-0.0,-0.01,1.0,,-10.0,75.2,0.0,30.15,1088.0,,,140.0,,,,,0.0,0.0,,,,,,,,,,,,,,,,,,,0.0,181.4,0.0,0.0,30.3,0.2,,0.2,3.8,,,13.7,0.0,0.0,-0.2,4.4,3.0,,,,,257.0,185.0,267.8,212.0,266.0,206.6,264.2,204.8,,,9.0,2.9,,3.8,-18.0,4.998,,,0.656,0.833,0.0,180.86,,,,,,0.0,263.75,3.507313829787234,2.4122340425531914,0.0031944444444444446,0.42166666666666663,408.2,True,2026-03-11 00:08:48 - Flight 2,0.2,0.0
62.06,1.0,9.0,2026-03-11 00:09:50,36.88899,-121.40332,263.0,0.0,11.9,-12.5,,,,,0.0,10.5,-0.6,216.4,0.0,-1.0,-0.0,-0.01,1.0,,-8.0,75.2,0.0,30.15,1088.0,,,140.0,,,,,0.0,0.0,,,,,,,,,,,,,,,,,,,0.0,181.4,0.0,0.0,30.3,0.2,,0.2,3.8,,,13.7,0.0,0.0,-0.2,4.4,3.0,,,,,257.0,185.0,267.8,212.0,266.0,206.6,264.2,204.8,,,9.0,2.5,,3.8,-18.0,4.998,,,0.654,0.833,0.0,180.68,,,,,,0.0,263.75,3.507313829787234,2.4122340425531914,0.0032500000000000003,0.42166666666666663,408.2,True,2026-03-11 00:08:48 - Flight 2,0.2,0.0
63.06,1.0,9.0,2026-03-11 00:09:51,36.88898,-121.40332,263.0,0.0,11.9,-12.5,,,,,0.0,10.5,-0.6,216.4,0.0,-1.0,0.0,-0.01,1.0,,-29.0,75.2,0.0,30.15,1079.0,,,140.0,,,,,0.0,0.0,,,,,,,,,,,,,,,,,,,0.0,181.4,0.0,0.0,30.3,0.2,,0.2,3.8,,,42.0,0.0,0.0,-0.2,4.4,3.0,,,,,257.0,186.8,267.8,212.0,266.0,206.6,264.2,204.8,,,9.0,2.1,,3.8,-18.0,4.998,,,0.654,0.833,0.0,180.86,,,,,,0.0,263.75,3.507313829787234,2.4122340425531914,0.003305555555555556,0.42166666666666663,408.2,True,2026-03-11 00:08:48 - Flight 2,0.2,0.0
64.06,1.0,9.0,2026-03-11 00:09:52,36.88898,-121.40332,263.0,0.0,11.9,-12.5,,,,,0.0,10.5,-0.6,216.3,0.0,-1.0,0.0,-0.01,1.0,,-7.0,75.2,0.0,30.15,1079.0,,,140.0,,,,,0.0,0.0,,,,,,,,,,,,,,,,,,,0.0,181.4,0.0,0.0,30.3,0.1,,0.1,3.8,,,42.0,0.0,0.0,-0.2,4.4,3.0,,,,,257.0,186.8,267.8,212.0,266.0,206.6,264.2,204.8,,,9.0,1.9,,3.8,-18.0,4.998,,,0.656,0.833,0.0,180.86,,,,,,0.0,263.75,3.507313829787234,2.4122340425531914,0.0033472222222222224,0.42166666666666663,408.2,True,2026-03-11 00:08:48 - Flight 2,0.1,0.0
65.06,1.0,9.0,2026-03-11 00:09:53,36.88898,-121.40332,262.0,0.0,11.9,-12.5,,,,,0.0,10.4,-0.6,216.4,0.0,-1.0,0.0,-0.01,1.0,,2.0,75.2,0.0,30.15,1079.0,,,140.0,,,,,0.0,0.0,,,,,,,,,,,,,,,,,,,0.0,181.4,0.0,0.0,30.3,0.1,,0.1,3.8,,,42.0,0.0,0.0,-0.2,4.4,3.0,,,,,257.0,186.8,266.0,212.0,266.0,206.6,262.4,204.8,,,9.0,1.7,,3.8,-18.0,4.998,,,0.654,0.833,0.0,180.86,,,,,,0.0,262.85,3.495345744680851,2.4122340425531914,0.0033750000000000004,0.42166666666666663,408.2,True,2026-03-11 00:08:48 - Flight 2,0.1,0.0
66.06,1.0,9.0,2026-03-11 00:09:54,36.88898,-121.40332,262.0,0.0,11.9,-12.5,,,,,0.0,10.4,-0.5,216.4,0.0,-1.0,0.0,-0.01,1.0,,11.0,75.2,0.0,30.15,1078.0,,,140.0,,,,,0.0,0.0,,,,,,,,,,,,,,,,,,,0.0,181.4,0.0,0.0,30.3,0.1,,0.1,3.8,,,42.0,0.0,0.0,-0.2,4.4,3.0,,,,,257.0,186.8,266.0,212.0,266.0,206.6,262.4,204.8,,,9.0,1.5,,3.8,-18.0,4.998,,,0.654,0.831,0.0,180.86,,,,,,0.0,262.85,3.495345744680851,2.4122340425531914,0.003402777777777778,0.42166666666666663,408.2,True,2026-03-11 00:08:48 - Flight 2,0.1,0.0
67.06,1.0,9.0,2026-03-11 00:09:55,36.88898,-121.40332,262.0,0.0,11.9,-12.5,,,,,0.0,10.4,-0.6,216.3,0.0,-1.0,-0.0,-0.01,1.0,,-10.0,75.2,0.0,30.15,1078.0,,,140.0,,,,,0.0,0.0,,,,,,,,,,,,,,,,,,,0.0,181.4,0.0,0.0,30.3,0.1,,0.1,3.8,,,42.0,0.0,0.0,-0.2,4.4,3.0,,,,,257.0,186.8,266.0,212.0,266.0,206.6,262.4,204.8,,,9.0,1.4,,3.8,-18.0,4.998,,,0.654,0.831,0.0,180.86,,,,,,0.0,262.85,3.495345744680851,2.4122340425531914,0.003430555555555556,0.42166666666666663,408.2,True,2026-03-11 00:08:48 - Flight 2,0.1,0.0
68.06,1.0,9.0,2026-03-11 00:09:56,36.88899,-121.40333,262.0,0.0,11.9,-12.5,,,,,0.0,10.4,-0.5,216.3,0.0,-1.0,-0.0,-0.01,1.0,,7.0,75.2,0.0,30.15,1078.0,,,140.0,,,,,0.0,0.0,,,,,,,,,,,,,,,,,,,0.0,181.4,0.0,0.0,30.3,0.1,,0.1,3.8,,,42.0,0.0,0.0,-0.2,4.4,3.0,,,,,257.0,186.8,266.0,212.0,266.0,206.6,262.4,204.8,,,9.0,1.3,,3.8,-18.0,4.998,,,0.654,0.831,0.0,180.86,,,,,,0.0,262.85,3.495345744680851,2.4122340425531914,0.0034583333333333337,0.42166666666666663,408.2,True,2026-03-11 00:08:48 - Flight 2,0.1,0.0
69.06,2.0,9.0,2026-03-11 00:09:57,36.88899,-121.40333,262.0,0.0,11.9,-12.5,,,,,0.0,10.5,-0.6,216.3,0.0,-1.0,0.0,-0.01,1.0,,-32.0,75.2,0.0,30.15,1078.0,,,140.0,,,,,0.0,0.0,,,,,,,,,,,,,,,,,,,0.0,181.4,0.0,0.0,30.3,0.1,,0.1,3.8,,,42.0,0.0,0.0,-0.2,4.4,3.0,,,,,257.0,186.8,266.0,212.0,266.0,206.6,262.4,204.8,,,9.0,1.3,,3.8,-18.0,4.998,,,0.654,0.831,0.0,180.86,,,,,,0.0,262.85,3.495345744680851,2.4122340425531914,0.0034861111111111113,0.42166666666666663,408.2,True,2026-03-11 00:08:48 - Flight 2,0.1,0.0
70.06,2.0,9.0,2026-03-11 00:09:58,36.88899,-121.40333,262.0,0.0,11.9,-12.5,,,,,0.0,10.5,-0.6,216.3,0.0,-1.0,0.0,-0.01,1.0,,-36.0,75.2,0.0,30.15,1078.0,,,140.0,,,,,0.0,0.0,,,,,,,,,,,,,,,,,,,0.0,181.4,0.0,0.0,30.3,0.2,,0.2,3.9,,,42.0,0.0,0.0,-0.2,4.4,3.0,,,,,257.0,186.8,266.0,212.0,266.0,206.6,262.4,204.8,,,9.0,1.2,,3.9,-18.0,4.998,,,0.654,0.831,0.0,180.86,,,,,,0.0,262.85,3.495345744680851,2.4122340425531914,0.003527777777777778,0.42166666666666663,408.2,True,2026-03-11 00:08:48 - Flight 2,0.2,0.0
71.06,2.0,9.0,2026-03-11 00:09:59,36.88899,-121.40333,263.0,0.0,11.9,-12.5,,,,,0.0,10.4,-0.6,216.3,0.0,-1.0,0.0,-0.01,1.0,,-74.0,75.2,0.0,30.15,1078.0,,,140.0,,,,,0.0,0.0,,,,,,,,,,,,,,,,,,,0.0,181.4,0.0,0.0,30.3,0.2,,0.2,3.9,,,42.0,0.0,0.0,-0.2,4.4,3.0,,,,,257.0,186.8,266.0,212.0,266.0,206.6,262.4,204.8,,,9.0,1.1,,3.9,-17.0,4.998,,,0.654,0.831,0.0,180.86,,,,,,0.0,262.85,3.495345744680851,2.4122340425531914,0.0035833333333333338,0.42166666666666663,408.2,True,2026-03-11 00:08:48 - Flight 2,0.2,0.0
72.06,2.0,9.0,2026-03-11 00:10:00,36.88899,-121.40333,263.0,0.0,11.9,-12.5,,,,,0.0,10.4,-0.6,216.3,0.0,-1.0,-0.0,-0.01,1.0,,-90.0,75.2,0.0,30.15,1078.0,,,140.0,,,,,0.0,0.0,,,,,,,,,,,,,,,,,,,0.0,181.4,0.0,0.0,30.3,0.1,,0.1,3.9,,,42.0,0.0,0.0,-0.2,4.4,3.0,,,,,257.0,186.8,266.0,212.0,266.0,206.6,262.4,204.8,,,9.0,1.1,,3.9,-17.0,4.998,,,0.654,0.831,0.0,180.86,,,,,,0.0,262.85,3.495345744680851,2.4122340425531914,0.003625,0.42166666666666663,408.2,True,2026-03-11 00:08:48 - Flight 2,0.1,0.0
73.06,2.0,9.0,2026-03-11 00:10:01,36.88899,-121.40333,263.0,0.0,11.9,-12.5,,,,,0.0,10.4,-0.6,216.3,0.0,-2.0,0.0,-0.01,1.0,,-76.0,75.2,0.0,30.15,1078.0,,,140.0,,,,,0.0,0.0,,,,,,,,,,,,,,,,,,,0.0,181.4,0.0,0.0,30.3,0.1,,0.1,3.9,,,42.0,0.0,0.0,-0.2,4.4,3.0,,,,,257.0,186.8,266.0,212.0,266.0,206.6,262.4,204.8,,,9.0,1.1,,3.9,-17.0,4.998,,,0.654,0.831,0.0,180.86,,,,,,0.0,262.85,3.495345744680851,2.4122340425531914,0.0036527777777777782,0.42166666666666663,408.2,True,2026-03-11 00:08:48 - Flight 2,0.1,0.0
74.06,2.0,9.0,2026-03-11 00:10:02,36.88899,-121.40333,263.0,0.0,11.9,-12.5,,,,,0.0,10.4,-0.6,216.3,0.0,-2.0,0.0,-0.01,1.0,,-45.0,75.2,0.0,30.15,1078.0,,,140.0,,,-200.0,,0.0,0.0,,,,,,,,,,,,,,,,,,,0.0,181.4,0.0,0.0,30.3,0.1,,0.1,3.9,,,42.0,0.0,0.0,-0.2,4.4,3.0,,,,,257.0,186.8,266.0,212.0,264.2,206.6,262.4,204.8,,,9.0,1.0,,3.9,-17.0,4.996,,,0.654,0.831,0.0,180.86,,,,,,0.0,262.4,3.4893617021276593,2.4122340425531914,0.003680555555555556,0.42166666666666663,408.2,True,2026-03-11 00:08:48 - Flight 2,0.1,0.0
75.06,2.0,9.0,2026-03-11 00:10:03,36.88899,-121.40333,263.0,0.0,11.9,-12.5,,,,,0.0,10.4,-0.6,216.3,0.0,-3.0,-0.0,-0.01,1.0,,-75.0,75.2,0.0,30.15,1076.0,,,140.0,,,-100.0,,0.0,0.0,,,,,,,,,,,,,,,,,,,0.0,181.4,0.0,0.0,30.3,0.1,,0.1,3.9,,,42.0,0.0,0.0,-0.2,4.4,3.0,,,,,257.0,186.8,266.0,212.0,264.2,206.6,262.4,204.8,,,9.0,1.0,,3.9,-17.0,4.998,,,0.654,0.831,0.0,180.86,,,,,,0.0,262.4,3.4893617021276593,2.4122340425531914,0.0037083333333333334,0.42166666666666663,408.2,True,2026-03-11 00:08:48 - Flight 2,0.1,0.0
76.06,2.0,9.0,2026-03-11 00:10:04,36.88899,-121.40333,262.0,0.0,11.9,-12.5,,,,,0.0,10.5,-0.6,216.3,0.0,-5.0,0.0,-0.01,1.0,,-68.0,75.2,0.0,30.15,1074.0,,,140.0,,,-200.0,,0.0,0.0,,,,,,,,,,,,,,,,,,,0.0,181.4,0.0,0.0,30.3,0.1,,0.1,3.9,,,42.0,0.0,0.0,-0.2,4.4,3.0,,,,,257.0,186.8,266.0,212.0,264.2,206.6,262.4,204.8,,,9.0,1.0,,3.9,-17.0,4.998,,,0.654,0.831,0.0,180.86,,,,,,0.0,262.4,3.4893617021276593,2.4122340425531914,0.0037361111111111115,0.42166666666666663,408.2,True,2026-03-11 00:08:48 - Flight 2,0.1,0.0
77.06,2.0,9.0,2026-03-11 00:10:05,36.88898,-121.40333,261.0,0.0,11.9,-12.5,,,,,0.0,10.4,-0.6,216.4,0.0,-6.0,0.0,-0.01,1.0,,-67.0,75.2,0.0,30.15,1072.0,,,140.0,,,-200.0,,0.0,0.0,,,,,,,,,,,,,,,,,,,0.0,181.4,0.0,0.0,30.3,0.0,,0.0,3.9,,,42.0,0.0,0.0,-0.2,4.4,3.0,,,,,257.0,186.8,266.0,212.0,264.2,206.6,262.4,204.8,,,9.0,1.0,,3.9,-17.0,4.996,,,0.654,0.831,0.0,180.86,,,,,,0.0,262.4,3.4893617021276593,2.4122340425531914,0.0037500000000000003,0.42166666666666663,408.2,True,2026-03-11 00:08:48 - Flight 2,0.0,0.0
78.06,2.0,9.0,2026-03-11 00:10:06,36.88899,-121.40333,260.0,0.0,11.9,-12.5,,,,,0.0,10.5,-0.7,216.4,0.0,-6.0,-0.0,-0.01,1.0,,-57.0,75.2,0.0,30.15,1072.0,,,140.0,,,-200.0,,0.0,0.0,,,,,,,,,,,,,,,,,,,0.0,181.4,0.0,0.0,30.3,0.0,,0.0,3.9,,,42.0,0.0,0.0,-0.2,4.4,3.0,,,,,257.0,188.6,266.0,212.0,266.0,206.6,262.4,206.6,,,9.0,1.0,,3.9,-17.0,4.998,,,0.654,0.831,0.0,180.86,,,,,,0.0,262.85,3.495345744680851,2.4122340425531914,0.0037500000000000003,0.42166666666666663,408.2,True,2026-03-11 00:08:48 - Flight 2,0.0,0.0
79.06,2.0,9.0,2026-03-11 00:10:07,36.88899,-121.40333,260.0,0.0,11.9,-12.5,,,,,0.0,10.5,-0.6,216.4,0.0,-7.0,0.0,-0.01,1.0,,-22.0,75.2,0.0,30.15,1071.0,,,140.0,,,-200.0,,0.0,0.0,,,,,,,,,,,,,,,,,,,0.0,181.4,0.0,0.0,30.3,0.0,,0.0,3.9,,,42.0,0.0,0.0,-0.2,4.4,3.0,,,,,255.2,188.6,266.0,212.0,266.0,206.6,262.4,206.6,,,9.0,1.0,,3.9,-17.0,4.998,,,0.656,0.831,0.0,180.86,,,,,,0.0,262.4,3.4893617021276593,2.4122340425531914,0.0037500000000000003,0.42166666666666663,408.2,True,2026-03-11 00:08:48 - Flight 2,0.0,0.0
80.06,2.0,9.0,2026-03-11 00:10:08,36.88899,-121.40333,260.0,0.1,11.9,-12.5,,,,,0.0,10.5,-0.6,216.4,0.0,-7.0,0.0,-0.01,1.0,,3.0,75.2,0.0,30.15,1071.0,,,140.0,,,-200.0,,0.0,0.0,,,,,,,,,,,,,,,,,,,0.0,181.4,0.0,0.0,30.3,0.0,,0.0,3.9,,,42.0,0.0,0.0,-0.2,4.4,3.0,,,,,255.2,188.6,266.0,212.0,266.0,208.4,262.4,206.6,,,9.0,1.0,,3.9,-17.0,4.998,,,0.656,0.831,0.0,180.86,,,,,,0.0,262.4,3.4893617021276593,2.4122340425531914,0.0037500000000000003,0.506,408.2,True,2026-03-11 00:08:48 - Flight 2,0.0,0.0
81.06,1.0,10.0,2026-03-11 00:10:09,36.889,-121.40331,263.0,0.0,11.9,-12.5,,,,,0.0,10.5,-0.6,216.4,0.0,-7.0,0.0,-0.01,1.0,,24.0,75.2,0.0,30.15,1071.0,,,140.0,,,-200.0,,0.0,0.0,,,,,,,,,,,,,,,,,,,0.0,181.4,0.0,0.0,30.3,0.0,,0.0,3.9,,,42.0,0.0,0.0,-0.2,4.4,3.0,,,,,255.2,188.6,266.0,212.0,264.2,208.4,262.4,206.6,,,9.0,1.0,,3.9,-17.0,4.998,,,0.654,0.831,0.0,180.86,,,,,,0.0,261.95,3.483377659574468,2.4122340425531914,0.0037500000000000003,0.5903333333333333,408.2,True,2026-03-11 00:08:48 - Flight 2,0.0,0.0
82.06,1.0,10.0,2026-03-11 00:10:10,36.88899,-121.40332,261.0,0.0,11.9,-12.5,,,,,0.0,10.5,-0.6,216.5,0.0,-7.0,0.0,-0.01,1.0,,24.0,75.2,0.0,30.15,1061.0,,,140.0,,,-200.0,,0.0,0.0,,,,,,,,,,,,,,,,,,,0.0,181.4,0.0,0.0,30.3,0.0,,0.0,3.9,,,42.0,0.0,0.0,-0.2,4.4,3.0,,,,,255.2,188.6,266.0,212.0,264.2,208.4,262.4,206.6,,,9.0,1.0,,3.9,-17.0,4.996,,,0.654,0.831,0.0,180.86,,,,,,0.0,261.95,3.483377659574468,2.4122340425531914,0.0037500000000000003,0.5903333333333333,408.2,True,2026-03-11 00:08:48 - Flight 2,0.0,0.0
83.06,1.0,10.0,2026-03-11 00:10:11,36.88899,-121.40332,261.0,0.0,11.9,-12.5,,,,,0.0,10.4,-0.5,216.4,0.0,-7.0,0.0,-0.01,1.0,,43.0,75.2,0.0,30.15,1061.0,,,140.0,,,-200.0,,0.0,0.0,,,,,,,,,,,,,,,,,,,0.0,181.4,0.0,0.0,30.3,0.0,,0.0,3.9,,,42.0,0.0,0.0,-0.2,4.4,3.0,,,,,255.2,188.6,266.0,212.0,264.2,208.4,262.4,206.6,,,9.0,1.0,,3.9,-17.0,4.998,,,0.654,0.83,0.0,180.86,,,,,,0.0,261.95,3.483377659574468,2.4122340425531914,0.0037500000000000003,0.5903333333333333,408.2,True,2026-03-11 00:08:48 - Flight 2,0.0,0.0
84.06,1.0,10.0,2026-03-11 00:10:12,36.889,-121.40332,262.0,0.1,11.9,-12.5,,,,,0.0,10.5,-0.5,216.4,0.0,-7.0,0.0,-0.01,1.0,,55.0,75.2,0.0,30.15,1061.0,,,140.0,,,-200.0,,0.0,0.0,,,,,,,,,,,,,,,,,,,0.0,181.4,0.0,0.0,30.3,0.0,,0.0,3.9,,,42.0,0.0,0.0,-0.2,4.4,3.0,,,,,255.2,188.6,266.0,212.0,264.2,208.4,262.4,206.6,,,9.0,1.0,,3.9,-17.0,4.998,,,0.654,0.831,0.0,180.86,,,,,,0.0,261.95,3.483377659574468,2.4122340425531914,0.0037500000000000003,0.6746666666666666,408.2,True,2026-03-11 00:08:48 - Flight 2,0.0,0.0
85.06,2.0,10.0,2026-03-11 00:10:13,36.88899,-121.40332,261.0,0.0,11.9,-12.5,,,,,0.0,10.5,-0.6,216.3,0.0,-7.0,-0.0,-0.01,1.0,,22.0,75.2,0.0,30.15,1061.0,,,140.0,,,-200.0,,0.0,0.0,,,,,,,,,,,,,,,,,,,0.0,181.4,0.0,0.0,30.3,0.0,,0.0,3.9,,,42.0,0.0,0.0,-0.2,4.4,3.0,,,,,255.2,188.6,266.0,212.0,264.2,208.4,262.4,206.6,,,9.0,1.0,,3.9,-17.0,4.998,,,0.654,0.831,0.0,180.86,,,,,,0.0,261.95,3.483377659574468,2.4122340425531914,0.0037500000000000003,0.759,408.2,True,2026-03-11 00:08:48 - Flight 2,0.0,0.0
86.06,2.0,10.0,2026-03-11 00:10:14,36.88899,-121.40332,261.0,0.0,11.9,-12.5,,,,,0.0,10.5,-0.6,216.4,0.0,-7.0,-0.0,-0.01,1.0,,27.0,75.2,0.0,30.15,1061.0,,,140.0,,,-200.0,,0.0,0.0,,,,,,,,,,,,,,,,,,,0.0,181.4,0.0,0.0,30.3,0.0,,0.0,3.9,,,42.0,0.0,0.0,-0.2,4.4,3.0,,,,,255.2,188.6,266.0,212.0,264.2,208.4,262.4,206.6,,,9.0,0.0,,3.9,-17.0,4.998,,,0.654,0.831,0.0,180.86,,,,,,0.0,261.95,3.483377659574468,2.4122340425531914,0.0037500000000000003,0.759,408.2,True,2026-03-11 00:08:48 - Flight 2,0.0,0.0
87.06,2.0,10.0,2026-03-11 00:10:15,36.88899,-121.40332,261.0,0.0,11.9,-12.5,,,,,0.0,10.5,-0.6,216.3,0.0,-7.0,-0.0,-0.01,1.0,,15.0,75.2,0.0,30.15,1061.0,,,140.0,,,-200.0,,0.0,0.0,,,,,,,,,,,,,,,,,,,0.0,181.4,0.0,0.0,30.3,0.0,,0.0,3.9,,,42.0,0.0,0.0,-0.2,4.4,3.0,,,,,255.2,188.6,266.0,212.0,264.2,208.4,260.6,206.6,,,9.0,0.0,,3.9,-17.0,4.998,,,0.654,0.831,0.0,180.86,,,,,,0.0,261.5,3.4773936170212765,2.4122340425531914,0.0037500000000000003,0.759,408.2,True,2026-03-11 00:08:48 - Flight 2,0.0,0.0
88.06,2.0,10.0,2026-03-11 00:10:16,36.88899,-121.40332,260.0,0.1,11.9,-12.5,,,,,0.0,10.4,-0.6,216.4,0.0,-7.0,-0.0,-0.01,1.0,,36.0,75.2,0.0,30.15,1060.0,,,140.0,,,-200.0,,0.0,0.0,,,,,,,,,,,,,,,,,,,0.0,181.4,0.0,0.0,30.3,0.0,,0.0,3.9,,,42.0,0.0,0.0,-0.2,4.4,3.0,,,,,255.2,188.6,266.0,212.0,264.2,208.4,260.6,206.6,,,9.0,0.0,,3.9,-17.0,4.996,,,0.654,0.831,0.0,180.86,,,,,,0.0,261.5,3.4773936170212765,2.4122340425531914,0.0037500000000000003,0.8433333333333333,408.2,True,2026-03-11 00:08:48 - Flight 2,0.0,0.0
89.06,2.0,10.0,2026-03-11 00:10:17,36.88899,-121.40332,258.0,0.0,11.9,-12.5,,,,,0.0,10.5,-0.6,216.4,0.0,-7.0,0.0,-0.01,1.0,,3.0,75.2,0.0,30.15,1060.0,,,140.0,,,-200.0,,0.0,0.0,,,,,,,,,,,,,,,,,,,0.0,181.4,0.0,0.0,30.3,0.0,,0.0,4.0,,,42.0,0.0,0.0,-0.2,4.4,3.0,,,,,255.2,188.6,266.0,212.0,264.2,208.4,260.6,206.6,,,9.0,0.0,,4.0,-17.0,4.998,,,0.654,0.831,0.0,180.86,,,,,,0.0,261.5,3.4773936170212765,2.4122340425531914,0.0037500000000000003,0.9276666666666666,408.2,True,2026-03-11 00:08:48 - Flight 2,0.0,0.0
90.06,2.0,10.0,2026-03-11 00:10:18,36.88899,-121.40332,257.0,0.0,11.9,-12.5,,,,,0.0,10.5,-0.6,216.4,0.0,-7.0,-0.0,-0.01,1.0,,-22.0,75.2,0.0,30.15,1060.0,,,140.0,,,-200.0,,0.0,0.0,,,,,,,,,,,,,,,,,,,0.0,181.4,0.0,0.0,30.3,0.0,,0.0,4.0,,,42.0,0.0,0.0,-0.2,4.4,3.0,,,,,255.2,188.6,266.0,212.0,264.2,208.4,260.6,206.6,,,9.0,0.0,,4.0,-17.0,4.998,,,0.654,0.831,0.0,180.86,,,,,,0.0,261.5,3.4773936170212765,2.4122340425531914,0.0037500000000000003,0.9276666666666666,408.2,True,2026-03-11 00:08:48 - Flight 2,0.0,0.0
91.06,2.0,10.0,2026-03-11 00:10:19,36.88899,-121.40332,254.0,0.0,11.9,-12.5,,,,,0.0,10.5,-0.6,216.4,0.0,-7.0,-0.0,-0.01,1.0,,-13.0,75.2,0.0,30.15,1051.0,,,140.0,,,-200.0,,0.0,0.0,,,,,,,,,,,,,,,,,,,0.0,181.4,0.0,0.0,30.3,0.0,,0.0,4.0,,,42.0,0.0,0.0,-0.2,4.4,3.0,,,,,255.2,188.6,266.0,212.0,264.2,208.4,260.6,206.6,,,9.0,0.0,,4.0,-17.0,4.998,,,0.654,0.831,0.0,180.86,,,,,,0.0,261.5,3.4773936170212765,2.4122340425531914,0.0037500000000000003,0.9276666666666666,408.2,True,2026-03-11 00:08:48 - Flight 2,0.0,0.0
92.06,2.0,10.0,2026-03-11 00:10:20,36.88899,-121.40332,254.0,0.0,11.9,-12.5,,,,,0.0,10.4,-0.6,216.3,0.0,-7.0,-0.0,-0.01,1.0,,-15.0,75.2,0.0,30.15,1051.0,,,140.0,,,-200.0,,0.0,0.0,,,,,,,,,,,,,,,,,,,0.0,181.4,0.0,0.0,30.3,0.0,,0.0,4.0,,,42.0,0.0,0.0,-0.2,4.4,3.0,,,,,255.2,188.6,264.2,212.0,264.2,208.4,260.6,206.6,,,9.0,0.0,,4.0,-17.0,4.998,,,0.656,0.831,0.0,180.86,,,,,,0.0,261.05,3.471409574468085,2.4122340425531914,0.0037500000000000003,0.9276666666666666,408.2,True,2026-03-11 00:08:48 - Flight 2,0.0,0.0
93.06,2.0,10.0,2026-03-11 00:10:21,36.88899,-121.40332,254.0,0.0,11.9,-12.5,,,,,0.0,10.4,-0.6,216.3,0.0,-7.0,-0.0,-0.01,1.0,,-4.0,75.2,0.0,30.15,1051.0,,,140.0,,,-200.0,,0.0,0.0,,,,,,,,,,,,,,,,,,,0.0,181.4,0.0,0.0,30.3,0.0,,0.0,4.0,,,42.0,0.0,0.0,-0.2,4.4,3.0,,,,,255.2,188.6,264.2,212.0,264.2,208.4,260.6,206.6,,,9.0,0.0,,4.0,-17.0,4.998,,,0.654,0.831,0.0,180.86,,,,,,0.0,261.05,3.471409574468085,2.4122340425531914,0.0037500000000000003,0.9276666666666666,408.2,True,2026-03-11 00:08:48 - Flight 2,0.0,0.0
94.06,2.0,10.0,2026-03-11 00:10:22,36.88899,-121.40332,254.0,0.0,11.9,-12.5,,,,,0.0,10.5,-0.5,216.3,0.0,-7.0,0.0,-0.01,1.0,,12.0,75.2,0.0,30.15,1051.0,,,140.0,,,-200.0,,0.0,0.0,,,,,,,,,,,,,,,,,,,0.0,181.4,0.0,0.0,30.3,0.0,,0.0,4.0,,,42.0,0.0,0.0,-0.2,4.4,3.0,,,,,255.2,188.6,264.2,212.0,264.2,208.4,260.6,206.6,,,9.0,0.0,,4.0,-17.0,4.998,,,0.654,0.831,0.0,180.86,,,,,,0.0,261.05,3.471409574468085,2.4122340425531914,0.0037500000000000003,0.9276666666666666,408.2,True,2026-03-11 00:08:48 - Flight 2,0.0,0.0
95.06,2.0,10.0,2026-03-11 00:10:23,36.88899,-121.40332,255.0,0.0,11.9,-12.5,,,,,0.0,10.5,-0.5,216.3,0.0,-7.0,0.0,-0.01,1.0,,35.0,75.2,0.0,30.15,1051.0,,,140.0,,,-200.0,,0.0,0.0,,,,,,,,,,,,,,,,,,,0.0,181.4,0.0,0.0,30.3,0.0,,0.0,4.0,,,42.0,0.0,0.0,-0.2,4.4,3.0,,,,,255.2,188.6,264.2,212.0,264.2,208.4,260.6,206.6,,,9.0,0.0,,4.0,-17.0,4.998,,,0.654,0.831,0.0,180.86,,,,,,0.0,261.05,3.471409574468085,2.4122340425531914,0.0037500000000000003,0.9276666666666666,408.2,True,2026-03-11 00:08:48 - Flight 2,0.0,0.0
96.06,2.0,10.0,2026-03-11 00:10:24,36.88899,-121.40333,256.0,0.0,11.9,-12.5,,,,,0.0,10.5,-0.6,216.4,0.0,-7.0,0.0,-0.01,1.0,,62.0,75.2,0.0,30.15,1051.0,,,140.0,,,-200.0,,0.0,0.0,,,,,,,,,,,,,,,,,,,0.0,181.4,0.0,0.0,30.3,0.0,,0.0,4.0,,,42.0,0.0,0.0,-0.2,4.4,3.0,,,,,255.2,188.6,264.2,212.0,264.2,208.4,260.6,206.6,,,9.0,0.0,,4.0,-17.0,4.998,,,0.654,0.831,0.0,180.86,,,,,,0.0,261.05,3.471409574468085,2.4122340425531914,0.0037500000000000003,0.9276666666666666,408.2,True,2026-03-11 00:08:48 - Flight 2,0.0,0.0
97.06,2.0,10.0,2026-03-11 00:10:25,36.88899,-121.40333,255.0,0.0,11.9,-12.5,,,,,0.0,10.5,-0.5,216.4,0.0,-6.0,0.0,-0.01,1.0,,67.0,75.2,0.0,30.15,1051.0,,,140.0,,,-200.0,,0.0,0.0,,,,,,,,,,,,,,,,,,,0.0,181.4,0.0,0.0,30.3,0.0,,0.0,4.0,,,42.0,0.0,0.0,-0.2,4.4,3.0,,,,,255.2,188.6,264.2,212.0,264.2,208.4,260.6,206.6,,,9.0,0.0,,4.0,-17.0,4.998,,,0.654,0.831,0.0,180.86,,,,,,0.0,261.05,3.471409574468085,2.4122340425531914,0.0037500000000000003,0.9276666666666666,408.2,True,2026-03-11 00:08:48 - Flight 2,0.0,0.0
98.06,2.0,10.0,2026-03-11 00:10:26,36.88899,-121.40333,254.0,0.0,11.9,-12.5,,,,,0.0,10.5,-0.5,216.4,0.0,-6.0,0.0,-0.01,1.0,,43.0,75.2,0.0,30.15,1051.0,,,140.0,,,-200.0,,0.0,0.0,,,,,,,,,,,,,,,,,,,0.0,181.4,0.0,0.0,30.3,0.0,,0.0,4.0,,,42.0,0.0,0.0,-0.2,4.4,3.0,,,,,255.2,188.6,264.2,212.0,264.2,208.4,260.6,206.6,,,9.0,0.0,,4.0,-17.0,4.998,,,0.654,0.831,0.0,180.86,,,,,,0.0,261.05,3.471409574468085,2.4122340425531914,0.0037500000000000003,0.9276666666666666,408.2,True,2026-03-11 00:08:48 - Flight 2,0.0,0.0
99.06,2.0,10.0,2026-03-11 00:10:27,36.889,-121.40333,254.0,0.0,11.9,-12.5,,,,,0.0,10.5,-0.6,216.4,0.0,-5.0,0.0,-0.01,1.0,,36.0,75.2,0.0,30.15,1051.0,,,140.0,,,-200.0,,0.0,0.0,,,,,,,,,,,,,,,,,,,0.0,181.4,0.0,0.0,30.3,0.1,,0.1,4.0,,,42.0,0.0,0.0,-0.2,4.4,3.0,,,,,255.2,188.6,264.2,212.0,264.2,208.4,260.6,206.6,,,9.0,0.0,,4.0,-17.0,4.998,,,0.654,0.831,0.0,180.86,,,,,,0.0,261.05,3.471409574468085,2.4122340425531914,0.003763888888888889,0.9276666666666666,408.2,True,2026-03-11 00:08:48 - Flight 2,0.1,0.0
100.06,2.0,10.0,2026-03-11 00:10:28,36.889,-121.40333,254.0,0.1,11.9,-12.5,,,,,0.0,10.5,-0.5,216.3,0.0,-4.0,-0.0,-0.01,1.0,,42.0,75.2,0.0,30.15,1053.0,,,140.0,,,-200.0,,0.0,0.0,,,,,,,,,,,,,,,,,,,0.0,181.4,0.0,0.0,30.3,0.1,,0.1,4.0,,,42.0,0.0,0.0,-0.2,4.4,3.0,,,,,255.2,190.4,264.2,212.0,264.2,208.4,260.6,206.6,,,9.0,0.0,,4.0,-17.0,4.998,,,0.654,0.831,0.0,180.86,,,,,,0.0,261.05,3.471409574468085,2.4122340425531914,0.003791666666666667,1.012,408.2,True,2026-03-11 00:08:48 - Flight 2,0.1,1.0
101.06,2.0,10.0,2026-03-11 00:10:29,36.889,-121.40333,252.0,0.0,11.9,-12.5,,,,,0.0,10.5,-0.6,216.4,0.0,-3.0,-0.0,-0.01,1.0,,58.0,75.2,0.0,30.15,1053.0,,,140.0,,,-200.0,,0.0,0.0,,,,,,,,,,,,,,,,,,,0.0,181.4,0.0,0.0,30.3,0.1,,0.1,4.0,,,42.0,0.0,0.0,-0.2,4.4,3.0,,,,,255.2,190.4,264.2,212.0,264.2,208.4,260.6,206.6,,,9.0,0.0,,4.0,-17.0,4.998,,,0.654,0.831,0.0,180.86,,,,,,0.0,261.05,3.471409574468085,2.4122340425531914,0.0038194444444444448,1.0963333333333334,408.2,True,2026-03-11 00:08:48 - Flight 2,0.1,0.0
102.06,2.0,10.0,2026-03-11 00:10:30,36.889,-121.40333,251.0,0.0,11.9,-12.5,,,,,0.0,10.5,-0.6,216.4,0.0,-2.0,-0.0,-0.01,1.0,,72.0,75.2,0.0,30.15,1053.0,,,140.0,,,-200.0,,0.0,0.0,,,,,,,,,,,,,,,,,,,0.0,181.4,0.0,0.0,30.3,0.1,,0.1,4.0,,,42.0,0.0,0.0,-0.2,4.4,3.0,,,,,255.2,190.4,264.2,212.0,264.2,208.4,260.6,206.6,,,9.0,0.0,,4.0,-17.0,4.998,,,0.654,0.831,0.0,180.86,,,,,,0.0,261.05,3.471409574468085,2.4122340425531914,0.0038472222222222224,1.0963333333333334,408.2,True,2026-03-11 00:08:48 - Flight 2,0.1,0.0
103.06,2.0,10.0,2026-03-11 00:10:31,36.88899,-121.40333,252.0,0.0,11.9,-12.5,,,,,0.0,10.5,-0.6,216.4,0.0,-1.0,-0.0,-0.01,1.0,,43.0,75.2,0.0,30.15,1058.0,,,140.0,,,-200.0,,0.0,0.0,,,,,,,,,,,,,,,,,,,0.0,181.4,0.0,0.0,30.3,0.1,,0.1,4.0,,,42.0,0.0,0.0,-0.2,4.4,3.0,,,,,255.2,190.4,264.2,212.0,264.2,208.4,260.6,206.6,,,9.0,0.0,,4.0,-17.0,4.998,,,0.654,0.831,0.0,180.86,,,,,,0.0,261.05,3.471409574468085,2.4122340425531914,0.0038750000000000004,1.0963333333333334,408.2,True,2026-03-11 00:08:48 - Flight 2,0.1,0.0
104.06,2.0,10.0,2026-03-11 00:10:32,36.889,-121.40333,251.0,0.0,11.9,-12.5,,,,,0.0,10.5,-0.6,216.4,0.0,0.0,0.0,-0.01,1.0,,42.0,75.2,0.0,30.15,1057.0,,,140.0,,,-200.0,,0.0,0.0,,,,,,,,,,,,,,,,,,,0.0,181.4,0.0,0.0,30.3,0.1,,0.1,4.0,,,42.0,0.0,0.0,-0.2,4.4,3.0,,,,,255.2,190.4,264.2,212.0,264.2,208.4,260.6,206.6,,,9.0,0.0,,4.0,-17.0,4.998,,,0.654,0.833,0.0,180.86,,,,,,0.0,261.05,3.471409574468085,2.4122340425531914,0.003902777777777778,1.0963333333333334,408.2,True,2026-03-11 00:08:48 - Flight 2,0.1,0.0
105.06,2.0,10.0,2026-03-11 00:10:33,36.889,-121.40333,251.0,0.0,11.9,-12.5,,,,,0.0,10.5,-0.6,216.4,0.0,0.0,-0.0,-0.01,1.0,,38.0,75.2,0.0,30.15,1057.0,,,140.0,,,-200.0,,0.0,0.0,,,,,,,,,,,,,,,,,,,0.0,181.4,0.0,0.0,30.3,0.1,,0.1,4.0,,,42.0,0.0,0.0,-0.2,4.4,3.0,,,,,255.2,190.4,264.2,212.0,264.2,208.4,260.6,206.6,,,9.0,0.0,,4.0,-17.0,4.998,,,0.656,0.831,0.0,180.86,,,,,,0.0,261.05,3.471409574468085,2.4122340425531914,0.003930555555555556,1.0963333333333334,408.2,True,2026-03-11 00:08:48 - Flight 2,0.1,0.0
106.06,2.0,10.0,2026-03-11 00:10:34,36.889,-121.40333,251.0,0.1,11.9,-12.5,,,,,0.0,10.5,-0.6,216.4,0.0,0.0,-0.0,-0.02,1.0,,25.0,75.2,0.0,30.15,1057.0,,,140.0,,,-200.0,,0.0,0.0,,,,,,,,,,,,,,,,,,,0.0,181.4,0.0,0.0,30.3,0.1,,0.1,4.0,,,42.0,0.0,0.0,-0.2,4.4,3.0,,,,,255.2,190.4,264.2,212.0,264.2,208.4,260.6,206.6,,,9.0,0.0,,4.0,-17.0,4.998,,,0.654,0.833,0.0,180.86,,,,,,0.0,261.05,3.471409574468085,2.4122340425531914,0.003958333333333334,1.1806666666666665,408.2,True,2026-03-11 00:08:48 - Flight 2,0.1,1.0
107.06,2.0,10.0,2026-03-11 00:10:35,36.889,-121.40333,253.0,0.0,11.9,-12.5,,,,,0.0,10.5,-0.6,216.4,0.0,1.0,-0.0,-0.01,1.0,,8.0,75.2,0.0,30.15,1050.0,,,140.0,,,-200.0,,0.0,0.0,,,,,,,,,,,,,,,,,,,0.0,181.4,0.0,0.0,30.3,0.1,,0.1,4.0,,,42.0,0.0,0.0,-0.2,4.4,3.0,,,,,255.2,190.4,264.2,212.0,264.2,208.4,258.8,206.6,,,9.0,0.0,,4.0,-17.0,4.998,,,0.654,0.831,0.0,180.86,,,,,,0.0,260.6,3.4654255319148937,2.4122340425531914,0.003986111111111111,1.265,408.2,True,2026-03-11 00:08:48 - Flight 2,0.1,0.0
108.06,2.0,10.0,2026-03-11 00:10:36,36.889,-121.40333,254.0,0.0,11.9,-12.5,,,,,0.0,10.5,-0.6,216.4,0.0,1.0,-0.0,-0.01,1.0,,-6.0,75.2,0.0,30.15,1050.0,,,140.0,,,-200.0,,0.0,0.0,,,,,,,,,,,,,,,,,,,0.0,181.4,0.0,0.0,30.3,0.1,,0.1,4.0,,,42.0,0.0,0.0,-0.2,4.4,3.0,,,,,255.2,190.4,264.2,212.0,262.4,210.2,258.8,206.6,,,9.0,0.0,,4.0,-17.0,4.998,,,0.654,0.831,0.0,180.86,,,,,,0.0,260.15000000000003,3.4594414893617023,2.4122340425531914,0.004013888888888889,1.265,408.2,True,2026-03-11 00:08:48 - Flight 2,0.1,0.0
109.06,2.0,10.0,2026-03-11 00:10:37,36.889,-121.40333,254.0,0.0,11.9,-12.5,,,,,0.0,10.5,-0.6,216.4,0.0,1.0,0.0,-0.01,1.0,,22.0,75.2,0.0,30.15,1050.0,,,140.0,,,-200.0,,0.0,0.0,,,,,,,,,,,,,,,,,,,0.0,181.4,0.0,0.0,30.3,0.1,,0.1,4.0,,,42.0,0.0,0.0,-0.2,4.4,3.0,,,,,255.2,190.4,264.2,212.0,262.4,210.2,258.8,206.6,,,9.0,0.0,,4.0,-17.0,4.998,,,0.656,0.831,0.0,180.86,,,,,,0.0,260.15000000000003,3.4594414893617023,2.4122340425531914,0.004041666666666667,1.265,408.2,True,2026-03-11 00:08:48 - Flight 2,0.1,0.0
110.06,2.0,10.0,2026-03-11 00:10:38,36.889,-121.40333,255.0,0.0,11.9,-12.5,,,,,0.0,10.5,-0.6,216.4,0.0,2.0,0.0,-0.01,1.0,,23.0,75.2,0.0,30.15,1050.0,,,140.0,,,-200.0,,0.0,0.0,,,,,,,,,,,,,,,,,,,0.0,181.4,0.0,0.0,30.3,0.1,,0.1,4.0,,,42.0,0.0,0.0,-0.2,4.4,3.0,,,,,255.2,190.4,264.2,212.0,262.4,210.2,258.8,206.6,,,9.0,0.0,,4.0,-17.0,4.998,,,0.656,0.831,0.0,180.86,,,,,,0.0,260.15000000000003,3.4594414893617023,2.4122340425531914,0.004069444444444445,1.265,408.2,True,2026-03-11 00:08:48 - Flight 2,0.1,0.0
111.06,2.0,10.0,2026-03-11 00:10:39,36.889,-121.40333,255.0,0.0,11.9,-12.5,,,,,0.0,10.5,-0.6,216.5,0.0,2.0,0.0,-0.01,1.0,,13.0,75.2,0.0,30.15,1050.0,,,140.0,,,-200.0,,0.0,0.0,,,,,,,,,,,,,,,,,,,0.0,181.4,0.0,0.0,30.3,0.1,,0.1,4.0,,,42.0,0.0,0.0,-0.2,4.4,3.0,,,,,253.4,190.4,264.2,212.0,262.4,210.2,258.8,206.6,,,9.0,0.0,,4.0,-17.0,4.998,,,0.656,0.831,0.0,180.86,,,,,,0.0,259.70000000000005,3.4534574468085113,2.4122340425531914,0.004097222222222223,1.265,408.2,True,2026-03-11 00:08:48 - Flight 2,0.1,0.0
112.06,2.0,10.0,2026-03-11 00:10:40,36.889,-121.40333,255.0,0.0,11.9,-12.5,,,,,0.0,10.5,-0.6,216.5,0.0,2.0,-0.0,-0.01,1.0,,17.0,75.2,0.0,30.15,1050.0,,,140.0,,,-200.0,,0.0,0.0,,,,,,,,,,,,,,,,,,,0.0,181.4,0.0,0.0,30.3,0.1,,0.1,4.0,,,42.0,0.0,0.0,-0.2,4.4,3.0,,,,,253.4,190.4,264.2,212.0,262.4,210.2,258.8,206.6,,,9.0,0.0,,4.0,-17.0,4.998,,,0.654,0.833,0.0,180.86,,,,,,0.0,259.70000000000005,3.4534574468085113,2.4122340425531914,0.004125,1.265,408.2,True,2026-03-11 00:08:48 - Flight 2,0.1,0.0
113.06,2.0,10.0,2026-03-11 00:10:41,36.889,-121.40333,255.0,0.0,11.9,-12.5,,,,,0.0,10.5,-0.6,216.5,0.0,3.0,-0.0,-0.01,1.0,,25.0,75.2,0.0,30.15,1052.0,,,140.0,,,-200.0,,0.0,0.0,,,,,,,,,,,,,,,,,,,0.0,181.4,0.0,0.0,30.3,0.1,,0.1,4.0,,,42.0,0.0,0.0,-0.2,4.4,3.0,,,,,253.4,190.4,264.2,212.0,262.4,210.2,258.8,206.6,,,9.0,0.0,,4.0,-17.0,4.998,,,0.654,0.833,0.0,180.86,,,,,,0.0,259.70000000000005,3.4534574468085113,2.4122340425531914,0.004152777777777778,1.265,408.2,True,2026-03-11 00:08:48 - Flight 2,0.1,0.0
114.06,2.0,10.0,2026-03-11 00:10:42,36.889,-121.40333,254.0,0.0,11.9,-12.5,,,,,0.0,10.5,-0.6,216.6,0.0,3.0,0.0,-0.01,1.0,,3.0,75.2,0.0,30.15,1052.0,,,140.0,,,-200.0,,0.0,0.0,,,,,,,,,,,,,,,,,,,0.0,181.4,0.0,0.0,30.3,0.1,,0.1,4.0,,,42.0,0.0,0.0,-0.2,4.4,3.0,,,,,253.4,190.4,264.2,212.0,262.4,210.2,258.8,206.6,,,9.0,0.0,,4.0,-17.0,4.996,,,0.654,0.833,0.0,180.86,,,,,,0.0,259.70000000000005,3.4534574468085113,2.4122340425531914,0.004180555555555556,1.265,408.2,True,2026-03-11 00:08:48 - Flight 2,0.1,0.0
115.06,2.0,10.0,2026-03-11 00:10:43,36.889,-121.40333,254.0,0.0,11.9,-12.5,,,,,0.0,10.5,-0.6,216.5,0.0,3.0,-0.0,-0.01,1.0,,-15.0,75.2,0.0,30.15,1052.0,,,140.0,,,-200.0,,0.0,0.0,,,,,,,,,,,,,,,,,,,0.0,181.4,0.0,0.0,30.3,0.1,,0.1,4.0,,,42.0,0.0,0.0,-0.2,4.4,3.0,,,,,253.4,190.4,264.2,212.0,262.4,210.2,258.8,206.6,,,9.0,0.0,,4.0,-17.0,4.998,,,0.654,0.833,0.0,180.86,,,,,,0.0,259.70000000000005,3.4534574468085113,2.4122340425531914,0.004208333333333334,1.265,408.2,True,2026-03-11 00:08:48 - Flight 2,0.1,0.0
