Session Time,GPS Fix Quality,Number of Satellites,GPS Date & Time,Latitude (deg),Longitude (deg),GPS Altitude (feet),Ground Speed (knots),Ground Track (deg),Mag Var (deg),Cross Track Error (NM),Destination Waypoint ID,Range to Destination (NM),Bearing to Destination (deg),System Time,Pitch (deg),Roll (deg),Magnetic Heading (deg),Indicated Airspeed (knots),Pressure Altitude (ft),Turn Rate (deg/s),Lateral Accel (g),Vertical Accel(g),Angle of Attack (%),Vertical Speed (ft/min),OAT (deg C),True Airspeed (knots),Barometer Setting (inHg),Density Altitude (ft),Wind Direction (deg),Wind Speed (knots),Heading Bug (deg),Altitude Bug (ft),Airspeed Bug (knots),Vertical Speed Bug (ft/min),Course (deg),CDI Source Type,CDI Source Port,CDI Scale (NM),CDI Deflection (%),Glideslope (%),AP Engaged,AP Roll Mode,AP Roll Force,AP Roll Position (steps),AP Roll Slip (bool),AP Pitch Force,AP Pitch Position (steps),AP Pitch Slip (bool),AP Yaw Force,AP Yaw Position,AP Yaw Slip (bool),Transponder Status,Transponder Reply (bool),Transponder Identing (bool),Transponder Code (octal),Oil Pressure (PSI),Oil Temp (deg C),RPM L,RPM R,Manifold Pressure (inHg),Fuel Flow 1 (gal/hr),Fuel Flow 2 (gal/hr),Total Fuel Flow (gal/hr),Fuel Pressure (PSI),Fuel Level L (gal),Fuel Level R (gal),Fuel Remaining (gal),Volts 1,Volts 2,Amps,Hobbs Time,Tach Time,Thermocouple 1 (deg C),Thermocouple 2 (deg C),Thermocouple 3 (deg C),Thermocouple 4 (deg C),CHT 4 (deg C),EGT 4 (deg C),CHT 3 (deg C),EGT 3 (deg C),CHT 2 (deg C),EGT 2 (deg C),CHT 1 (deg C),EGT 1 (deg C),Thermocouple 13 (deg C),Thermocouple 14 (deg C),ELEV POSITION (%),CO PPM PRESSURE (PSI),GP Input 3,FUEL PRESSURE (PSI),AILERN POSITION (%),CANOPY CONTACT (V),GP Input 7,GP Input 8,LEFT LEVEL (Sensor V),RIGHT LEVEL (Sensor V),OIL PRESSURE (PSI),OIL TEMPERATURE (deg C),GP Input 13,Contacts,Percent Power,EGT Leaning State,Unnamed: 103,OAT (deg F),Oil Temp (deg F),Thermocouple 1 (deg F),Thermocouple 2 (deg F),Thermocouple 3 (deg F),Thermocouple 4 (deg F),CHT 4 (deg F),EGT 4 (deg F),CHT 3 (deg F),EGT 3 (deg F),CHT 2 (deg F),EGT 2 (deg F),CHT 1 (deg F),EGT 1 (deg F),Thermocouple 13 (deg F),Thermocouple 14 (deg F),OIL TEMPERATURE (deg F),RPM,AVG_CHT,CHT_OAT_Ratio,OIL_OAT_Ratio,Fuel Flow Integral,Distance Traveled,Max CHT,Engine Run,Flight ID,Fuel Flow,MPG
7.06,1,8,2026-04-03 20:17:48,37.08162,-121.59956,400.0,0.0,137.1,-12.6,,,,,0.0,10.7,-1.0,10.8,0.0,134.0,0.0,-0.01,1.0,99.0,-125.0,24,0.0,29.96,1183.0,,,79,,,,,0,0,,,,,,,,,,,,,,,,,,,0.0,16.0,0.0,0.0,30.2,0.0,,0.0,0.0,,,33.1,0.0,0.0,-0.6,8.3,6.5,,,,,17.0,18.0,17.0,19.0,17.0,19.0,18.0,19.0,,,4.0,254.5,,0.0,2.0,0.001,,,0.653,0.844,0.0,15.6,,,,,,75.2,60.8,,,,,62.6,64.4,62.6,66.2,62.6,66.2,64.4,66.2,,,60.08,0.0,63.05,0.8384308510638298,0.8085106382978723,0.0,0.0,395.6,True,2026-04-03 20:17:48,0.0,0.0
8.06,1,8,2026-04-03 20:17:49,37.0816,-121.59958,330.0,0.0,137.1,-12.6,,,,,0.0,10.7,-1.0,10.8,0.0,134.0,0.1,-0.01,1.0,99.0,-97.0,24,0.0,29.96,1183.0,,,79,,,,,0,0,,,,,,,,,,,,,,,,,,,0.0,16.0,0.0,0.0,30.2,0.0,,0.0,0.0,,,33.1,0.0,0.0,-0.6,8.3,6.5,,,,,17.0,18.0,17.0,19.0,17.0,19.0,18.0,19.0,,,4.0,254.5,,0.0,2.0,0.001,,,0.653,0.844,0.0,15.6,,,,,,75.2,60.8,,,,,62.6,64.4,62.6,66.2,62.6,66.2,64.4,66.2,,,60.08,0.0,63.05,0.8384308510638298,0.8085106382978723,0.0,0.0,395.6,True,2026-04-03 20:17:48,0.0,0.0
9.06,1,8,2026-04-03 20:17:50,37.0816,-121.59958,330.0,0.0,137.1,-12.6,,,,,0.0,10.7,-1.0,10.8,0.0,133.0,0.0,-0.02,1.0,99.0,-68.0,24,0.0,29.96,1183.0,,,79,,,,,0,0,,,,,,,,,,,,,,,,,,,0.0,16.0,0.0,0.0,30.2,0.0,,0.0,0.0,,,33.1,0.0,0.0,-0.6,8.3,6.5,,,,,17.0,18.0,17.0,19.0,17.0,18.0,18.0,19.0,,,4.0,254.5,,0.0,2.0,0.001,,,0.653,0.845,0.0,15.6,,,,,,75.2,60.8,,,,,62.6,64.4,62.6,66.2,62.6,64.4,64.4,66.2,,,60.08,0.0,63.05,0.8384308510638298,0.8085106382978723,0.0,0.0,395.6,True,2026-04-03 20:17:48,0.0,0.0
10.06,1,8,2026-04-03 20:17:51,37.08159,-121.59958,331.0,0.0,137.1,-12.6,,,,,0.0,10.7,-1.0,10.8,0.0,130.0,0.1,-0.01,1.0,99.0,-122.0,24,0.0,29.96,1189.0,,,79,,,,,0,0,,,,,,,,,,,,,,,,,,,0.0,16.0,0.0,0.0,30.2,0.0,,0.0,0.0,,,33.1,0.0,0.0,-0.6,8.3,6.5,,,,,17.0,18.0,17.0,19.0,17.0,19.0,18.0,19.0,,,4.0,254.5,,0.0,2.0,0.001,,,0.653,0.845,0.0,15.6,,,,,,75.2,60.8,,,,,62.6,64.4,62.6,66.2,62.6,66.2,64.4,66.2,,,60.08,0.0,63.05,0.8384308510638298,0.8085106382978723,0.0,0.0,395.6,True,2026-04-03 20:17:48,0.0,0.0
11.06,1,8,2026-04-03 20:17:52,37.08159,-121.59958,332.0,0.0,137.1,-12.6,,,,,0.0,10.6,-1.0,10.8,0.0,126.0,0.1,-0.02,1.0,99.0,-159.0,24,0.0,29.96,1187.0,,,79,,,,,0,0,,,,,,,,,,,,,,,,,,,0.0,16.0,0.0,0.0,30.2,0.0,,0.0,0.0,,,33.1,0.0,0.0,-0.6,8.3,6.5,,,,,17.0,18.0,17.0,19.0,17.0,18.0,18.0,19.0,,,4.0,254.4,,0.0,2.0,0.001,,,0.653,0.845,0.0,15.6,,,,,,75.2,60.8,,,,,62.6,64.4,62.6,66.2,62.6,64.4,64.4,66.2,,,60.08,0.0,63.05,0.8384308510638298,0.8085106382978723,0.0,0.0,395.6,True,2026-04-03 20:17:48,0.0,0.0
12.06,1,8,2026-04-03 20:17:53,37.08159,-121.59958,332.0,0.0,137.1,-12.6,,,,,0.0,10.6,-1.0,10.8,0.0,125.0,0.1,-0.02,1.0,99.0,-124.0,24,0.0,29.96,1187.0,,,79,,,,,0,0,,,,,,,,,,,,,,,,,,,0.0,16.0,0.0,0.0,30.2,0.0,,0.0,0.0,,,33.1,0.0,0.0,-0.6,8.3,6.5,,,,,17.0,18.0,17.0,19.0,17.0,18.0,18.0,19.0,,,4.0,254.4,,0.0,2.0,0.001,,,0.654,0.845,0.0,15.6,,,,,,75.2,60.8,,,,,62.6,64.4,62.6,66.2,62.6,64.4,64.4,66.2,,,60.08,0.0,63.05,0.8384308510638298,0.8085106382978723,0.0,0.0,395.6,True,2026-04-03 20:17:48,0.0,0.0
13.06,1,8,2026-04-03 20:17:54,37.08159,-121.59958,332.0,0.0,137.1,-12.6,,,,,0.0,10.7,-1.0,10.8,0.0,124.0,0.1,-0.02,1.0,99.0,-111.0,24,0.0,29.96,1187.0,,,79,,,,,0,0,,,,,,,,,,,,,,,,,,,0.0,16.0,0.0,0.0,30.2,0.0,,0.0,0.0,,,33.1,0.0,0.0,-0.6,8.3,6.5,,,,,17.0,18.0,17.0,19.0,17.0,18.0,18.0,19.0,,,4.0,254.4,,0.0,2.0,0.001,,,0.654,0.845,0.0,15.6,,,,,,75.2,60.8,,,,,62.6,64.4,62.6,66.2,62.6,64.4,64.4,66.2,,,60.08,0.0,63.05,0.8384308510638298,0.8085106382978723,0.0,0.0,395.6,True,2026-04-03 20:17:48,0.0,0.0
14.06,1,8,2026-04-03 20:17:55,37.08158,-121.59958,332.0,0.1,137.1,-12.6,,,,,0.0,10.7,-1.0,10.8,0.0,123.0,0.1,-0.01,1.0,99.0,-95.0,24,0.0,29.96,1180.0,,,79,,,,,0,0,,,,,,,,,,,,,,,,,,,0.0,16.0,0.0,0.0,30.2,0.0,,0.0,0.0,,,33.1,0.0,0.0,-0.6,8.3,6.5,,,,,17.0,18.0,17.0,19.0,17.0,18.0,18.0,19.0,,,4.0,254.4,,0.0,2.0,0.001,,,0.654,0.846,0.0,15.6,,,,,,75.2,60.8,,,,,62.6,64.4,62.6,66.2,62.6,64.4,64.4,66.2,,,60.08,0.0,63.05,0.8384308510638298,0.8085106382978723,0.0,0.08433333333333333,395.6,True,2026-04-03 20:17:48,0.0,0.0
15.06,1,8,2026-04-03 20:17:56,37.08158,-121.59958,332.0,0.0,137.1,-12.6,,,,,0.0,10.7,-1.0,10.7,0.0,122.0,0.1,-0.02,1.0,99.0,-80.0,24,0.0,29.96,1180.0,,,79,,,,,0,0,,,,,,,,,,,,,,,,,,,0.0,16.0,0.0,0.0,30.2,0.0,,0.0,0.0,,,33.1,0.0,0.0,-0.6,8.3,6.5,,,,,17.0,18.0,17.0,19.0,17.0,18.0,18.0,19.0,,,4.0,254.4,,0.0,2.0,0.001,,,0.654,0.848,0.0,15.6,,,,,,75.2,60.8,,,,,62.6,64.4,62.6,66.2,62.6,64.4,64.4,66.2,,,60.08,0.0,63.05,0.8384308510638298,0.8085106382978723,0.0,0.16866666666666666,395.6,True,2026-04-03 20:17:48,0.0,0.0
16.06,1,8,2026-04-03 20:17:57,37.08158,-121.59958,332.0,0.0,137.1,-12.6,,,,,0.0,10.7,-1.0,10.7,0.0,121.0,0.1,-0.01,1.0,99.0,-66.0,24,0.0,29.96,1180.0,,,79,,,,,0,0,,,,,,,,,,,,,,,,,,,0.0,16.0,0.0,0.0,30.2,0.0,,0.0,0.0,,,33.1,0.0,0.0,-0.6,8.3,6.5,,,,,17.0,19.0,17.0,19.0,17.0,19.0,18.0,19.0,,,4.0,254.4,,0.0,2.0,0.001,,,0.654,0.848,0.0,15.6,,,,,,75.2,60.8,,,,,62.6,66.2,62.6,66.2,62.6,66.2,64.4,66.2,,,60.08,0.0,63.05,0.8384308510638298,0.8085106382978723,0.0,0.16866666666666666,395.6,True,2026-04-03 20:17:48,0.0,0.0
17.06,1,8,2026-04-03 20:17:58,37.08158,-121.59958,331.0,0.0,137.1,-12.6,,,,,0.0,10.7,-1.0,10.7,0.0,121.0,0.1,-0.02,1.0,99.0,-60.0,24,0.0,29.96,1186.0,,,79,,,,,0,0,,,,,,,,,,,,,,,,,,,0.0,16.0,0.0,0.0,30.2,0.0,,0.0,0.0,,,33.1,0.0,0.0,-0.6,8.3,6.5,,,,,17.0,19.0,17.0,19.0,17.0,19.0,18.0,19.0,,,5.0,254.4,,0.0,2.0,0.001,,,0.654,0.85,0.0,15.6,,,,,,75.2,60.8,,,,,62.6,66.2,62.6,66.2,62.6,66.2,64.4,66.2,,,60.08,0.0,63.05,0.8384308510638298,0.8085106382978723,0.0,0.16866666666666666,395.6,True,2026-04-03 20:17:48,0.0,0.0
18.06,1,8,2026-04-03 20:17:59,37.08158,-121.59958,330.0,0.0,137.1,-12.6,,,,,0.0,10.7,-1.0,10.7,0.0,118.0,0.1,-0.02,1.0,99.0,-89.0,24,0.0,29.96,1186.0,,,79,,,,,0,0,,,,,,,,,,,,,,,,,,,0.0,16.0,0.0,0.0,30.2,0.0,,0.0,0.0,,,33.1,0.0,0.0,-0.6,8.3,6.5,,,,,17.0,19.0,17.0,19.0,17.0,19.0,18.0,19.0,,,5.0,254.4,,0.0,2.0,0.001,,,0.654,0.851,0.0,15.6,,,,,,75.2,60.8,,,,,62.6,66.2,62.6,66.2,62.6,66.2,64.4,66.2,,,60.08,0.0,63.05,0.8384308510638298,0.8085106382978723,0.0,0.16866666666666666,395.6,True,2026-04-03 20:17:48,0.0,0.0
19.06,1,8,2026-04-03 20:18:00,37.08158,-121.59958,329.0,0.0,137.1,-12.6,,,,,0.0,10.7,-1.0,10.6,0.0,117.0,0.0,-0.02,1.0,99.0,-82.0,24,0.0,29.96,1186.0,,,79,,,,,0,0,,,,,,,,,,,,,,,,,,,0.0,16.0,0.0,0.0,30.2,0.0,,0.0,0.0,,,33.1,0.0,0.0,-0.6,8.3,6.5,,,,,17.0,19.0,17.0,19.0,17.0,19.0,18.0,19.0,,,5.0,254.4,,0.0,2.0,0.001,,,0.654,0.851,0.0,15.6,,,,,,75.2,60.8,,,,,62.6,66.2,62.6,66.2,62.6,66.2,64.4,66.2,,,60.08,0.0,63.05,0.8384308510638298,0.8085106382978723,0.0,0.16866666666666666,395.6,True,2026-04-03 20:17:48,0.0,0.0
20.06,1,8,2026-04-03 20:18:01,37.08158,-121.59958,328.0,0.0,137.1,-12.6,,,,,0.0,10.7,-1.0,10.7,0.0,116.0,0.1,-0.02,1.0,99.0,-107.0,24,0.0,29.96,1183.0,,,79,,,,,0,0,,,,,,,,,,,,,,,,,,,0.0,16.0,0.0,0.0,30.2,0.0,,0.0,0.0,,,33.1,0.0,0.0,-0.6,8.3,6.5,,,,,17.0,19.0,17.0,19.0,17.0,19.0,18.0,19.0,,,4.0,254.4,,0.0,2.0,0.001,,,0.654,0.851,0.0,15.6,,,,,,75.2,60.8,,,,,62.6,66.2,62.6,66.2,62.6,66.2,64.4,66.2,,,60.08,0.0,63.05,0.8384308510638298,0.8085106382978723,0.0,0.16866666666666666,395.6,True,2026-04-03 20:17:48,0.0,0.0
21.06,1,8,2026-04-03 20:18:02,37.08158,-121.59958,327.0,0.0,137.1,-12.6,,,,,0.0,10.7,-1.0,10.7,0.0,115.0,0.1,-0.02,1.0,99.0,-69.0,24,0.0,29.96,1183.0,,,79,,,,,0,0,,,,,,,,,,,,,,,,,,,0.0,16.0,0.0,0.0,30.2,0.0,,0.0,0.0,,,33.1,0.0,0.0,-0.6,8.3,6.5,,,,,17.0,19.0,17.0,19.0,17.0,19.0,18.0,19.0,,,4.0,254.4,,0.0,2.0,0.001,,,0.654,0.853,0.0,15.6,,,,,,75.2,60.8,,,,,62.6,66.2,62.6,66.2,62.6,66.2,64.4,66.2,,,60.08,0.0,63.05,0.8384308510638298,0.8085106382978723,0.0,0.16866666666666666,395.6,True,2026-04-03 20:17:48,0.0,0.0
22.06,1,8,2026-04-03 20:18:03,37.08158,-121.59958,326.0,0.0,137.1,-12.6,,,,,0.0,10.7,-1.0,10.7,0.0,115.0,0.1,-0.02,1.0,99.0,-42.0,24,0.0,29.96,1183.0,,,79,,,,,0,0,,,,,,,,,,,,,,,,,,,0.0,16.0,0.0,0.0,30.2,0.0,,0.0,0.0,,,33.1,0.0,0.0,-0.6,8.3,6.5,,,,,17.0,19.0,17.0,19.0,17.0,19.0,18.0,19.0,,,4.0,254.4,,0.0,2.0,0.001,,,0.654,0.853,0.0,15.6,,,,,,75.2,60.8,,,,,62.6,66.2,62.6,66.2,62.6,66.2,64.4,66.2,,,60.08,0.0,63.05,0.8384308510638298,0.8085106382978723,0.0,0.16866666666666666,395.6,True,2026-04-03 20:17:48,0.0,0.0
23.06,1,8,2026-04-03 20:18:04,37.08159,-121.59958,325.0,0.0,137.1,-12.6,,,,,0.0,10.7,-1.0,10.7,0.0,115.0,0.1,-0.02,1.0,99.0,-12.0,24,0.0,29.96,1180.0,,,79,,,,,0,0,,,,,,,,,,,,,,,,,,,0.0,16.0,0.0,0.0,30.2,0.0,,0.0,0.0,,,33.1,0.0,0.0,-0.6,8.3,6.5,,,,,17.0,19.0,17.0,19.0,17.0,19.0,18.0,19.0,,,4.0,254.4,,0.0,2.0,0.001,,,0.653,0.853,0.0,15.6,,,,,,75.2,60.8,,,,,62.6,66.2,62.6,66.2,62.6,66.2,64.4,66.2,,,60.08,0.0,63.05,0.8384308510638298,0.8085106382978723,0.0,0.16866666666666666,395.6,True,2026-04-03 20:17:48,0.0,0.0
24.06,1,8,2026-04-03 20:18:05,37.08159,-121.59958,324.0,0.0,137.1,-12.6,,,,,0.0,10.7,-1.0,10.7,0.0,115.0,0.1,-0.02,1.0,99.0,-35.0,24,0.0,29.96,1180.0,,,79,,,,,0,0,,,,,,,,,,,,,,,,,,,0.0,16.0,0.0,0.0,30.2,0.0,,0.0,0.0,,,33.1,0.0,0.0,-0.6,8.3,6.5,,,,,17.0,19.0,17.0,19.0,17.0,19.0,18.0,19.0,,,4.0,254.4,,0.0,2.0,0.001,,,0.654,0.853,0.0,15.6,,,,,,75.2,60.8,,,,,62.6,66.2,62.6,66.2,62.6,66.2,64.4,66.2,,,60.08,0.0,63.05,0.8384308510638298,0.8085106382978723,0.0,0.16866666666666666,395.6,True,2026-04-03 20:17:48,0.0,0.0
25.06,1,8,2026-04-03 20:18:06,37.08159,-121.59958,323.0,0.0,137.1,-12.6,,,,,0.0,10.7,-1.0,10.7,0.0,115.0,0.1,-0.02,1.0,99.0,-2.0,24,0.0,29.96,1180.0,,,79,,,,,0,0,,,,,,,,,,,,,,,,,,,0.0,16.0,0.0,0.0,30.2,0.0,,0.0,0.0,,,33.1,0.0,0.0,-0.6,8.3,6.5,,,,,17.0,19.0,17.0,19.0,17.0,19.0,18.0,19.0,,,3.0,254.4,,0.0,2.0,0.001,,,0.653,0.853,0.0,15.6,,,,,,75.2,60.8,,,,,62.6,66.2,62.6,66.2,62.6,66.2,64.4,66.2,,,60.08,0.0,63.05,0.8384308510638298,0.8085106382978723,0.0,0.16866666666666666,395.6,True,2026-04-03 20:17:48,0.0,0.0
26.06,1,8,2026-04-03 20:18:07,37.08159,-121.59958,322.0,0.0,137.1,-12.6,,,,,0.0,10.7,-1.0,10.7,0.0,114.0,0.1,-0.02,1.0,99.0,-27.0,24,0.0,29.96,1190.0,,,79,,,,,0,0,,,,,,,,,,,,,,,,,,,0.0,16.0,0.0,0.0,30.2,0.0,,0.0,0.0,,,33.1,0.0,0.0,-0.6,8.3,6.5,,,,,17.0,19.0,17.0,19.0,17.0,19.0,18.0,19.0,,,3.0,254.4,,0.0,2.0,0.001,,,0.653,0.853,0.0,15.6,,,,,,75.2,60.8,,,,,62.6,66.2,62.6,66.2,62.6,66.2,64.4,66.2,,,60.08,0.0,63.05,0.8384308510638298,0.8085106382978723,0.0,0.16866666666666666,395.6,True,2026-04-03 20:17:48,0.0,0.0
27.06,1,8,2026-04-03 20:18:08,37.08159,-121.59958,321.0,0.0,137.1,-12.6,,,,,0.0,10.7,-1.0,10.6,0.0,114.0,0.1,-0.02,1.0,99.0,8.0,24,0.0,29.96,1190.0,,,79,,,,,0,0,,,,,,,,,,,,,,,,,,,0.0,16.0,0.0,0.0,30.2,0.0,,0.0,0.0,,,33.1,0.0,0.0,-0.6,8.3,6.5,,,,,17.0,18.0,17.0,19.0,17.0,19.0,18.0,19.0,,,3.0,254.4,,0.0,2.0,0.001,,,0.653,0.853,0.0,15.6,,,,,,75.2,60.8,,,,,62.6,64.4,62.6,66.2,62.6,66.2,64.4,66.2,,,60.08,0.0,63.05,0.8384308510638298,0.8085106382978723,0.0,0.16866666666666666,395.6,True,2026-04-03 20:17:48,0.0,0.0
28.06,1,8,2026-04-03 20:18:09,37.08159,-121.59958,321.0,0.0,137.1,-12.6,,,,,0.0,10.7,-1.1,10.6,0.0,114.0,0.1,-0.02,1.0,99.0,-25.0,24,0.0,29.96,1190.0,,,79,,,,,0,0,,,,,,,,,,,,,,,,,,,0.0,16.0,0.0,0.0,30.2,0.0,,0.0,0.0,,,33.1,0.0,0.0,-0.6,8.3,6.5,,,,,17.0,19.0,17.0,19.0,18.0,19.0,18.0,19.0,,,3.0,254.4,,0.0,2.0,0.001,,,0.654,0.853,0.0,15.6,,,,,,75.2,60.8,,,,,62.6,66.2,62.6,66.2,64.4,66.2,64.4,66.2,,,60.08,0.0,63.5,0.8444148936170213,0.8085106382978723,0.0,0.16866666666666666,395.6,True,2026-04-03 20:17:48,0.0,0.0
29.06,1,8,2026-04-03 20:18:10,37.08159,-121.59958,320.0,0.0,137.1,-12.6,,,,,0.0,10.7,-1.1,10.6,0.0,114.0,0.1,-0.02,1.0,99.0,-22.0,24,0.0,29.96,1189.0,,,79,,,,,0,0,,,,,,,,,,,,,,,,,,,0.0,16.0,0.0,0.0,30.2,0.0,,0.0,0.0,,,33.1,0.0,0.0,-0.6,8.3,6.5,,,,,17.0,18.0,17.0,19.0,17.0,19.0,18.0,19.0,,,3.0,254.4,,0.0,2.0,0.001,,,0.653,0.85,0.0,15.6,,,,,,75.2,60.8,,,,,62.6,64.4,62.6,66.2,62.6,66.2,64.4,66.2,,,60.08,0.0,63.05,0.8384308510638298,0.8085106382978723,0.0,0.16866666666666666,395.6,True,2026-04-03 20:17:48,0.0,0.0
30.06,1,8,2026-04-03 20:18:11,37.08159,-121.59958,320.0,0.0,137.1,-12.6,,,,,0.0,10.7,-1.1,10.5,0.0,114.0,0.1,-0.02,1.0,99.0,-30.0,24,0.0,29.96,1190.0,,,79,,,,,0,0,,,,,,,,,,,,,,,,,,,0.0,16.0,0.0,0.0,30.2,0.0,,0.0,0.0,,,33.1,0.0,0.0,-0.6,8.3,6.5,,,,,17.0,18.0,17.0,19.0,17.0,19.0,18.0,19.0,,,3.0,254.4,,0.0,2.0,0.001,,,0.653,0.85,0.0,15.6,,,,,,75.2,60.8,,,,,62.6,64.4,62.6,66.2,62.6,66.2,64.4,66.2,,,60.08,0.0,63.05,0.8384308510638298,0.8085106382978723,0.0,0.16866666666666666,395.6,True,2026-04-03 20:17:48,0.0,0.0
31.06,1,8,2026-04-03 20:18:12,37.08159,-121.59959,320.0,0.0,137.1,-12.6,,,,,0.0,10.7,-1.0,10.6,0.0,113.0,0.1,-0.02,1.0,99.0,-42.0,24,0.0,29.96,1190.0,,,79,,,,,0,0,,,,,,,,,,,,,,,,,,,0.0,16.0,0.0,0.0,30.2,0.0,,0.0,0.0,,,33.1,0.0,0.0,-0.6,8.3,6.5,,,,,17.0,18.0,17.0,19.0,17.0,19.0,18.0,19.0,,,3.0,254.4,,0.0,2.0,0.001,,,0.653,0.85,0.0,15.6,,,,,,75.2,60.8,,,,,62.6,64.4,62.6,66.2,62.6,66.2,64.4,66.2,,,60.08,0.0,63.05,0.8384308510638298,0.8085106382978723,0.0,0.16866666666666666,395.6,True,2026-04-03 20:17:48,0.0,0.0
32.06,1,8,2026-04-03 20:18:13,37.08159,-121.59959,320.0,0.0,137.1,-12.6,,,,,0.0,10.7,-1.0,10.6,0.0,111.0,0.1,-0.02,1.0,99.0,-88.0,24,0.0,29.96,1190.0,,,79,,,,,0,0,,,,,,,,,,,,,,,,,,,0.0,16.0,0.0,0.0,30.2,0.0,,0.0,0.0,,,33.1,0.0,0.0,-0.6,8.3,6.5,,,,,17.0,18.0,17.0,19.0,17.0,19.0,18.0,19.0,,,3.0,254.4,,0.0,2.0,0.001,,,0.653,0.851,0.0,15.6,,,,,,75.2,60.8,,,,,62.6,64.4,62.6,66.2,62.6,66.2,64.4,66.2,,,60.08,0.0,63.05,0.8384308510638298,0.8085106382978723,0.0,0.16866666666666666,395.6,True,2026-04-03 20:17:48,0.0,0.0
33.06,1,8,2026-04-03 20:18:14,37.08159,-121.59959,320.0,0.0,137.1,-12.6,,,,,0.0,10.7,-1.0,10.6,0.0,110.0,0.0,-0.02,1.0,99.0,-77.0,24,0.0,29.96,1195.0,,,79,,,,,0,0,,,,,,,,,,,,,,,,,,,0.0,16.0,0.0,0.0,30.2,0.0,,0.0,0.0,,,33.1,0.0,0.0,-0.6,8.3,6.5,,,,,17.0,19.0,17.0,19.0,18.0,19.0,18.0,19.0,,,3.0,254.4,,0.0,2.0,0.001,,,0.653,0.851,0.0,15.6,,,,,,75.2,60.8,,,,,62.6,66.2,62.6,66.2,64.4,66.2,64.4,66.2,,,60.08,0.0,63.5,0.8444148936170213,0.8085106382978723,0.0,0.16866666666666666,395.6,True,2026-04-03 20:17:48,0.0,0.0
34.06,1,8,2026-04-03 20:18:15,37.08159,-121.59959,321.0,0.1,137.1,-12.6,,,,,0.0,10.6,-1.1,10.6,0.0,108.0,0.0,-0.02,1.0,99.0,-96.0,24,0.0,29.96,1195.0,,,79,,,,,0,0,,,,,,,,,,,,,,,,,,,0.0,16.0,0.0,0.0,30.2,0.0,,0.0,0.0,,,33.1,0.0,0.0,-0.6,8.3,6.5,,,,,17.0,19.0,17.0,19.0,18.0,19.0,18.0,19.0,,,3.0,254.4,,0.0,2.0,0.001,,,0.653,0.853,0.0,15.6,,,,,,75.2,60.8,,,,,62.6,66.2,62.6,66.2,64.4,66.2,64.4,66.2,,,60.08,0.0,63.5,0.8444148936170213,0.8085106382978723,0.0,0.253,395.6,True,2026-04-03 20:17:48,0.0,0.0
35.06,1,8,2026-04-03 20:18:16,37.08158,-121.59959,321.0,0.0,137.1,-12.6,,,,,0.0,10.7,-1.0,10.6,0.0,107.0,0.1,-0.01,1.0,99.0,-82.0,24,0.0,29.96,1195.0,,,79,,,,,0,0,,,,,,,,,,,,,,,,,,,0.0,16.0,0.0,0.0,30.2,0.0,,0.0,0.0,,,33.1,0.0,0.0,-0.6,8.3,6.5,,,,,17.0,19.0,17.0,19.0,18.0,19.0,18.0,19.0,,,2.0,254.4,,0.0,2.0,0.001,,,0.653,0.854,0.0,15.6,,,,,,75.2,60.8,,,,,62.6,66.2,62.6,66.2,64.4,66.2,64.4,66.2,,,60.08,0.0,63.5,0.8444148936170213,0.8085106382978723,0.0,0.3373333333333333,395.6,True,2026-04-03 20:17:48,0.0,0.0
36.06,1,8,2026-04-03 20:18:17,37.08158,-121.59959,321.0,0.0,137.1,-12.6,,,,,0.0,10.7,-1.0,10.5,0.0,105.0,0.1,-0.02,1.0,99.0,-109.0,24,0.0,29.96,1190.0,,,79,,,,,0,0,,,,,,,,,,,,,,,,,,,0.0,16.0,0.0,0.0,30.2,0.0,,0.0,0.0,,,33.1,0.0,0.0,-0.6,8.3,6.5,,,,,17.0,19.0,17.0,19.0,18.0,19.0,18.0,19.0,,,2.0,254.4,,0.0,2.0,0.001,,,0.653,0.856,0.0,15.6,,,,,,75.2,60.8,,,,,62.6,66.2,62.6,66.2,64.4,66.2,64.4,66.2,,,60.08,0.0,63.5,0.8444148936170213,0.8085106382978723,0.0,0.3373333333333333,395.6,True,2026-04-03 20:17:48,0.0,0.0
37.06,1,8,2026-04-03 20:18:18,37.08158,-121.59959,321.0,0.0,137.1,-12.6,,,,,0.0,10.7,-1.0,10.5,0.0,103.0,0.1,-0.02,1.0,99.0,-129.0,24,0.0,29.96,1190.0,,,79,,,,,0,0,,,,,,,,,,,,,,,,,,,0.0,16.0,0.0,0.0,30.2,0.0,,0.0,0.0,,,33.1,0.0,0.0,-0.6,8.3,6.5,,,,,17.0,19.0,17.0,19.0,18.0,19.0,18.0,19.0,,,1.0,254.4,,0.0,2.0,0.001,,,0.653,0.852,0.0,15.6,,,,,,75.2,60.8,,,,,62.6,66.2,62.6,66.2,64.4,66.2,64.4,66.2,,,60.08,0.0,63.5,0.8444148936170213,0.8085106382978723,0.0,0.3373333333333333,395.6,True,2026-04-03 20:17:48,0.0,0.0
38.06,1,8,2026-04-03 20:18:19,37.08158,-121.59959,321.0,0.0,137.1,-12.6,,,,,0.0,10.7,-1.0,10.6,0.0,102.0,0.1,-0.02,1.0,99.0,-102.0,24,0.0,29.96,1190.0,,,79,,,,,0,0,,,,,,,,,,,,,,,,,,,0.0,16.0,0.0,0.0,30.2,0.0,,0.0,0.0,,,33.1,0.0,0.0,-0.6,8.3,6.5,,,,,17.0,19.0,17.0,19.0,18.0,19.0,18.0,19.0,,,0.0,254.4,,0.0,2.0,0.001,,,0.654,0.853,0.0,15.6,,,,,,75.2,60.8,,,,,62.6,66.2,62.6,66.2,64.4,66.2,64.4,66.2,,,60.08,0.0,63.5,0.8444148936170213,0.8085106382978723,0.0,0.3373333333333333,395.6,True,2026-04-03 20:17:48,0.0,0.0
39.06,1,8,2026-04-03 20:18:20,37.08158,-121.59959,321.0,0.0,137.1,-12.6,,,,,0.0,10.7,-1.1,10.6,0.0,100.0,0.1,-0.02,1.0,99.0,-99.0,24,0.0,29.96,1194.0,,,79,,,,,0,0,,,,,,,,,,,,,,,,,,,0.0,16.0,0.0,0.0,30.2,0.0,,0.0,0.0,,,33.1,0.0,0.0,-0.6,8.3,6.5,,,,,17.0,19.0,17.0,19.0,18.0,19.0,18.0,19.0,,,-1.0,254.4,,0.0,2.0,0.001,,,0.653,0.856,0.0,15.6,,,,,,75.2,60.8,,,,,62.6,66.2,62.6,66.2,64.4,66.2,64.4,66.2,,,60.08,0.0,63.5,0.8444148936170213,0.8085106382978723,0.0,0.3373333333333333,395.6,True,2026-04-03 20:17:48,0.0,0.0
40.06,1,8,2026-04-03 20:18:21,37.08158,-121.59959,321.0,0.0,137.1,-12.6,,,,,0.0,10.7,-1.0,10.6,0.0,100.0,0.1,-0.02,1.0,99.0,-73.0,24,0.0,29.96,1194.0,,,79,,,,,0,0,,,,,,,,,,,,,,,,,,,0.0,16.0,0.0,0.0,30.2,0.0,,0.0,0.0,,,33.1,0.0,0.0,-0.6,8.3,6.5,,,,,17.0,19.0,18.0,19.0,18.0,19.0,18.0,19.0,,,-1.0,254.4,,0.0,2.0,0.001,,,0.653,0.858,0.0,15.6,,,,,,75.2,60.8,,,,,62.6,66.2,64.4,66.2,64.4,66.2,64.4,66.2,,,60.08,0.0,63.95,0.8503989361702128,0.8085106382978723,0.0,0.3373333333333333,395.6,True,2026-04-03 20:17:48,0.0,0.0
41.06,1,8,2026-04-03 20:18:22,37.08158,-121.59959,321.0,0.0,137.1,-12.6,,,,,0.0,10.7,-1.1,10.6,0.0,98.0,0.1,-0.02,1.0,99.0,-72.0,24,0.0,29.96,1194.0,,,79,,,,,0,0,,,,,,,,,,,,,,,,,,,0.0,16.0,0.0,0.0,30.2,0.0,,0.0,0.0,,,33.1,0.0,0.0,-0.6,8.3,6.5,,,,,17.0,19.0,17.0,19.0,17.0,19.0,18.0,19.0,,,-1.0,254.3,,0.0,2.0,0.001,,,0.653,0.865,0.0,15.6,,,,,,75.2,60.8,,,,,62.6,66.2,62.6,66.2,62.6,66.2,64.4,66.2,,,60.08,0.0,63.05,0.8384308510638298,0.8085106382978723,0.0,0.3373333333333333,395.6,True,2026-04-03 20:17:48,0.0,0.0
42.06,1,8,2026-04-03 20:18:23,37.08158,-121.59959,321.0,0.0,137.1,-12.6,,,,,0.0,10.7,-1.1,10.6,0.0,98.0,0.1,-0.02,1.0,99.0,-53.0,24,0.0,29.96,1190.0,,,79,,,,,0,0,,,,,,,,,,,,,,,,,,,0.0,16.0,0.0,0.0,30.2,0.0,,0.0,0.0,,,33.1,0.0,0.0,-0.6,8.3,6.5,,,,,17.0,19.0,17.0,19.0,17.0,19.0,18.0,19.0,,,-1.0,244.0,,0.0,2.0,0.001,,,0.653,0.867,0.0,15.6,,,,,,75.2,60.8,,,,,62.6,66.2,62.6,66.2,62.6,66.2,64.4,66.2,,,60.08,0.0,63.05,0.8384308510638298,0.8085106382978723,0.0,0.3373333333333333,395.6,True,2026-04-03 20:17:48,0.0,0.0
43.06,1,8,2026-04-03 20:18:24,37.08158,-121.59959,321.0,0.0,137.1,-12.6,,,,,0.0,10.8,-1.1,10.5,0.0,98.0,0.0,-0.02,1.0,99.0,-18.0,24,0.0,29.96,1190.0,,,79,,,,,0,0,,,,,,,,,,,,,,,,,,,0.0,16.0,0.0,0.0,30.2,0.0,,0.0,0.0,,,33.1,0.0,0.0,-0.6,8.3,6.5,,,,,17.0,19.0,17.0,19.0,17.0,19.0,18.0,19.0,,,-1.0,189.9,,0.0,2.0,0.001,,,0.653,0.868,0.0,15.6,,,,,,75.2,60.8,,,,,62.6,66.2,62.6,66.2,62.6,66.2,64.4,66.2,,,60.08,0.0,63.05,0.8384308510638298,0.8085106382978723,0.0,0.3373333333333333,395.6,True,2026-04-03 20:17:48,0.0,0.0
44.06,1,8,2026-04-03 20:18:25,37.08158,-121.59959,321.0,0.0,137.1,-12.6,,,,,0.0,10.7,-1.0,10.6,0.0,98.0,0.1,-0.02,1.0,99.0,-12.0,24,0.0,29.96,1191.0,,,79,,,,,0,0,,,,,,,,,,,,,,,,,,,0.0,16.0,0.0,0.0,30.2,0.0,,0.0,0.0,,,33.1,0.0,0.0,-0.6,8.3,6.5,,,,,17.0,19.0,17.0,19.0,17.0,19.0,18.0,19.0,,,-1.0,147.9,,0.0,2.0,0.001,,,0.653,0.87,0.0,15.6,,,,,,75.2,60.8,,,,,62.6,66.2,62.6,66.2,62.6,66.2,64.4,66.2,,,60.08,0.0,63.05,0.8384308510638298,0.8085106382978723,0.0,0.3373333333333333,395.6,True,2026-04-03 20:17:48,0.0,0.0
45.06,1,8,2026-04-03 20:18:26,37.08157,-121.59959,322.0,0.0,137.1,-12.6,,,,,0.0,10.7,-1.0,10.6,0.0,98.0,0.1,-0.02,1.0,99.0,-26.0,24,0.0,29.96,1191.0,,,79,,,,,0,0,,,,,,,,,,,,,,,,,,,0.0,16.0,0.0,0.0,30.2,0.0,,0.0,0.0,,,33.1,0.0,0.0,-0.6,8.3,6.5,,,,,17.0,19.0,18.0,19.0,18.0,19.0,18.0,19.0,,,-1.0,115.1,,0.0,2.0,0.001,,,0.653,0.869,0.0,15.6,,,,,,75.2,60.8,,,,,62.6,66.2,64.4,66.2,64.4,66.2,64.4,66.2,,,60.08,0.0,63.95,0.8503989361702128,0.8085106382978723,0.0,0.3373333333333333,395.6,True,2026-04-03 20:17:48,0.0,0.0
46.06,1,8,2026-04-03 20:18:27,37.08157,-121.59959,322.0,0.0,137.1,-12.6,,,,,0.0,10.7,-1.0,10.7,0.0,98.0,0.1,-0.02,1.0,99.0,-25.0,24,0.0,29.96,1191.0,,,79,,,,,0,0,,,,,,,,,,,,,,,,,,,0.0,16.0,0.0,0.0,30.2,0.0,,0.0,0.0,,,33.1,0.0,0.0,-0.6,8.3,6.5,,,,,17.0,19.0,18.0,19.0,18.0,19.0,18.0,19.0,,,-1.0,89.7,,0.0,2.0,0.001,,,0.653,0.875,0.0,15.6,,,,,,75.2,60.8,,,,,62.6,66.2,64.4,66.2,64.4,66.2,64.4,66.2,,,60.08,0.0,63.95,0.8503989361702128,0.8085106382978723,0.0,0.3373333333333333,395.6,True,2026-04-03 20:17:48,0.0,0.0
47.06,1,8,2026-04-03 20:18:28,37.08157,-121.59959,322.0,0.0,137.1,-12.6,,,,,0.0,10.7,-1.0,10.7,0.0,97.0,0.1,-0.02,1.0,99.0,-44.0,24,0.0,29.96,1200.0,,,79,,,,,0,0,,,,,,,,,,,,,,,,,,,0.0,16.0,0.0,0.0,30.2,0.0,,0.0,0.0,,,33.1,0.0,0.0,-0.6,8.3,6.5,,,,,17.0,19.0,18.0,19.0,18.0,19.0,18.0,19.0,,,-1.0,69.9,,0.0,2.0,0.001,,,0.653,0.884,0.0,15.6,,,,,,75.2,60.8,,,,,62.6,66.2,64.4,66.2,64.4,66.2,64.4,66.2,,,60.08,0.0,63.95,0.8503989361702128,0.8085106382978723,0.0,0.3373333333333333,395.6,True,2026-04-03 20:17:48,0.0,0.0
48.06,1,8,2026-04-03 20:18:29,37.08157,-121.59959,322.0,0.1,137.1,-12.6,,,,,0.0,10.7,-1.0,10.7,0.0,97.0,0.1,-0.02,1.0,99.0,-3.0,24,0.0,29.96,1200.0,,,79,,,,,0,0,,,,,,,,,,,,,,,,,,,0.0,16.0,0.0,0.0,30.2,0.0,,0.0,0.0,,,33.1,0.0,0.0,-0.7,8.3,6.5,,,,,17.0,19.0,18.0,19.0,18.0,19.0,18.0,19.0,,,-1.0,54.6,,0.0,2.0,0.001,,,0.653,0.887,0.0,15.6,,,,,,75.2,60.8,,,,,62.6,66.2,64.4,66.2,64.4,66.2,64.4,66.2,,,60.08,0.0,63.95,0.8503989361702128,0.8085106382978723,0.0,0.42166666666666663,395.6,True,2026-04-03 20:17:48,0.0,0.0
49.06,1,8,2026-04-03 20:18:30,37.08157,-121.59959,322.0,0.0,137.1,-12.6,,,,,0.0,10.7,-1.0,10.7,0.0,97.0,0.1,-0.02,1.0,99.0,5.0,24,0.0,29.96,1200.0,,,79,,,,,0,0,,,,,,,,,,,,,,,,,,,0.0,16.0,0.0,0.0,30.2,0.0,,0.0,0.0,,,33.1,0.0,0.0,-0.7,8.3,6.5,,,,,17.0,19.0,18.0,19.0,18.0,19.0,18.0,19.0,,,-1.0,42.6,,0.0,2.0,0.001,,,0.654,0.885,0.0,15.6,,,,,,75.2,60.8,,,,,62.6,66.2,64.4,66.2,64.4,66.2,64.4,66.2,,,60.08,0.0,63.95,0.8503989361702128,0.8085106382978723,0.0,0.506,395.6,True,2026-04-03 20:17:48,0.0,0.0
50.06,1,8,2026-04-03 20:18:31,37.08157,-121.59959,323.0,0.0,137.1,-12.6,,,,,0.0,10.7,-1.0,10.7,0.0,97.0,0.1,-0.02,1.0,99.0,-34.0,24,0.0,29.96,1199.0,,,79,,,,,0,0,,,,,,,,,,,,,,,,,,,0.0,16.0,0.0,0.0,30.2,0.0,,0.0,0.0,,,33.1,0.0,0.0,-0.7,8.3,6.5,,,,,17.0,19.0,17.0,19.0,18.0,19.0,18.0,19.0,,,-1.0,33.3,,0.0,2.0,0.001,,,0.653,0.863,0.0,15.6,,,,,,75.2,60.8,,,,,62.6,66.2,62.6,66.2,64.4,66.2,64.4,66.2,,,60.08,0.0,63.5,0.8444148936170213,0.8085106382978723,0.0,0.506,395.6,True,2026-04-03 20:17:48,0.0,0.0
51.06,1,8,2026-04-03 20:18:32,37.08157,-121.59959,323.0,0.0,137.1,-12.6,,,,,0.0,10.7,-1.0,10.7,0.0,96.0,0.1,-0.02,1.0,99.0,-42.0,24,0.0,29.96,1199.0,,,79,,,,,0,0,,,,,,,,,,,,,,,,,,,0.0,16.0,0.0,0.0,30.2,0.0,,0.0,0.0,,,33.1,0.0,0.0,-0.7,8.3,6.5,,,,,17.0,19.0,17.0,19.0,18.0,19.0,18.0,19.0,,,-1.0,26.1,,0.0,2.0,0.001,,,0.653,0.857,0.0,15.6,,,,,,75.2,60.8,,,,,62.6,66.2,62.6,66.2,64.4,66.2,64.4,66.2,,,60.08,0.0,63.5,0.8444148936170213,0.8085106382978723,0.0,0.506,395.6,True,2026-04-03 20:17:48,0.0,0.0
52.06,1,8,2026-04-03 20:18:33,37.08157,-121.59959,323.0,0.0,137.1,-12.6,,,,,0.0,10.7,-1.0,10.7,0.0,96.0,0.1,-0.02,1.0,99.0,8.0,24,0.0,29.96,1199.0,,,79,,,,,0,0,,,,,,,,,,,,,,,,,,,0.0,16.0,0.0,0.0,30.2,0.0,,0.0,0.0,,,33.1,0.0,0.0,-0.7,8.3,6.5,,,,,17.0,19.0,17.0,19.0,18.0,19.0,18.0,19.0,,,-1.0,20.5,,0.0,2.0,0.001,,,0.653,0.85,0.0,15.6,,,,,,75.2,60.8,,,,,62.6,66.2,62.6,66.2,64.4,66.2,64.4,66.2,,,60.08,0.0,63.5,0.8444148936170213,0.8085106382978723,0.0,0.506,395.6,True,2026-04-03 20:17:48,0.0,0.0
53.06,1,8,2026-04-03 20:18:34,37.08157,-121.59959,323.0,0.0,137.1,-12.6,,,,,0.0,10.7,-1.0,10.7,0.0,96.0,0.1,-0.02,1.0,99.0,-2.0,24,0.0,29.96,1208.0,,,79,,,,,0,0,,,,,,,,,,,,,,,,,,,0.0,16.0,0.0,0.0,30.2,0.0,,0.0,0.0,,,33.1,0.0,0.0,-0.7,8.3,6.5,,,,,17.0,19.0,17.0,19.0,18.0,19.0,18.0,19.0,,,-1.0,16.2,,0.0,2.0,0.001,,,0.653,0.85,0.0,15.6,,,,,,75.2,60.8,,,,,62.6,66.2,62.6,66.2,64.4,66.2,64.4,66.2,,,60.08,0.0,63.5,0.8444148936170213,0.8085106382978723,0.0,0.506,395.6,True,2026-04-03 20:17:48,0.0,0.0
54.06,1,8,2026-04-03 20:18:35,37.08157,-121.59959,323.0,0.0,137.1,-12.6,,,,,0.0,10.7,-1.0,10.7,0.0,96.0,0.1,-0.02,1.0,99.0,-4.0,24,0.0,29.96,1208.0,,,79,,,,,0,0,,,,,,,,,,,,,,,,,,,0.0,16.0,0.0,0.0,30.2,0.0,,0.0,0.0,,,33.1,0.0,0.0,-0.7,8.3,6.5,,,,,17.0,19.0,17.0,19.0,18.0,19.0,18.0,19.0,,,-1.0,12.8,,0.0,2.0,0.001,,,0.653,0.846,0.0,15.6,,,,,,75.2,60.8,,,,,62.6,66.2,62.6,66.2,64.4,66.2,64.4,66.2,,,60.08,0.0,63.5,0.8444148936170213,0.8085106382978723,0.0,0.506,395.6,True,2026-04-03 20:17:48,0.0,0.0
55.06,1,8,2026-04-03 20:18:36,37.08157,-121.59959,323.0,0.0,137.1,-12.6,,,,,0.0,10.7,-1.0,10.7,0.0,96.0,0.1,-0.02,1.0,99.0,-28.0,24,0.0,29.96,1208.0,,,79,,,,,0,0,,,,,,,,,,,,,,,,,,,0.0,16.0,0.0,0.0,30.2,0.0,,0.0,0.0,,,33.1,0.0,0.0,-0.7,8.3,6.5,,,,,17.0,19.0,17.0,19.0,18.0,19.0,18.0,19.0,,,-1.0,10.1,,0.0,2.0,0.001,,,0.653,0.847,0.0,15.6,,,,,,75.2,60.8,,,,,62.6,66.2,62.6,66.2,64.4,66.2,64.4,66.2,,,60.08,0.0,63.5,0.8444148936170213,0.8085106382978723,0.0,0.506,395.6,True,2026-04-03 20:17:48,0.0,0.0
56.06,1,8,2026-04-03 20:18:37,37.08157,-121.59959,324.0,0.0,137.1,-12.6,,,,,0.0,10.7,-1.0,10.6,0.0,96.0,0.1,-0.02,1.0,99.0,-52.0,24,0.0,29.96,1208.0,,,79,,,,,0,0,,,,,,,,,,,,,,,,,,,0.0,16.0,0.0,0.0,30.2,0.0,,0.0,0.0,,,33.1,0.0,0.0,-0.7,8.3,6.5,,,,,17.0,19.0,17.0,19.0,18.0,19.0,18.0,19.0,,,-2.0,8.1,,0.0,2.0,0.001,,,0.653,0.846,0.0,15.6,,,,,,75.2,60.8,,,,,62.6,66.2,62.6,66.2,64.4,66.2,64.4,66.2,,,60.08,0.0,63.5,0.8444148936170213,0.8085106382978723,0.0,0.506,395.6,True,2026-04-03 20:17:48,0.0,0.0
57.06,1,8,2026-04-03 20:18:38,37.08157,-121.59959,324.0,0.0,137.1,-12.6,,,,,0.0,10.7,-1.1,10.6,0.0,95.0,0.1,-0.02,1.0,99.0,-41.0,24,0.0,29.96,1208.0,,,79,,,,,0,0,,,,,,,,,,,,,,,,,,,0.0,16.0,0.0,0.0,30.2,0.0,,0.0,0.0,,,33.1,0.0,0.0,-0.7,8.3,6.5,,,,,17.0,19.0,18.0,19.0,18.0,19.0,18.0,20.0,,,-2.0,6.5,,0.0,2.0,0.001,,,0.653,0.848,0.0,15.6,,,,,,75.2,60.8,,,,,62.6,66.2,64.4,66.2,64.4,66.2,64.4,68.0,,,60.08,0.0,63.95,0.8503989361702128,0.8085106382978723,0.0,0.506,395.6,True,2026-04-03 20:17:48,0.0,0.0
58.06,1,8,2026-04-03 20:18:39,37.08157,-121.59959,324.0,0.0,137.1,-12.6,,,,,0.0,10.7,-1.0,10.7,0.0,95.0,0.1,-0.02,1.0,99.0,-35.0,24,0.0,29.96,1208.0,,,79,,,,,0,0,,,,,,,,,,,,,,,,,,,0.0,16.0,0.0,0.0,30.2,0.0,,0.0,0.0,,,33.1,0.0,0.0,-0.7,8.3,6.5,,,,,17.0,19.0,18.0,19.0,18.0,19.0,18.0,20.0,,,-3.0,5.3,,0.0,2.0,0.001,,,0.653,0.847,0.0,15.6,,,,,,75.2,60.8,,,,,62.6,66.2,64.4,66.2,64.4,66.2,64.4,68.0,,,60.08,0.0,63.95,0.8503989361702128,0.8085106382978723,0.0,0.506,395.6,True,2026-04-03 20:17:48,0.0,0.0
59.06,1,8,2026-04-03 20:18:40,37.08157,-121.59959,324.0,0.0,137.1,-12.6,,,,,0.0,10.7,-1.0,10.7,0.0,95.0,0.1,-0.02,1.0,99.0,-28.0,24,0.0,29.96,1217.0,,,79,,,,,0,0,,,,,,,,,,,,,,,,,,,0.0,16.0,0.0,0.0,30.2,0.0,,0.0,0.0,,,33.1,0.0,0.0,-0.7,8.3,6.5,,,,,17.0,19.0,18.0,19.0,18.0,19.0,18.0,20.0,,,-3.0,4.3,,0.0,2.0,0.001,,,0.653,0.844,0.0,15.6,,,,,,75.2,60.8,,,,,62.6,66.2,64.4,66.2,64.4,66.2,64.4,68.0,,,60.08,0.0,63.95,0.8503989361702128,0.8085106382978723,0.0,0.506,395.6,True,2026-04-03 20:17:48,0.0,0.0
60.06,1,8,2026-04-03 20:18:41,37.08157,-121.59959,324.0,0.0,137.1,-12.6,,,,,0.0,10.7,-1.0,10.7,0.0,95.0,0.1,-0.02,1.0,99.0,-17.0,24,0.0,29.96,1217.0,,,79,,,,,0,0,,,,,,,,,,,,,,,,,,,0.0,16.0,0.0,0.0,30.2,0.0,,0.0,0.0,,,33.1,0.0,0.0,-0.7,8.3,6.5,,,,,17.0,19.0,18.0,19.0,18.0,19.0,18.0,20.0,,,-3.0,3.6,,0.0,2.0,0.001,,,0.653,0.842,0.0,15.6,,,,,,75.2,60.8,,,,,62.6,66.2,64.4,66.2,64.4,66.2,64.4,68.0,,,60.08,0.0,63.95,0.8503989361702128,0.8085106382978723,0.0,0.506,395.6,True,2026-04-03 20:17:48,0.0,0.0
61.06,1,8,2026-04-03 20:18:42,37.08157,-121.59959,325.0,0.0,137.1,-12.6,,,,,0.0,10.7,-1.0,10.7,0.0,94.0,0.1,-0.02,1.0,99.0,-46.0,24,0.0,29.96,1217.0,,,79,,,,,0,0,,,,,,,,,,,,,,,,,,,0.0,16.0,0.0,0.0,30.2,0.0,,0.0,0.0,,,33.1,0.0,0.0,-0.7,8.3,6.5,,,,,17.0,19.0,18.0,19.0,18.0,19.0,18.0,20.0,,,-1.0,3.0,,0.0,2.0,0.001,,,0.653,0.842,0.0,15.6,,,,,,75.2,60.8,,,,,62.6,66.2,64.4,66.2,64.4,66.2,64.4,68.0,,,60.08,0.0,63.95,0.8503989361702128,0.8085106382978723,0.0,0.506,395.6,True,2026-04-03 20:17:48,0.0,0.0
62.06,1,8,2026-04-03 20:18:43,37.08157,-121.59959,325.0,0.0,137.1,-12.6,,,,,0.0,10.7,-1.0,10.7,0.0,92.0,0.1,-0.02,1.0,99.0,-59.0,24,0.0,29.96,1214.0,,,79,,,,,0,0,,,,,,,,,,,,,,,,,,,0.0,16.0,0.0,0.0,30.2,0.0,,0.0,0.0,,,33.1,0.0,0.0,-0.7,8.3,6.5,,,,,17.0,19.0,18.0,19.0,18.0,19.0,18.0,20.0,,,0.0,2.5,,0.0,2.0,0.001,,,0.653,0.842,0.0,15.6,,,,,,75.2,60.8,,,,,62.6,66.2,64.4,66.2,64.4,66.2,64.4,68.0,,,60.08,0.0,63.95,0.8503989361702128,0.8085106382978723,0.0,0.506,395.6,True,2026-04-03 20:17:48,0.0,0.0
63.06,1,8,2026-04-03 20:18:44,37.08157,-121.59959,325.0,0.0,137.1,-12.6,,,,,0.0,10.7,-0.9,10.7,0.0,90.0,0.1,-0.02,1.0,99.0,-103.0,24,0.0,29.96,1214.0,,,79,,,,,0,0,,,,,,,,,,,,,,,,,,,0.0,16.0,0.0,0.0,30.2,0.0,,0.0,0.0,,,33.1,0.0,0.0,-0.7,8.3,6.5,,,,,17.0,19.0,18.0,19.0,18.0,19.0,18.0,20.0,,,0.0,2.2,,0.0,2.0,0.001,,,0.653,0.842,0.0,15.6,,,,,,75.2,60.8,,,,,62.6,66.2,64.4,66.2,64.4,66.2,64.4,68.0,,,60.08,0.0,63.95,0.8503989361702128,0.8085106382978723,0.0,0.506,395.6,True,2026-04-03 20:17:48,0.0,0.0
64.06,1,8,2026-04-03 20:18:45,37.08157,-121.59959,326.0,0.1,137.1,-12.6,,,,,0.0,10.7,-1.0,10.8,0.0,88.0,0.1,-0.02,1.0,99.0,-125.0,24,0.0,29.96,1214.0,,,79,,,,,0,0,,,,,,,,,,,,,,,,,,,0.0,16.0,0.0,0.0,30.2,0.0,,0.0,0.0,,,33.1,0.0,0.0,-0.7,8.3,6.5,,,,,17.0,19.0,18.0,19.0,18.0,19.0,18.0,20.0,,,1.0,1.9,,0.0,2.0,0.001,,,0.653,0.842,0.0,15.6,,,,,,75.2,60.8,,,,,62.6,66.2,64.4,66.2,64.4,66.2,64.4,68.0,,,60.08,0.0,63.95,0.8503989361702128,0.8085106382978723,0.0,0.5903333333333333,395.6,True,2026-04-03 20:17:48,0.0,0.0
65.06,1,8,2026-04-03 20:18:46,37.08157,-121.59959,326.0,0.0,137.1,-12.6,,,,,0.0,10.7,-1.0,10.8,0.0,88.0,0.1,-0.02,1.0,99.0,-80.0,24,0.0,29.96,1218.0,,,79,,,,,0,0,,,,,,,,,,,,,,,,,,,0.0,16.0,0.0,0.0,30.2,0.0,,0.0,0.0,,,33.1,0.0,0.0,-0.7,8.3,6.5,,,,,17.0,19.0,18.0,19.0,18.0,19.0,18.0,20.0,,,1.0,1.7,,0.0,2.0,0.001,,,0.653,0.84,0.0,15.6,,,,,,75.2,60.8,,,,,62.6,66.2,64.4,66.2,64.4,66.2,64.4,68.0,,,60.08,0.0,63.95,0.8503989361702128,0.8085106382978723,0.0,0.6746666666666666,395.6,True,2026-04-03 20:17:48,0.0,0.0
66.06,1,8,2026-04-03 20:18:47,37.08157,-121.59959,327.0,0.0,137.1,-12.6,,,,,0.0,10.7,-1.0,10.7,0.0,87.0,0.1,-0.02,1.0,99.0,-42.0,24,0.0,29.96,1218.0,,,79,,,,,0,0,,,,,,,,,,,,,,,,,,,0.0,16.0,0.0,0.0,30.2,0.0,,0.0,0.0,,,33.1,0.0,0.0,-0.7,8.3,6.5,,,,,17.0,19.0,18.0,19.0,18.0,19.0,18.0,20.0,,,2.0,1.5,,0.0,2.0,0.001,,,0.653,0.841,0.0,15.6,,,,,,75.2,60.8,,,,,62.6,66.2,64.4,66.2,64.4,66.2,64.4,68.0,,,60.08,0.0,63.95,0.8503989361702128,0.8085106382978723,0.0,0.6746666666666666,395.6,True,2026-04-03 20:17:48,0.0,0.0
67.06,1,8,2026-04-03 20:18:48,37.08155,-121.59959,327.0,0.0,137.1,-12.6,,,,,0.0,10.7,-1.0,10.7,0.0,87.0,0.1,-0.02,1.0,99.0,-12.0,24,0.0,29.96,1218.0,,,79,,,,,0,0,,,,,,,,,,,,,,,,,,,0.0,16.0,0.0,0.0,30.2,0.0,,0.0,0.0,,,33.1,0.0,0.0,-0.7,8.3,6.5,,,,,17.0,19.0,18.0,19.0,18.0,19.0,18.0,20.0,,,2.0,1.4,,0.0,2.0,0.001,,,0.653,0.842,0.0,15.6,,,,,,75.2,60.8,,,,,62.6,66.2,64.4,66.2,64.4,66.2,64.4,68.0,,,60.08,0.0,63.95,0.8503989361702128,0.8085106382978723,0.0,0.6746666666666666,395.6,True,2026-04-03 20:17:48,0.0,0.0
68.06,1,8,2026-04-03 20:18:49,37.08155,-121.59959,333.0,0.0,137.1,-12.6,,,,,0.0,10.7,-1.0,10.7,0.0,87.0,0.1,-0.02,1.0,99.0,5.0,24,0.0,29.96,1218.0,,,79,,,,,0,0,,,,,,,,,,,,,,,,,,,0.0,16.0,0.0,0.0,30.2,0.0,,0.0,0.0,,,33.1,0.0,0.0,-0.7,8.3,6.5,,,,,18.0,19.0,18.0,19.0,18.0,19.0,18.0,20.0,,,2.0,1.3,,0.0,2.0,0.001,,,0.653,0.842,0.0,15.6,,,,,,75.2,60.8,,,,,64.4,66.2,64.4,66.2,64.4,66.2,64.4,68.0,,,60.08,0.0,64.4,0.8563829787234043,0.8085106382978723,0.0,0.6746666666666666,395.6,True,2026-04-03 20:17:48,0.0,0.0
69.06,1,8,2026-04-03 20:18:50,37.08155,-121.59959,334.0,0.0,137.1,-12.6,,,,,0.0,10.8,-1.0,10.7,0.0,87.0,0.1,-0.02,1.0,99.0,42.0,24,0.0,29.96,1218.0,,,79,,,,,0,0,,,,,,,,,,,,,,,,,,,0.0,16.0,0.0,0.0,30.2,0.0,,0.0,0.0,,,33.1,0.0,0.0,-0.7,8.3,6.5,,,,,18.0,19.0,18.0,19.0,18.0,19.0,18.0,20.0,,,2.0,1.2,,0.0,2.0,0.001,,,0.653,0.842,0.0,15.6,,,,,,75.2,60.8,,,,,64.4,66.2,64.4,66.2,64.4,66.2,64.4,68.0,,,60.08,0.0,64.4,0.8563829787234043,0.8085106382978723,0.0,0.6746666666666666,395.6,True,2026-04-03 20:17:48,0.0,0.0
70.06,1,8,2026-04-03 20:18:51,37.08155,-121.59959,334.0,0.0,137.1,-12.6,,,,,0.0,10.7,-1.0,10.7,0.0,87.0,0.0,-0.02,1.0,99.0,10.0,24,0.0,29.96,1218.0,,,79,,,,,0,0,,,,,,,,,,,,,,,,,,,0.0,16.0,0.0,0.0,30.2,0.0,,0.0,0.0,,,33.1,0.0,0.0,-0.7,8.3,6.5,,,,,18.0,19.0,18.0,19.0,18.0,19.0,18.0,20.0,,,2.0,1.2,,0.0,2.0,0.001,,,0.653,0.844,0.0,15.6,,,,,,75.2,60.8,,,,,64.4,66.2,64.4,66.2,64.4,66.2,64.4,68.0,,,60.08,0.0,64.4,0.8563829787234043,0.8085106382978723,0.0,0.6746666666666666,395.6,True,2026-04-03 20:17:48,0.0,0.0
71.06,1,8,2026-04-03 20:18:52,37.08155,-121.59959,335.0,0.0,137.1,-12.6,,,,,0.0,10.8,-1.0,10.7,0.0,87.0,0.1,-0.02,1.0,99.0,-16.0,24,0.0,29.96,1219.0,,,79,,,,,0,0,,,,,,,,,,,,,,,,,,,0.0,16.0,0.0,0.0,30.2,0.0,,0.0,0.0,,,33.1,0.0,0.0,-0.7,8.3,6.5,,,,,18.0,19.0,18.0,19.0,18.0,19.0,18.0,20.0,,,2.0,1.2,,0.0,2.0,0.001,,,0.653,0.845,0.0,15.6,,,,,,75.2,60.8,,,,,64.4,66.2,64.4,66.2,64.4,66.2,64.4,68.0,,,60.08,0.0,64.4,0.8563829787234043,0.8085106382978723,0.0,0.6746666666666666,395.6,True,2026-04-03 20:17:48,0.0,0.0
72.06,1,8,2026-04-03 20:18:53,37.08155,-121.59959,335.0,0.0,137.1,-12.6,,,,,0.0,10.8,-1.0,10.7,0.0,87.0,0.1,-0.02,1.0,99.0,-26.0,24,0.0,29.96,1219.0,,,79,,,,,0,0,,,,,,,,,,,,,,,,,,,0.0,16.0,0.0,0.0,30.2,0.0,,0.0,0.0,,,33.1,0.0,0.0,-0.7,8.3,6.5,,,,,18.0,19.0,18.0,19.0,18.0,19.0,18.0,20.0,,,2.0,1.1,,0.0,2.0,0.001,,,0.653,0.845,0.0,15.6,,,,,,75.2,60.8,,,,,64.4,66.2,64.4,66.2,64.4,66.2,64.4,68.0,,,60.08,0.0,64.4,0.8563829787234043,0.8085106382978723,0.0,0.6746666666666666,395.6,True,2026-04-03 20:17:48,0.0,0.0
73.06,1,8,2026-04-03 20:18:54,37.08155,-121.59959,336.0,0.0,137.1,-12.6,,,,,0.0,10.8,-1.0,10.7,0.0,87.0,0.1,-0.02,1.0,99.0,-4.0,24,0.0,29.96,1219.0,,,79,,,,,0,0,,,,,,,,,,,,,,,,,,,0.0,16.0,0.0,0.0,30.2,0.0,,0.0,0.0,,,33.1,0.0,0.0,-0.7,8.3,6.5,,,,,18.0,19.0,18.0,19.0,18.0,19.0,18.0,20.0,,,2.0,1.1,,0.0,2.0,0.001,,,0.653,0.845,0.0,15.6,,,,,,75.2,60.8,,,,,64.4,66.2,64.4,66.2,64.4,66.2,64.4,68.0,,,60.08,0.0,64.4,0.8563829787234043,0.8085106382978723,0.0,0.6746666666666666,395.6,True,2026-04-03 20:17:48,0.0,0.0
74.06,1,8,2026-04-03 20:18:55,37.08155,-121.59959,336.0,0.0,137.1,-12.6,,,,,0.0,10.7,-1.0,10.7,0.0,87.0,0.1,-0.02,1.0,99.0,6.0,24,0.0,29.96,1228.0,,,79,,,,,0,0,,,,,,,,,,,,,,,,,,,0.0,16.0,0.0,0.0,30.2,0.0,,0.0,0.0,,,33.1,0.0,0.0,-0.7,8.3,6.5,,,,,18.0,19.0,18.0,20.0,18.0,19.0,19.0,20.0,,,2.0,1.0,,0.0,2.0,0.001,,,0.653,0.846,0.0,15.6,,,,,,75.2,60.8,,,,,64.4,66.2,64.4,68.0,64.4,66.2,66.2,68.0,,,60.08,0.0,64.85000000000001,0.8623670212765958,0.8085106382978723,0.0,0.6746666666666666,395.6,True,2026-04-03 20:17:48,0.0,0.0
75.06,1,8,2026-04-03 20:18:56,37.08155,-121.59959,336.0,0.0,137.1,-12.6,,,,,0.0,10.8,-1.0,10.7,0.0,87.0,0.1,-0.02,1.0,99.0,41.0,24,0.0,29.96,1228.0,,,79,,,,,0,0,,,,,,,,,,,,,,,,,,,0.0,16.0,0.0,0.0,30.2,0.0,,0.0,0.0,,,33.1,0.0,0.0,-0.7,8.3,6.5,,,,,18.0,19.0,18.0,20.0,18.0,19.0,19.0,20.0,,,2.0,1.0,,0.0,2.0,0.001,,,0.653,0.848,0.0,15.6,,,,,,75.2,60.8,,,,,64.4,66.2,64.4,68.0,64.4,66.2,66.2,68.0,,,60.08,0.0,64.85000000000001,0.8623670212765958,0.8085106382978723,0.0,0.6746666666666666,395.6,True,2026-04-03 20:17:48,0.0,0.0
76.06,1,8,2026-04-03 20:18:57,37.08155,-121.59959,336.0,0.0,137.1,-12.6,,,,,0.0,10.7,-1.0,10.7,0.0,87.0,0.0,-0.02,1.0,99.0,58.0,24,0.0,29.96,1228.0,,,79,,,,,0,0,,,,,,,,,,,,,,,,,,,0.0,16.0,0.0,0.0,30.2,0.0,,0.0,0.0,,,33.1,0.0,0.0,-0.7,8.3,6.5,,,,,17.0,19.0,18.0,20.0,18.0,19.0,19.0,20.0,,,1.0,1.0,,0.0,2.0,0.001,,,0.653,0.85,0.0,15.6,,,,,,75.2,60.8,,,,,62.6,66.2,64.4,68.0,64.4,66.2,66.2,68.0,,,60.08,0.0,64.4,0.8563829787234043,0.8085106382978723,0.0,0.6746666666666666,395.6,True,2026-04-03 20:17:48,0.0,0.0
77.06,1,8,2026-04-03 20:18:58,37.08155,-121.59959,336.0,0.0,137.1,-12.6,,,,,0.0,10.7,-1.0,10.7,0.0,87.0,0.1,-0.02,1.0,99.0,40.0,25,0.0,29.96,1229.0,,,79,,,,,0,0,,,,,,,,,,,,,,,,,,,0.0,16.0,0.0,0.0,30.2,0.0,,0.0,0.0,,,33.1,0.0,0.0,-0.7,8.3,6.5,,,,,18.0,19.0,18.0,20.0,18.0,19.0,19.0,20.0,,,1.0,1.0,,0.0,2.0,0.001,,,0.653,0.853,0.0,15.6,,,,,,77.0,60.8,,,,,64.4,66.2,64.4,68.0,64.4,66.2,66.2,68.0,,,60.08,0.0,64.85000000000001,0.8422077922077923,0.7896103896103895,0.0,0.6746666666666666,395.6,True,2026-04-03 20:17:48,0.0,0.0
78.06,1,8,2026-04-03 20:18:59,37.08155,-121.59959,336.0,0.0,137.1,-12.6,,,,,0.0,10.7,-1.0,10.7,0.0,87.0,0.1,-0.02,1.0,99.0,26.0,25,0.0,29.96,1229.0,,,79,,,,,0,0,,,,,,,,,,,,,,,,,,,0.0,16.0,0.0,0.0,30.2,0.0,,0.0,0.0,,,33.1,0.0,0.0,-0.7,8.3,6.5,,,,,18.0,19.0,18.0,20.0,18.0,19.0,19.0,20.0,,,1.0,1.0,,0.0,2.0,0.001,,,0.653,0.856,0.0,15.6,,,,,,77.0,60.8,,,,,64.4,66.2,64.4,68.0,64.4,66.2,66.2,68.0,,,60.08,0.0,64.85000000000001,0.8422077922077923,0.7896103896103895,0.0,0.6746666666666666,395.6,True,2026-04-03 20:17:48,0.0,0.0
79.06,1,8,2026-04-03 20:19:00,37.08156,-121.59959,335.0,0.0,137.1,-12.6,,,,,0.0,10.7,-1.0,10.7,0.0,87.0,0.1,-0.02,1.0,99.0,36.0,25,0.0,29.96,1229.0,,,79,,,,,0,0,,,,,,,,,,,,,,,,,,,0.0,16.0,0.0,0.0,30.2,0.0,,0.0,0.0,,,33.1,0.0,0.0,-0.7,8.3,6.5,,,,,17.0,19.0,18.0,20.0,18.0,19.0,19.0,20.0,,,1.0,1.0,,0.0,2.0,0.001,,,0.653,0.858,0.0,15.6,,,,,,77.0,60.8,,,,,62.6,66.2,64.4,68.0,64.4,66.2,66.2,68.0,,,60.08,0.0,64.4,0.8363636363636364,0.7896103896103895,0.0,0.6746666666666666,395.6,True,2026-04-03 20:17:48,0.0,0.0
80.06,1,8,2026-04-03 20:19:01,37.08156,-121.59959,335.0,0.0,137.1,-12.6,,,,,0.0,10.7,-1.0,10.7,0.0,87.0,0.1,-0.02,1.0,99.0,12.0,25,0.0,29.96,1239.0,,,79,,,,,0,0,,,,,,,,,,,,,,,,,,,0.0,16.0,0.0,0.0,30.2,0.0,,0.0,2.3,,,33.1,0.0,0.0,-0.6,8.3,6.5,,,,,17.0,19.0,18.0,19.0,18.0,19.0,19.0,20.0,,,1.0,1.0,,2.3,2.0,0.001,,,0.653,0.868,0.0,15.6,,,,,,77.0,60.8,,,,,62.6,66.2,64.4,66.2,64.4,66.2,66.2,68.0,,,60.08,0.0,64.4,0.8363636363636364,0.7896103896103895,0.0,0.6746666666666666,395.6,True,2026-04-03 20:17:48,0.0,0.0
81.06,1,8,2026-04-03 20:19:02,37.08156,-121.59959,335.0,0.0,137.1,-12.6,,,,,0.0,10.7,-1.0,10.7,0.0,87.0,0.1,-0.02,1.0,99.0,2.0,25,0.0,29.96,1239.0,,,79,,,,,0,0,,,,,,,,,,,,,,,,,,,0.0,16.0,0.0,0.0,30.2,0.1,,0.1,18.7,,,33.1,0.0,0.0,-0.6,8.3,6.5,,,,,18.0,19.0,18.0,20.0,18.0,19.0,19.0,20.0,,,1.0,1.0,,18.7,2.0,0.001,,,0.653,0.89,0.0,15.6,,,,,,77.0,60.8,,,,,64.4,66.2,64.4,68.0,64.4,66.2,66.2,68.0,,,60.08,0.0,64.85000000000001,0.8422077922077923,0.7896103896103895,1.388888888888889e-05,0.6746666666666666,395.6,True,2026-04-03 20:17:48,0.1,0.0
82.06,1,8,2026-04-03 20:19:03,37.08156,-121.59959,334.0,0.0,137.1,-12.6,,,,,0.0,10.8,-1.0,10.7,0.0,87.0,0.1,-0.02,1.0,99.0,-12.0,25,0.0,29.96,1239.0,,,79,,,,,0,0,,,,,,,,,,,,,,,,,,,0.0,16.0,0.0,0.0,30.2,0.2,,0.2,30.2,,,33.1,0.0,0.0,-0.6,8.3,6.5,,,,,17.0,19.0,18.0,19.0,18.0,19.0,19.0,20.0,,,1.0,1.0,,30.2,2.0,0.001,,,0.653,0.889,0.0,15.6,,,,,,77.0,60.8,,,,,62.6,66.2,64.4,66.2,64.4,66.2,66.2,68.0,,,60.08,0.0,64.4,0.8363636363636364,0.7896103896103895,5.555555555555556e-05,0.6746666666666666,395.6,True,2026-04-03 20:17:48,0.2,0.0
83.06,1,8,2026-04-03 20:19:04,37.08157,-121.59959,334.0,0.0,137.1,-12.6,,,,,0.0,10.8,-1.0,10.7,0.0,87.0,0.1,-0.02,1.0,99.0,-22.0,25,0.0,29.96,1239.0,,,79,,,,,0,0,,,,,,,,,,,,,,,,,,,0.0,16.0,0.0,0.0,30.2,0.9,,0.9,31.4,,,33.1,0.0,0.0,-0.6,8.3,6.5,,,,,18.0,19.0,18.0,20.0,18.0,19.0,19.0,20.0,,,1.0,1.0,,31.4,2.0,0.001,,,0.653,0.869,0.0,15.6,,,,,,77.0,60.8,,,,,64.4,66.2,64.4,68.0,64.4,66.2,66.2,68.0,,,60.08,0.0,64.85000000000001,0.8422077922077923,0.7896103896103895,0.00020833333333333332,0.6746666666666666,395.6,True,2026-04-03 20:17:48,0.9,0.0
84.06,1,8,2026-04-03 20:19:05,37.08157,-121.59959,334.0,0.0,137.1,-12.6,,,,,0.0,10.8,-1.0,10.7,0.0,87.0,0.1,-0.02,1.0,99.0,-11.0,25,0.0,29.96,1239.0,,,79,,,,,0,0,,,,,,,,,,,,,,,,,,,0.0,16.0,0.0,0.0,30.2,1.7,,1.7,31.4,,,33.1,0.0,0.0,-0.6,8.3,6.5,,,,,17.0,19.0,18.0,20.0,18.0,19.0,18.0,20.0,,,1.0,1.0,,31.4,2.0,0.001,,,0.653,0.862,0.0,15.6,,,,,,77.0,60.8,,,,,62.6,66.2,64.4,68.0,64.4,66.2,64.4,68.0,,,60.08,0.0,63.95,0.8305194805194805,0.7896103896103895,0.0005694444444444445,0.6746666666666666,395.6,True,2026-04-03 20:17:48,1.7,0.0
85.06,1,8,2026-04-03 20:19:06,37.08157,-121.59959,334.0,0.0,137.1,-12.6,,,,,0.0,10.8,-1.0,10.7,0.0,87.0,0.1,-0.02,1.0,99.0,-39.0,25,0.0,29.96,1239.0,,,79,,,,,0,0,,,,,,,,,,,,,,,,,,,0.0,16.0,0.0,0.0,30.2,2.3,,2.3,31.1,,,33.1,0.0,0.0,-0.6,8.3,6.5,,,,,18.0,19.0,18.0,19.0,18.0,19.0,19.0,20.0,,,1.0,1.0,,31.1,2.0,0.001,,,0.653,0.859,0.0,15.6,,,,,,77.0,60.8,,,,,64.4,66.2,64.4,66.2,64.4,66.2,66.2,68.0,,,60.08,0.0,64.85000000000001,0.8422077922077923,0.7896103896103895,0.001125,0.6746666666666666,395.6,True,2026-04-03 20:17:48,2.3,0.0
86.06,2,8,2026-04-03 20:19:07,37.08157,-121.59959,340.0,0.0,137.1,-12.6,,,,,0.0,10.8,-1.0,10.7,0.0,87.0,0.1,-0.02,1.0,99.0,-65.0,25,0.0,29.96,1239.0,,,79,,,,,0,0,,,,,,,,,,,,,,,,,,,0.0,16.0,0.0,0.0,30.2,2.8,,2.8,32.0,,,33.1,0.0,0.0,-0.6,8.3,6.5,,,,,18.0,19.0,18.0,19.0,18.0,19.0,19.0,20.0,,,1.0,1.0,,32.0,2.0,0.001,,,0.653,0.858,0.0,15.6,,,,,,77.0,60.8,,,,,64.4,66.2,64.4,66.2,64.4,66.2,66.2,68.0,,,60.08,0.0,64.85000000000001,0.8422077922077923,0.7896103896103895,0.001833333333333333,0.6746666666666666,395.6,True,2026-04-03 20:17:48,2.8,0.0
87.06,2,8,2026-04-03 20:19:08,37.08157,-121.59959,338.0,0.0,137.1,-12.6,,,,,0.0,10.9,-1.0,10.7,0.0,87.0,0.1,-0.02,1.0,99.0,-72.0,25,0.0,29.96,1239.0,,,79,,,,,0,0,,,,,,,,,,,,,,,,,,,0.0,16.0,0.0,0.0,30.2,3.3,,3.3,31.3,,,33.1,0.0,0.0,-0.6,8.3,6.5,,,,,18.0,19.0,18.0,19.0,18.0,19.0,19.0,20.0,,,0.0,0.0,,31.3,2.0,0.001,,,0.653,0.857,0.0,15.6,,,,,,77.0,60.8,,,,,64.4,66.2,64.4,66.2,64.4,66.2,66.2,68.0,,,60.08,0.0,64.85000000000001,0.8422077922077923,0.7896103896103895,0.0026805555555555554,0.6746666666666666,395.6,True,2026-04-03 20:17:48,3.3,0.0
88.06,2,8,2026-04-03 20:19:09,37.08157,-121.59958,337.0,0.0,137.1,-12.6,,,,,0.0,10.8,-1.0,10.6,0.0,87.0,0.1,-0.02,1.0,99.0,-27.0,25,0.0,29.96,1249.0,,,79,,,,,0,0,,,,,,,,,,,,,,,,,,,0.0,16.0,0.0,0.0,30.2,3.1,,3.1,32.2,,,33.1,0.0,0.0,-0.6,8.3,6.5,,,,,18.0,19.0,18.0,19.0,18.0,19.0,19.0,20.0,,,0.0,0.0,,32.2,2.0,0.001,,,0.653,0.857,0.0,15.6,,,,,,77.0,60.8,,,,,64.4,66.2,64.4,66.2,64.4,66.2,66.2,68.0,,,60.08,0.0,64.85000000000001,0.8422077922077923,0.7896103896103895,0.0035694444444444445,0.6746666666666666,395.6,True,2026-04-03 20:17:48,3.1,0.0
89.06,2,8,2026-04-03 20:19:10,37.08157,-121.59958,337.0,0.0,137.1,-12.6,,,,,0.0,10.8,-1.0,10.6,0.0,87.0,0.1,-0.02,1.0,99.0,-61.0,25,0.0,29.96,1249.0,,,79,,,,,0,0,,,,,,,,,,,,,,,,,,,0.0,16.0,0.0,0.0,30.2,2.8,,2.8,31.7,,,33.1,0.0,0.0,-0.6,8.3,6.5,,,,,18.0,19.0,18.0,19.0,18.0,19.0,19.0,20.0,,,0.0,0.0,,31.7,2.0,0.001,,,0.653,0.856,0.0,15.6,,,,,,77.0,60.8,,,,,64.4,66.2,64.4,66.2,64.4,66.2,66.2,68.0,,,60.08,0.0,64.85000000000001,0.8422077922077923,0.7896103896103895,0.004388888888888888,0.6746666666666666,395.6,True,2026-04-03 20:17:48,2.8,0.0
90.06,2,8,2026-04-03 20:19:11,37.08157,-121.59959,337.0,0.0,137.1,-12.6,,,,,0.0,10.8,-1.0,10.6,0.0,87.0,0.1,-0.02,1.0,99.0,-20.0,25,0.0,29.96,1249.0,,,79,,,,,0,0,,,,,,,,,,,,,,,,,,,0.0,16.0,0.0,0.0,30.2,2.5,,2.5,31.4,,,33.1,0.0,0.0,-0.6,8.3,6.5,,,,,18.0,19.0,18.0,20.0,18.0,20.0,19.0,20.0,,,0.0,0.0,,31.4,2.0,0.001,,,0.653,0.856,0.0,15.6,,,,,,77.0,60.8,,,,,64.4,66.2,64.4,68.0,64.4,68.0,66.2,68.0,,,60.08,0.0,64.85000000000001,0.8422077922077923,0.7896103896103895,0.005125,0.6746666666666666,395.6,True,2026-04-03 20:17:48,2.5,0.0
91.06,2,8,2026-04-03 20:19:12,37.08157,-121.59959,336.0,0.0,137.1,-12.6,,,,,0.0,10.8,-1.0,10.6,0.0,87.0,0.1,-0.02,1.0,99.0,-30.0,25,0.0,29.96,1250.0,,,79,,,,,0,0,,,,,,,,,,,,,,,,,,,0.0,16.0,0.0,0.0,30.2,2.5,,2.5,31.1,,,33.1,0.0,0.0,-0.6,8.3,6.5,,,,,18.0,19.0,18.0,19.0,18.0,19.0,19.0,20.0,,,-1.0,0.0,,31.1,2.0,0.001,,,0.653,0.856,0.0,15.6,,,,,,77.0,60.8,,,,,64.4,66.2,64.4,66.2,64.4,66.2,66.2,68.0,,,60.08,0.0,64.85000000000001,0.8422077922077923,0.7896103896103895,0.005819444444444445,0.6746666666666666,395.6,True,2026-04-03 20:17:48,2.5,0.0
92.06,2,8,2026-04-03 20:19:13,37.08157,-121.59958,336.0,0.0,137.1,-12.6,,,,,0.0,10.8,-1.0,10.7,0.0,87.0,0.1,-0.02,1.0,99.0,-38.0,25,0.0,29.96,1250.0,,,79,,,,,0,0,,,,,,,,,,,,,,,,,,,0.0,16.0,0.0,0.0,30.2,0.0,,0.0,30.9,,,33.1,0.0,0.0,-0.7,8.3,6.5,,,,,18.0,19.0,18.0,20.0,18.0,19.0,19.0,20.0,,,-1.0,0.0,,30.9,2.0,0.001,,,0.653,0.854,0.0,15.6,,,,,,77.0,60.8,,,,,64.4,66.2,64.4,68.0,64.4,66.2,66.2,68.0,,,60.08,0.0,64.85000000000001,0.8422077922077923,0.7896103896103895,0.006166666666666667,0.6746666666666666,395.6,True,2026-04-03 20:17:48,0.0,0.0
93.06,2,8,2026-04-03 20:19:14,37.08157,-121.59958,336.0,0.0,137.1,-12.6,,,,,0.0,10.8,-1.0,10.7,0.0,87.0,0.1,-0.02,1.0,99.0,-42.0,25,0.0,29.96,1250.0,,,79,,,,,0,0,,,,,,,,,,,,,,,,,,,0.0,16.0,0.0,0.0,30.2,0.0,,0.0,30.7,,,33.1,0.0,0.0,-0.7,8.3,6.5,,,,,18.0,19.0,18.0,20.0,18.0,19.0,19.0,20.0,,,-1.0,0.0,,30.7,2.0,0.001,,,0.653,0.854,0.0,15.6,,,,,,77.0,60.8,,,,,64.4,66.2,64.4,68.0,64.4,66.2,66.2,68.0,,,60.08,0.0,64.85000000000001,0.8422077922077923,0.7896103896103895,0.006166666666666667,0.6746666666666666,395.6,True,2026-04-03 20:17:48,0.0,0.0
94.06,2,8,2026-04-03 20:19:15,37.08157,-121.59958,337.0,0.1,137.1,-12.6,,,,,0.0,10.8,-1.0,10.7,0.0,87.0,0.1,-0.02,1.0,99.0,-38.0,25,0.0,29.96,1259.0,,,79,,,,,0,0,,,,,,,,,,,,,,,,,,,0.0,16.0,0.0,0.0,30.2,0.0,,0.0,30.6,,,33.1,0.0,0.0,-0.7,8.3,6.5,,,,,18.0,19.0,18.0,20.0,18.0,19.0,19.0,20.0,,,-1.0,0.0,,30.6,2.0,0.001,,,0.653,0.854,0.0,15.6,,,,,,77.0,60.8,,,,,64.4,66.2,64.4,68.0,64.4,66.2,66.2,68.0,,,60.08,0.0,64.85000000000001,0.8422077922077923,0.7896103896103895,0.006166666666666667,0.759,395.6,True,2026-04-03 20:17:48,0.0,0.0
95.06,2,8,2026-04-03 20:19:16,37.08157,-121.59958,337.0,0.0,137.1,-12.6,,,,,0.0,10.8,-1.0,10.7,0.0,86.0,0.0,-0.02,1.0,99.0,-28.0,25,0.0,29.96,1259.0,,,79,,,,,0,0,,,,,,,,,,,,,,,,,,,0.0,16.0,0.0,0.0,30.2,0.0,,0.0,30.4,,,33.1,0.0,0.0,-0.7,8.3,6.5,,,,,18.0,19.0,18.0,20.0,18.0,19.0,19.0,20.0,,,-1.0,0.0,,30.4,2.0,0.001,,,0.653,0.854,0.0,15.6,,,,,,77.0,60.8,,,,,64.4,66.2,64.4,68.0,64.4,66.2,66.2,68.0,,,60.08,0.0,64.85000000000001,0.8422077922077923,0.7896103896103895,0.006166666666666667,0.8433333333333333,395.6,True,2026-04-03 20:17:48,0.0,0.0
96.06,2,8,2026-04-03 20:19:17,37.08158,-121.59958,337.0,0.0,137.1,-12.6,,,,,0.0,10.8,-1.0,10.7,0.0,86.0,0.1,-0.02,1.0,99.0,11.0,25,0.0,29.96,1259.0,,,79,,,,,0,0,,,,,,,,,,,,,,,,,,,0.0,16.0,0.0,0.0,30.2,0.0,,0.0,30.3,,,33.1,0.0,0.0,-0.7,8.3,6.5,,,,,18.0,19.0,18.0,20.0,18.0,19.0,19.0,20.0,,,-2.0,0.0,,30.3,2.0,0.001,,,0.653,0.854,0.0,15.6,,,,,,77.0,60.8,,,,,64.4,66.2,64.4,68.0,64.4,66.2,66.2,68.0,,,60.08,0.0,64.85000000000001,0.8422077922077923,0.7896103896103895,0.006166666666666667,0.8433333333333333,395.6,True,2026-04-03 20:17:48,0.0,0.0
97.06,2,8,2026-04-03 20:19:18,37.0816,-121.59957,336.0,0.0,137.1,-12.6,,,,,0.0,10.8,-0.9,10.8,0.0,86.0,0.1,-0.02,1.0,99.0,30.0,25,0.0,29.96,1259.0,,,79,,,,,0,0,,,,,,,,,,,,,,,,,,,0.0,16.0,0.0,0.0,30.2,0.0,,0.0,30.1,,,33.1,0.0,0.0,-0.7,8.3,6.5,,,,,18.0,19.0,18.0,20.0,18.0,19.0,19.0,20.0,,,-2.0,0.0,,30.1,2.0,0.001,,,0.653,0.856,0.0,15.6,,,,,,77.0,60.8,,,,,64.4,66.2,64.4,68.0,64.4,66.2,66.2,68.0,,,60.08,0.0,64.85000000000001,0.8422077922077923,0.7896103896103895,0.006166666666666667,0.8433333333333333,395.6,True,2026-04-03 20:17:48,0.0,0.0
98.06,2,8,2026-04-03 20:19:19,37.0816,-121.59957,337.0,0.0,137.1,-12.6,,,,,0.0,10.8,-0.9,10.8,0.0,86.0,0.1,-0.02,1.0,99.0,26.0,25,0.0,29.96,1259.0,,,79,,,,,0,0,,,,,,,,,,,,,,,,,,,0.0,16.0,0.0,0.0,30.2,0.0,,0.0,30.0,,,33.1,0.0,0.0,-0.7,8.3,6.5,,,,,18.0,19.0,18.0,20.0,18.0,19.0,19.0,20.0,,,-2.0,0.0,,30.0,2.0,0.001,,,0.653,0.856,0.0,15.6,,,,,,77.0,60.8,,,,,64.4,66.2,64.4,68.0,64.4,66.2,66.2,68.0,,,60.08,0.0,64.85000000000001,0.8422077922077923,0.7896103896103895,0.006166666666666667,0.8433333333333333,395.6,True,2026-04-03 20:17:48,0.0,0.0
99.06,2,8,2026-04-03 20:19:20,37.0816,-121.59956,337.0,0.0,137.1,-12.6,,,,,0.0,10.8,-0.9,10.8,0.0,86.0,0.1,-0.02,1.0,99.0,22.0,25,0.0,29.96,1259.0,,,79,,,,,0,0,,,,,,,,,,,,,,,,,,,0.0,16.0,0.0,0.0,30.2,0.0,,0.0,29.9,,,33.1,0.0,0.0,-0.7,8.3,6.5,,,,,18.0,19.0,18.0,20.0,18.0,19.0,19.0,20.0,,,-2.0,0.0,,29.9,2.0,0.001,,,0.653,0.856,0.0,15.6,,,,,,77.0,60.8,,,,,64.4,66.2,64.4,68.0,64.4,66.2,66.2,68.0,,,60.08,0.0,64.85000000000001,0.8422077922077923,0.7896103896103895,0.006166666666666667,0.8433333333333333,395.6,True,2026-04-03 20:17:48,0.0,0.0
100.06,2,8,2026-04-03 20:19:21,37.0816,-121.59957,337.0,0.1,137.1,-12.6,,,,,0.0,10.8,-1.0,10.8,0.0,86.0,0.1,-0.02,1.0,99.0,-7.0,25,0.0,29.96,1269.0,,,79,,,,,0,0,,,,,,,,,,,,,,,,,,,0.0,16.0,0.0,0.0,30.2,0.0,,0.0,29.8,,,33.1,0.0,0.0,-0.7,8.3,6.5,,,,,18.0,19.0,18.0,20.0,18.0,19.0,19.0,20.0,,,-1.0,0.0,,29.8,2.0,0.001,,,0.653,0.854,0.0,15.6,,,,,,77.0,60.8,,,,,64.4,66.2,64.4,68.0,64.4,66.2,66.2,68.0,,,60.08,0.0,64.85000000000001,0.8422077922077923,0.7896103896103895,0.006166666666666667,0.9276666666666666,395.6,True,2026-04-03 20:17:48,0.0,0.0
101.06,2,8,2026-04-03 20:19:22,37.0816,-121.59957,337.0,0.0,137.1,-12.6,,,,,0.0,10.7,-1.0,10.8,0.0,86.0,0.1,-0.02,1.0,99.0,2.0,25,0.0,29.96,1269.0,,,79,,,,,0,0,,,,,,,,,,,,,,,,,,,0.0,16.0,0.0,0.0,30.2,0.0,,0.0,29.7,,,33.1,0.0,0.0,-0.7,8.3,6.5,,,,,18.0,19.0,18.0,20.0,18.0,19.0,19.0,20.0,,,-1.0,0.0,,29.7,2.0,0.001,,,0.653,0.856,0.0,15.6,,,,,,77.0,60.8,,,,,64.4,66.2,64.4,68.0,64.4,66.2,66.2,68.0,,,60.08,0.0,64.85000000000001,0.8422077922077923,0.7896103896103895,0.006166666666666667,1.012,395.6,True,2026-04-03 20:17:48,0.0,0.0
102.06,2,8,2026-04-03 20:19:23,37.0816,-121.59957,337.0,0.0,137.1,-12.6,,,,,0.0,10.7,-1.0,10.8,0.0,86.0,0.1,-0.02,1.0,99.0,-13.0,25,0.0,29.96,1269.0,,,79,,,,,0,0,,,,,,,,,,,,,,,,,,,0.0,16.0,0.0,0.0,30.2,0.0,,0.0,29.6,,,33.1,0.0,0.0,-0.7,8.3,6.5,,,,,18.0,19.0,18.0,20.0,18.0,19.0,19.0,20.0,,,-1.0,0.0,,29.6,2.0,0.001,,,0.653,0.856,0.0,15.6,,,,,,77.0,60.8,,,,,64.4,66.2,64.4,68.0,64.4,66.2,66.2,68.0,,,60.08,0.0,64.85000000000001,0.8422077922077923,0.7896103896103895,0.006166666666666667,1.012,395.6,True,2026-04-03 20:17:48,0.0,0.0
103.06,2,8,2026-04-03 20:19:24,37.0816,-121.59956,337.0,0.0,137.1,-12.6,,,,,0.0,10.7,-1.0,10.8,0.0,86.0,0.1,-0.02,1.0,99.0,16.0,25,0.0,29.96,1269.0,,,79,,,,,0,0,,,,,,,,,,,,,,,,,,,0.0,16.0,0.0,0.0,30.2,0.0,,0.0,29.5,,,33.1,0.0,0.0,-0.7,8.3,6.5,,,,,18.0,19.0,18.0,20.0,18.0,20.0,19.0,20.0,,,-1.0,0.0,,29.5,2.0,0.001,,,0.653,0.856,0.0,15.6,,,,,,77.0,60.8,,,,,64.4,66.2,64.4,68.0,64.4,68.0,66.2,68.0,,,60.08,0.0,64.85000000000001,0.8422077922077923,0.7896103896103895,0.006166666666666667,1.012,395.6,True,2026-04-03 20:17:48,0.0,0.0
104.06,2,8,2026-04-03 20:19:25,37.0816,-121.59956,337.0,0.0,137.1,-12.6,,,,,0.0,10.7,-1.0,10.8,0.0,86.0,0.1,-0.02,1.0,99.0,31.0,25,0.0,29.96,1279.0,,,79,,,,,0,0,,,,,,,,,,,,,,,,,,,0.0,16.0,0.0,0.0,30.2,0.0,,0.0,29.4,,,33.1,0.0,0.0,-0.7,8.3,6.5,,,,,18.0,19.0,18.0,20.0,18.0,20.0,19.0,20.0,,,-2.0,0.0,,29.4,2.0,0.001,,,0.653,0.856,0.0,15.6,,,,,,77.0,60.8,,,,,64.4,66.2,64.4,68.0,64.4,68.0,66.2,68.0,,,60.08,0.0,64.85000000000001,0.8422077922077923,0.7896103896103895,0.006166666666666667,1.012,395.6,True,2026-04-03 20:17:48,0.0,0.0
105.06,2,8,2026-04-03 20:19:26,37.0816,-121.59956,337.0,0.0,137.1,-12.6,,,,,0.0,10.7,-1.0,10.8,0.0,86.0,0.1,-0.02,1.0,99.0,41.0,25,0.0,29.96,1280.0,,,79,,,,,0,0,,,,,,,,,,,,,,,,,,,0.0,16.0,0.0,0.0,30.2,0.0,,0.0,29.2,,,33.1,0.0,0.0,-0.7,8.3,6.5,,,,,18.0,19.0,18.0,20.0,18.0,20.0,19.0,20.0,,,-3.0,0.0,,29.2,2.0,0.001,,,0.653,0.856,0.0,15.6,,,,,,77.0,60.8,,,,,64.4,66.2,64.4,68.0,64.4,68.0,66.2,68.0,,,60.08,0.0,64.85000000000001,0.8422077922077923,0.7896103896103895,0.006166666666666667,1.012,395.6,True,2026-04-03 20:17:48,0.0,0.0
106.06,2,8,2026-04-03 20:19:27,37.0816,-121.59956,338.0,0.1,137.1,-12.6,,,,,0.0,10.7,-1.0,10.8,0.0,86.0,0.1,-0.02,1.0,99.0,45.0,25,0.0,29.96,1280.0,,,79,,,,,0,0,,,,,,,,,,,,,,,,,,,0.0,16.0,0.0,0.0,30.2,0.0,,0.0,29.2,,,33.1,0.0,0.0,-0.7,8.3,6.5,,,,,18.0,19.0,18.0,20.0,18.0,20.0,19.0,20.0,,,-4.0,0.0,,29.2,2.0,0.001,,,0.653,0.856,0.0,15.6,,,,,,77.0,60.8,,,,,64.4,66.2,64.4,68.0,64.4,68.0,66.2,68.0,,,60.08,0.0,64.85000000000001,0.8422077922077923,0.7896103896103895,0.006166666666666667,1.0963333333333334,395.6,True,2026-04-03 20:17:48,0.0,0.0
107.06,2,8,2026-04-03 20:19:28,37.0816,-121.59956,337.0,0.1,137.1,-12.6,,,,,0.0,10.7,-0.9,10.8,0.0,86.0,0.1,-0.02,1.0,99.0,35.0,25,0.0,29.96,1280.0,,,79,,,,,0,0,,,,,,,,,,,,,,,,,,,0.0,16.0,0.0,0.0,30.2,0.0,,0.0,29.1,,,33.1,0.0,0.0,-0.7,8.3,6.5,,,,,18.0,19.0,18.0,20.0,18.0,20.0,19.0,20.0,,,-5.0,0.0,,29.1,2.0,0.001,,,0.653,0.856,0.0,15.6,,,,,,77.0,60.8,,,,,64.4,66.2,64.4,68.0,64.4,68.0,66.2,68.0,,,60.08,0.0,64.85000000000001,0.8422077922077923,0.7896103896103895,0.006166666666666667,1.265,395.6,True,2026-04-03 20:17:48,0.0,0.0
108.06,2,8,2026-04-03 20:19:29,37.0816,-121.59956,336.0,0.0,137.1,-12.6,,,,,0.0,10.7,-1.0,10.7,0.0,86.0,0.1,-0.02,1.0,99.0,41.0,25,0.0,29.96,1290.0,,,79,,,,,0,0,,,,,,,,,,,,,,,,,,,0.0,16.0,0.0,0.0,30.2,0.0,,0.0,29.0,,,33.1,0.0,0.0,-0.7,8.3,6.5,,,,,18.0,19.0,18.0,20.0,18.0,20.0,19.0,20.0,,,-5.0,0.0,,29.0,2.0,0.001,,,0.653,0.856,0.0,15.6,,,,,,77.0,60.8,,,,,64.4,66.2,64.4,68.0,64.4,68.0,66.2,68.0,,,60.08,0.0,64.85000000000001,0.8422077922077923,0.7896103896103895,0.006166666666666667,1.3493333333333333,395.6,True,2026-04-03 20:17:48,0.0,0.0
109.06,2,8,2026-04-03 20:19:30,37.0816,-121.59956,338.0,0.0,137.1,-12.6,,,,,0.0,10.7,-0.9,10.7,0.0,86.0,0.1,-0.02,1.0,99.0,63.0,25,0.0,29.96,1290.0,,,79,,,,,0,0,,,,,,,,,,,,,,,,,,,0.0,16.0,0.0,0.0,30.2,0.0,,0.0,28.9,,,33.1,0.0,0.0,-0.7,8.3,6.5,,,,,18.0,19.0,18.0,20.0,18.0,20.0,19.0,20.0,,,-5.0,0.0,,28.9,2.0,0.001,,,0.653,0.857,0.0,15.6,,,,,,77.0,60.8,,,,,64.4,66.2,64.4,68.0,64.4,68.0,66.2,68.0,,,60.08,0.0,64.85000000000001,0.8422077922077923,0.7896103896103895,0.006166666666666667,1.3493333333333333,395.6,True,2026-04-03 20:17:48,0.0,0.0
110.06,2,8,2026-04-03 20:19:31,37.0816,-121.59956,334.0,0.0,137.1,-12.6,,,,,0.0,10.7,-1.0,10.7,0.0,87.0,0.1,-0.02,1.0,99.0,32.0,25,0.0,29.96,1291.0,,,79,,,,,0,0,,,,,,,,,,,,,,,,,,,0.0,16.0,0.0,0.0,30.2,0.0,,0.0,28.8,,,33.1,0.0,0.0,-0.7,8.3,6.5,,,,,18.0,19.0,18.0,20.0,18.0,20.0,19.0,20.0,,,-6.0,0.0,,28.8,2.0,0.001,,,0.653,0.857,0.0,15.6,,,,,,77.0,60.8,,,,,64.4,66.2,64.4,68.0,64.4,68.0,66.2,68.0,,,60.08,0.0,64.85000000000001,0.8422077922077923,0.7896103896103895,0.006166666666666667,1.3493333333333333,395.6,True,2026-04-03 20:17:48,0.0,0.0
111.06,2,8,2026-04-03 20:19:32,37.0816,-121.59956,334.0,0.1,137.1,-12.6,,,,,0.0,10.7,-1.0,10.7,0.0,87.0,0.1,-0.02,1.0,99.0,8.0,25,0.0,29.96,1291.0,,,79,,,,,0,0,,,,,,,,,,,,,,,,,,,0.0,16.0,0.0,0.0,30.2,0.0,,0.0,28.7,,,33.1,0.0,0.0,-0.7,8.3,6.5,,,,,18.0,19.0,18.0,20.0,18.0,20.0,19.0,20.0,,,-6.0,0.0,,28.7,2.0,0.001,,,0.653,0.857,0.0,15.6,,,,,,77.0,60.8,,,,,64.4,66.2,64.4,68.0,64.4,68.0,66.2,68.0,,,60.08,0.0,64.85000000000001,0.8422077922077923,0.7896103896103895,0.006166666666666667,1.4336666666666666,395.6,True,2026-04-03 20:17:48,0.0,0.0
112.06,2,8,2026-04-03 20:19:33,37.0816,-121.59956,334.0,0.1,137.1,-12.6,,,,,0.0,10.7,-1.0,10.7,0.0,87.0,0.1,-0.02,1.0,99.0,-12.0,25,0.0,29.96,1291.0,,,79,,,,,0,0,,,,,,,,,,,,,,,,,,,0.0,16.0,0.0,0.0,30.2,0.0,,0.0,28.6,,,33.1,0.0,0.0,-0.7,8.3,6.5,,,,,18.0,19.0,18.0,20.0,18.0,20.0,19.0,20.0,,,-6.0,0.0,,28.6,2.0,0.001,,,0.653,0.858,0.0,15.6,,,,,,77.0,60.8,,,,,64.4,66.2,64.4,68.0,64.4,68.0,66.2,68.0,,,60.08,0.0,64.85000000000001,0.8422077922077923,0.7896103896103895,0.006166666666666667,1.6023333333333332,395.6,True,2026-04-03 20:17:48,0.0,0.0
113.06,2,8,2026-04-03 20:19:34,37.0816,-121.59956,335.0,0.0,137.1,-12.6,,,,,0.0,10.8,-1.0,10.8,0.0,87.0,0.1,-0.02,1.0,99.0,5.0,25,0.0,29.96,1301.0,,,79,,,,,0,0,,,,,,,,,,,,,,,,,,,0.0,16.0,0.0,0.0,30.2,0.0,,0.0,28.5,,,33.1,0.0,0.0,-0.7,8.3,6.5,,,,,18.0,19.0,18.0,20.0,18.0,20.0,19.0,20.0,,,-6.0,0.0,,28.5,2.0,0.001,,,0.653,0.859,0.0,15.6,,,,,,77.0,60.8,,,,,64.4,66.2,64.4,68.0,64.4,68.0,66.2,68.0,,,60.08,0.0,64.85000000000001,0.8422077922077923,0.7896103896103895,0.006166666666666667,1.6866666666666665,395.6,True,2026-04-03 20:17:48,0.0,0.0
114.06,2,8,2026-04-03 20:19:35,37.0816,-121.59956,336.0,0.0,137.1,-12.6,,,,,0.0,10.8,-1.0,10.8,0.0,87.0,0.1,-0.01,1.0,99.0,7.0,25,0.0,29.96,1301.0,,,79,,,,,0,0,,,,,,,,,,,,,,,,,,,0.0,13.0,0.0,0.0,30.2,0.0,,0.0,28.6,,,33.1,0.0,0.0,-0.7,8.3,6.5,,,,,15.0,16.0,15.0,16.0,15.0,16.0,16.0,16.0,,,-4.0,0.0,,28.6,2.0,0.0,,,0.652,0.859,0.0,12.7,,,,,,77.0,55.4,,,,,59.0,60.8,59.0,60.8,59.0,60.8,60.8,60.8,,,54.86,0.0,59.45,0.7720779220779221,0.7194805194805195,0.006166666666666667,1.6866666666666665,395.6,True,2026-04-03 20:17:48,0.0,0.0
115.06,2,8,2026-04-03 20:19:36,37.0816,-121.59956,336.0,0.1,137.1,-12.6,,,,,0.0,10.7,-0.9,10.8,0.0,87.0,0.1,-0.01,1.0,99.0,-16.0,25,0.0,29.96,1301.0,,,79,,,,,0,0,,,,,,,,,,,,,,,,,,,2.0,15.0,816.0,816.0,27.4,0.7,,0.7,24.0,,,33.1,0.0,0.0,-0.6,8.3,6.5,,,,,17.0,41.0,17.0,44.0,17.0,33.0,18.0,43.0,,,-3.0,0.0,,24.0,2.0,0.0,,,0.657,0.862,2.4,14.5,,,,,,77.0,59.0,,,,,62.6,105.8,62.6,111.2,62.6,91.4,64.4,109.4,,,58.1,816.0,63.05,0.8188311688311688,0.7662337662337663,0.006263888888888889,1.771,395.6,True,2026-04-03 20:17:48,0.7,0.14285714285714288
116.06,2,8,2026-04-03 20:19:37,37.08159,-121.59956,336.0,0.0,137.1,-12.6,,,,,0.0,10.7,-1.0,10.8,0.0,87.0,0.1,-0.02,1.0,99.0,-20.0,25,0.0,29.96,1311.0,,,79,,,,,0,0,,,,,,,,,,,,,,,,,,,4.0,16.0,918.0,918.0,21.8,2.3,,2.3,25.7,,,33.1,0.0,0.0,-0.6,8.3,6.5,,,,,18.0,76.0,18.0,74.0,18.0,89.0,19.0,95.0,,,-3.0,0.0,,25.7,2.0,0.0,,,0.659,0.862,3.9,15.6,,,7.0,R,,77.0,60.8,,,,,64.4,168.8,64.4,165.2,64.4,192.2,66.2,203.0,,,60.08,918.0,64.85000000000001,0.8422077922077923,0.7896103896103895,0.006680555555555556,1.8553333333333333,395.6,True,2026-04-03 20:17:48,2.3,0.0
