Session Time,GPS Fix Quality,Number of Satellites,GPS Date & Time,Latitude (deg),Longitude (deg),GPS Altitude (feet),Ground Speed (knots),Ground Track (deg),Mag Var (deg),Cross Track Error (NM),Destination Waypoint ID,Range to Destination (NM),Bearing to Destination (deg),System Time,Pitch (deg),Roll (deg),Magnetic Heading (deg),Indicated Airspeed (knots),Pressure Altitude (ft),Turn Rate (deg/s),Lateral Accel (g),Vertical Accel(g),Angle of Attack (%),Vertical Speed (ft/min),OAT (deg F),True Airspeed (knots),Barometer Setting (inHg),Density Altitude (ft),Wind Direction (deg),Wind Speed (knots),Heading Bug (deg),Altitude Bug (ft),Airspeed Bug (knots),Vertical Speed Bug (ft/min),Course (deg),CDI Source Type,CDI Source Port,CDI Scale (NM),CDI Deflection (%),Glideslope (%),AP Engaged,AP Roll Mode,AP Roll Force,AP Roll Position (steps),AP Roll Slip (bool),AP Pitch Force,AP Pitch Position (steps),AP Pitch Slip (bool),AP Yaw Force,AP Yaw Position,AP Yaw Slip (bool),Transponder Status,Transponder Reply (bool),Transponder Identing (bool),Transponder Code (octal),Oil Pressure (PSI),Oil Temp (deg F),RPM L,RPM R,Manifold Pressure (inHg),Fuel Flow 1 (gal/hr),Fuel Flow 2 (gal/hr),Total Fuel Flow (gal/hr),Fuel Pressure (PSI),Fuel Level L (gal),Fuel Level R (gal),Fuel Remaining (gal),Volts 1,Volts 2,Amps,Hobbs Time,Tach Time,Thermocouple 1 (deg F),Thermocouple 2 (deg F),Thermocouple 3 (deg F),Thermocouple 4 (deg F),CHT 4 (deg F),EGT 4 (deg F),CHT 3 (deg F),EGT 3 (deg F),CHT 2 (deg F),EGT 2 (deg F),CHT 1 (deg F),EGT 1 (deg F),Thermocouple 13 (deg F),Thermocouple 14 (deg F),ELEV POSITION (%),CO PPM PRESSURE (PSI),GP Input 3,FUEL PRESSURE (PSI),AILERN POSITION (%),CANOPY CONTACT (V),GP Input 7,GP Input 8,LEFT LEVEL (Sensor V),RIGHT LEVEL (Sensor V),OIL PRESSURE (PSI),OIL TEMPERATURE (deg F),GP Input 13,Contacts,Percent Power,EGT Leaning State,Unnamed: 103,RPM,AVG_CHT,CHT_OAT_Ratio,Fuel Flow Integral,Distance Traveled,Max CHT,Engine Run,Flight ID,Fuel Flow,MPG
3.06,1,10,2026-03-18 23:39:18,36.88887,-121.40333,311.0,0.0,329.7,-12.5,,,,,0.0,11.2,-0.6,114.5,0.0,167.0,-0.0,-0.01,1.0,,-15.0,104.0,0.0,30.0,3230.0,,,305.0,,125.0,-700.0,,0.0,0.0,,,,,,,,,,,,,,,,,,,,,0.0,0.0,,0.4,,0.4,,,,14.7,0.0,0.0,-0.4,7.3,5.6,,,,,267.8,203.0,276.8,219.2,275.0,213.8,267.8,213.8,,,11.0,253.9,,8.2,35.0,4.993,,,0.653,0.731,0.0,201.02,,,,,,0.0,271.84999999999997,2.6139423076923074,0.0,0.0,420.8,True,2026-03-18 23:39:18 - Flight 2,0.4,0.0
4.06,1,10,2026-03-18 23:39:19,36.88889,-121.40333,261.0,0.0,329.7,-12.5,,,,,0.0,11.1,-0.6,114.4,0.0,167.0,-0.0,-0.01,1.0,,16.0,104.0,0.0,30.0,3236.0,,,305.0,,125.0,-700.0,,0.0,0.0,,,,,,,,,,,,,,,,,,,,,0.0,0.0,,0.3,,0.3,,,,14.7,0.0,0.0,-0.4,7.3,5.6,,,,,267.8,201.2,276.8,219.2,275.0,212.0,267.8,212.0,,,11.0,253.9,,8.2,35.0,4.993,,,0.653,0.731,0.0,201.02,,,,,,0.0,271.84999999999997,2.6139423076923074,9.722222222222219e-05,0.0,420.8,True,2026-03-18 23:39:18 - Flight 2,0.3,0.0
5.06,1,10,2026-03-18 23:39:20,36.88888,-121.40333,261.0,0.0,329.7,-12.5,,,,,0.0,11.1,-0.6,114.5,0.0,167.0,-0.0,-0.01,1.0,99.0,-19.0,104.0,0.0,30.0,3236.0,,,305.0,,,,,0.0,0.0,,,,,,,,,,,,,,,,,,,0.0,201.2,0.0,0.0,30.2,0.3,,0.3,8.2,,,14.7,0.0,0.0,-0.4,7.3,5.6,,,,,267.8,201.2,276.8,219.2,275.0,212.0,267.8,212.0,,,11.0,253.9,,8.2,35.0,4.993,,,0.653,0.731,0.0,201.02,,,,,,0.0,271.84999999999997,2.6139423076923074,0.00018055555555555552,0.0,420.8,True,2026-03-18 23:39:18 - Flight 2,0.3,0.0
6.06,1,10,2026-03-18 23:39:21,36.88888,-121.40333,262.0,0.1,329.7,-12.5,,,,,0.0,11.2,-0.6,114.4,0.0,167.0,-0.1,-0.01,1.0,99.0,-6.0,105.8,0.0,30.0,3236.0,,,305.0,,,,,0.0,0.0,,,,,,,,,,,,,,,,,,,0.0,201.2,0.0,0.0,30.2,0.4,,0.4,8.2,,,14.7,0.0,0.0,-0.4,7.3,5.6,,,,,267.8,201.2,276.8,219.2,275.0,212.0,267.8,212.0,,,11.0,253.9,,8.2,35.0,4.993,,,0.653,0.731,0.0,201.02,,,,,,0.0,271.84999999999997,2.569470699432892,0.0002777777777777777,0.08433333333333333,420.8,True,2026-03-18 23:39:18 - Flight 2,0.4,0.25
7.06,1,10,2026-03-18 23:39:22,36.88888,-121.40333,262.0,0.0,329.7,-12.5,,,,,0.0,11.2,-0.6,114.5,0.0,167.0,-0.1,-0.01,1.0,99.0,-13.0,105.8,0.0,30.0,3239.0,,,305.0,,,,,0.0,0.0,,,,,,,,,,,,,,,,,,,0.0,201.2,0.0,0.0,30.2,0.4,,0.4,8.2,,,14.7,0.0,0.0,-0.4,7.3,5.6,,,,,267.8,201.2,276.8,219.2,275.0,212.0,267.8,212.0,,,11.0,253.9,,8.2,35.0,4.993,,,0.653,0.731,0.0,201.02,,,,,,0.0,271.84999999999997,2.569470699432892,0.00038888888888888887,0.16866666666666666,420.8,True,2026-03-18 23:39:18 - Flight 2,0.4,0.0
8.06,1,10,2026-03-18 23:39:23,36.88888,-121.40333,263.0,0.0,329.7,-12.5,,,,,0.0,11.2,-0.6,114.4,0.0,166.0,-0.0,-0.01,1.0,99.0,-18.0,105.8,0.0,30.0,3235.0,,,305.0,,,,,0.0,0.0,,,,,,,,,,,,,,,,,,,0.0,201.2,0.0,0.0,30.2,0.3,,0.3,8.2,,,14.7,0.0,0.0,-0.4,7.3,5.6,,,,,267.8,201.2,276.8,219.2,275.0,212.0,267.8,212.0,,,11.0,253.9,,8.2,35.0,4.993,,,0.653,0.731,0.0,201.02,,,,,,0.0,271.84999999999997,2.569470699432892,0.0004861111111111112,0.16866666666666666,420.8,True,2026-03-18 23:39:18 - Flight 2,0.3,0.0
9.06,1,10,2026-03-18 23:39:24,36.88888,-121.40333,263.0,0.0,329.7,-12.5,,,,,0.0,11.2,-0.6,114.4,0.0,165.0,-0.0,-0.01,1.0,99.0,-15.0,105.8,0.0,30.0,3235.0,,,305.0,,,,,0.0,0.0,,,,,,,,,,,,,,,,,,,0.0,201.2,0.0,0.0,30.2,0.3,,0.3,8.2,,,14.7,0.0,0.0,-0.5,7.3,5.6,,,,,267.8,201.2,276.8,219.2,275.0,212.0,267.8,212.0,,,11.0,253.9,,8.2,35.0,4.993,,,0.653,0.731,0.0,201.02,,,,,,0.0,271.84999999999997,2.569470699432892,0.0005694444444444445,0.16866666666666666,420.8,True,2026-03-18 23:39:18 - Flight 2,0.3,0.0
10.06,1,10,2026-03-18 23:39:25,36.88888,-121.40332,263.0,0.0,329.7,-12.5,,,,,0.0,11.2,-0.7,114.4,0.0,164.0,-0.1,-0.01,1.0,99.0,-51.0,105.8,0.0,30.0,3234.0,,,305.0,,,,,0.0,0.0,,,,,,,,,,,,,,,,,,,0.0,201.2,0.0,0.0,30.2,0.3,,0.3,8.2,,,14.7,0.0,0.0,-0.5,7.3,5.6,,,,,267.8,201.2,276.8,219.2,275.0,212.0,267.8,212.0,,,11.0,253.9,,8.2,35.0,4.993,,,0.653,0.731,0.0,201.02,,,,,,0.0,271.84999999999997,2.569470699432892,0.0006527777777777778,0.16866666666666666,420.8,True,2026-03-18 23:39:18 - Flight 2,0.3,0.0
11.06,1,10,2026-03-18 23:39:26,36.88888,-121.40332,264.0,0.0,329.7,-12.5,,,,,0.0,11.2,-0.7,114.4,0.0,163.0,-0.1,-0.01,1.0,99.0,-45.0,105.8,0.0,30.0,3234.0,,,305.0,,,,,0.0,0.0,,,,,,,,,,,,,,,,,,,0.0,201.2,0.0,0.0,30.2,0.3,,0.3,8.2,,,14.7,0.0,0.0,-0.5,7.3,5.6,,,,,267.8,201.2,276.8,219.2,273.2,212.0,267.8,212.0,,,11.0,253.8,,8.2,35.0,4.993,,,0.653,0.731,0.0,201.02,,,,,,0.0,271.4,2.5652173913043477,0.0007361111111111112,0.16866666666666666,420.8,True,2026-03-18 23:39:18 - Flight 2,0.3,0.0
12.06,1,10,2026-03-18 23:39:27,36.88888,-121.40332,264.0,0.0,329.7,-12.5,,,,,0.0,11.2,-0.6,114.4,0.0,162.0,-0.1,-0.01,1.0,99.0,-75.0,105.8,0.0,30.0,3234.0,,,305.0,,,,,0.0,0.0,,,,,,,,,,,,,,,,,,,0.0,201.2,0.0,0.0,30.2,0.3,,0.3,8.2,,,14.7,0.0,0.0,-0.5,7.3,5.6,,,,,267.8,201.2,276.8,219.2,273.2,212.0,267.8,212.0,,,11.0,253.8,,8.2,35.0,4.993,,,0.653,0.731,0.0,201.02,,,,,,0.0,271.4,2.5652173913043477,0.0008194444444444445,0.16866666666666666,420.8,True,2026-03-18 23:39:18 - Flight 2,0.3,0.0
13.06,1,10,2026-03-18 23:39:28,36.88888,-121.40332,264.0,0.0,329.7,-12.5,,,,,0.0,11.2,-0.6,114.3,0.0,162.0,-0.1,-0.01,1.0,99.0,-36.0,105.8,0.0,30.0,3233.0,,,305.0,,,,,0.0,0.0,,,,,,,,,,,,,,,,,,,0.0,201.2,0.0,0.0,30.2,0.3,,0.3,8.2,,,14.7,0.0,0.0,-0.5,7.3,5.6,,,,,267.8,201.2,276.8,219.2,273.2,212.0,267.8,212.0,,,11.0,253.8,,8.2,35.0,4.993,,,0.653,0.731,0.0,201.02,,,,,,0.0,271.4,2.5652173913043477,0.0009027777777777778,0.16866666666666666,420.8,True,2026-03-18 23:39:18 - Flight 2,0.3,0.0
14.06,1,10,2026-03-18 23:39:29,36.88888,-121.40332,263.0,0.0,329.7,-12.5,,,,,0.0,11.2,-0.6,114.4,0.0,160.0,-0.0,-0.01,1.0,99.0,-79.0,105.8,0.0,30.0,3230.0,,,305.0,,,,,0.0,0.0,,,,,,,,,,,,,,,,,,,0.0,201.2,0.0,0.0,30.2,0.2,,0.2,8.2,,,14.7,0.0,0.0,-0.5,7.3,5.6,,,,,267.8,201.2,276.8,219.2,273.2,212.0,267.8,212.0,,,11.0,253.8,,8.2,35.0,4.993,,,0.653,0.731,0.0,201.02,,,,,,0.0,271.4,2.5652173913043477,0.0009722222222222223,0.16866666666666666,420.8,True,2026-03-18 23:39:18 - Flight 2,0.2,0.0
15.06,1,10,2026-03-18 23:39:30,36.88888,-121.40332,263.0,0.0,329.7,-12.5,,,,,0.0,11.2,-0.6,114.4,0.0,157.0,-0.0,-0.01,1.0,99.0,-127.0,105.8,0.0,30.0,3230.0,,,305.0,,,,,0.0,0.0,,,,,,,,,,,,,,,,,,,0.0,201.2,0.0,0.0,30.2,0.2,,0.2,8.2,,,14.7,0.0,0.0,-0.5,7.3,5.6,,,,,267.8,201.2,276.8,219.2,273.2,212.0,267.8,212.0,,,11.0,253.8,,8.2,35.0,4.993,,,0.653,0.731,0.0,200.83999999999997,,,,,,0.0,271.4,2.5652173913043477,0.0010277777777777778,0.16866666666666666,420.8,True,2026-03-18 23:39:18 - Flight 2,0.2,0.0
16.06,1,10,2026-03-18 23:39:31,36.88888,-121.40332,263.0,0.0,329.7,-12.5,,,,,0.0,11.2,-0.7,114.5,0.0,154.0,-0.0,-0.01,1.0,99.0,-144.0,105.8,0.0,30.0,3230.0,,,305.0,,,,,0.0,0.0,,,,,,,,,,,,,,,,,,,0.0,201.2,0.0,0.0,30.2,0.2,,0.2,8.2,,,14.7,0.0,0.0,-0.5,7.3,5.6,,,,,267.8,201.2,276.8,219.2,273.2,210.2,267.8,212.0,,,11.0,253.8,,8.2,35.0,4.993,,,0.653,0.731,0.0,200.83999999999997,,,,,,0.0,271.4,2.5652173913043477,0.0010833333333333333,0.16866666666666666,420.8,True,2026-03-18 23:39:18 - Flight 2,0.2,0.0
17.06,1,10,2026-03-18 23:39:32,36.88888,-121.40332,263.0,0.0,329.7,-12.5,,,,,0.0,11.2,-0.7,114.4,0.0,153.0,-0.0,-0.01,1.0,99.0,-116.0,105.8,0.0,30.0,3221.0,,,305.0,,,,,0.0,0.0,,,,,,,,,,,,,,,,,,,0.0,201.2,0.0,0.0,30.2,0.2,,0.2,8.2,,,14.7,0.0,0.0,-0.5,7.3,5.6,,,,,267.8,201.2,276.8,219.2,273.2,210.2,267.8,212.0,,,11.0,253.8,,8.2,35.0,4.993,,,0.653,0.731,0.0,200.83999999999997,,,,,,0.0,271.4,2.5652173913043477,0.001138888888888889,0.16866666666666666,420.8,True,2026-03-18 23:39:18 - Flight 2,0.2,0.0
18.06,1,10,2026-03-18 23:39:33,36.88888,-121.40332,263.0,0.0,329.7,-12.5,,,,,0.0,11.2,-0.6,114.4,0.0,151.0,-0.0,-0.01,1.0,99.0,-138.0,104.0,0.0,30.0,3217.0,,,305.0,,,,,0.0,0.0,,,,,,,,,,,,,,,,,,,0.0,201.2,0.0,0.0,30.2,0.2,,0.2,8.2,,,14.7,0.0,0.0,-0.5,7.3,5.6,,,,,267.8,201.2,275.0,219.2,273.2,210.2,267.8,212.0,,,11.0,253.8,,8.2,35.0,4.993,,,0.653,0.731,0.0,200.83999999999997,,,,,,0.0,270.95,2.6052884615384615,0.0011944444444444444,0.16866666666666666,420.8,True,2026-03-18 23:39:18 - Flight 2,0.2,0.0
19.06,1,10,2026-03-18 23:39:34,36.88888,-121.40332,263.0,0.0,329.7,-12.5,,,,,0.0,11.2,-0.6,114.4,0.0,148.0,-0.0,-0.01,1.0,99.0,-128.0,105.8,0.0,30.0,3217.0,,,305.0,,,,,0.0,0.0,,,,,,,,,,,,,,,,,,,0.0,201.2,0.0,0.0,30.2,0.4,,0.4,8.4,,,14.7,0.0,0.0,-0.4,7.3,5.6,,,,,267.8,201.2,275.0,219.2,273.2,210.2,267.8,212.0,,,11.0,253.8,,8.4,35.0,4.993,,,0.653,0.731,0.0,200.83999999999997,,,,,,0.0,270.95,2.5609640831758034,0.0012777777777777779,0.16866666666666666,420.8,True,2026-03-18 23:39:18 - Flight 2,0.4,0.0
20.06,1,10,2026-03-18 23:39:35,36.88888,-121.40332,263.0,0.2,329.7,-12.5,,,,,0.0,11.2,-0.7,114.4,0.0,148.0,-0.0,-0.01,1.0,99.0,-91.0,105.8,0.0,30.0,3217.0,,,305.0,,,,,0.0,0.0,,,,,,,,,,,,,,,,,,,0.0,201.2,0.0,0.0,30.2,0.8,,0.8,9.2,,,14.7,0.0,0.0,-0.4,7.3,5.6,,,,,267.8,201.2,275.0,219.2,273.2,210.2,267.8,212.0,,,11.0,253.8,,9.2,35.0,4.993,,,0.653,0.731,0.0,200.83999999999997,,,,,,0.0,270.95,2.5609640831758034,0.0014444444444444444,0.3373333333333333,420.8,True,2026-03-18 23:39:18 - Flight 2,0.8,0.25
21.06,1,10,2026-03-18 23:39:36,36.88888,-121.40332,263.0,0.0,329.7,-12.5,,,,,0.0,11.2,-0.6,114.4,0.0,147.0,-0.0,-0.01,1.0,99.0,-92.0,105.8,0.0,30.0,3212.0,,,305.0,,,,,0.0,0.0,,,,,,,,,,,,,,,,,,,0.0,201.2,0.0,0.0,30.2,1.4,,1.4,8.8,,,14.7,0.0,0.0,-0.4,7.3,5.6,,,,,267.8,199.4,275.0,219.2,273.2,210.2,267.8,212.0,,,11.0,253.8,,8.8,35.0,4.993,,,0.653,0.731,0.0,201.02,,,,,,0.0,270.95,2.5609640831758034,0.00175,0.506,420.8,True,2026-03-18 23:39:18 - Flight 2,1.4,0.0
22.06,1,10,2026-03-18 23:39:37,36.88888,-121.40332,263.0,0.0,329.7,-12.5,,,,,0.0,11.2,-0.6,114.3,0.0,147.0,-0.0,-0.01,1.0,99.0,-72.0,105.8,0.0,30.0,3212.0,,,305.0,,,,,0.0,0.0,,,,,,,,,,,,,,,,,,,0.0,201.2,0.0,0.0,30.2,1.6,,1.6,8.9,,,14.6,0.0,0.0,-0.4,7.3,5.6,,,,,267.8,199.4,275.0,219.2,273.2,210.2,267.8,210.2,,,11.0,253.8,,8.9,35.0,4.993,,,0.653,0.731,0.0,200.83999999999997,,,,,,0.0,270.95,2.5609640831758034,0.0021666666666666666,0.506,420.8,True,2026-03-18 23:39:18 - Flight 2,1.6,0.0
23.06,1,10,2026-03-18 23:39:38,36.88888,-121.40332,264.0,0.0,329.7,-12.5,,,,,0.0,11.2,-0.6,114.3,0.0,146.0,-0.1,-0.01,1.0,99.0,-60.0,105.8,0.0,30.0,3212.0,,,305.0,,,,,0.0,0.0,,,,,,,,,,,,,,,,,,,0.0,201.2,0.0,0.0,30.2,1.7,,1.7,8.8,,,14.6,0.0,0.0,-0.5,7.3,5.6,,,,,266.0,199.4,275.0,219.2,273.2,210.2,267.8,210.2,,,11.0,253.8,,8.8,35.0,4.993,,,0.653,0.731,0.0,200.83999999999997,,,,,,0.0,270.5,2.556710775047259,0.0026249999999999997,0.506,420.8,True,2026-03-18 23:39:18 - Flight 2,1.7,0.0
24.06,1,10,2026-03-18 23:39:39,36.88888,-121.40332,264.0,0.0,329.7,-12.5,,,,,0.0,11.2,-0.7,114.3,0.0,145.0,-0.1,-0.01,1.0,99.0,-47.0,105.8,0.0,30.0,3214.0,,,305.0,,,,,0.0,0.0,,,,,,,,,,,,,,,,,,,0.0,201.2,0.0,0.0,30.2,1.9,,1.9,8.8,,,14.6,0.0,0.0,-0.5,7.3,5.6,,,,,267.8,199.4,275.0,217.4,273.2,210.2,267.8,210.2,,,11.0,253.8,,8.8,35.0,4.993,,,0.653,0.731,0.0,200.83999999999997,,,,,,0.0,270.95,2.5609640831758034,0.003125,0.506,420.8,True,2026-03-18 23:39:18 - Flight 2,1.9,0.0
25.06,1,10,2026-03-18 23:39:40,36.88888,-121.40332,264.0,0.0,329.7,-12.5,,,,,0.0,11.2,-0.7,114.3,0.0,145.0,-0.1,-0.01,1.0,99.0,-12.0,105.8,0.0,30.0,3209.0,,,305.0,,,,,0.0,0.0,,,,,,,,,,,,,,,,,,,0.0,201.2,0.0,0.0,30.2,2.1,,2.1,7.2,,,14.6,0.0,0.0,-0.5,7.3,5.6,,,,,266.0,199.4,275.0,217.4,273.2,210.2,267.8,210.2,,,11.0,253.8,,7.2,35.0,4.993,,,0.653,0.731,0.0,200.83999999999997,,,,,,0.0,270.5,2.556710775047259,0.0036805555555555554,0.506,420.8,True,2026-03-18 23:39:18 - Flight 2,2.1,0.0
26.06,1,10,2026-03-18 23:39:41,36.88888,-121.40332,264.0,0.0,329.7,-12.5,,,,,0.0,11.2,-0.7,114.4,0.0,145.0,-0.1,-0.01,1.0,99.0,2.0,105.8,0.0,30.0,3209.0,,,305.0,,,,,0.0,0.0,,,,,,,,,,,,,,,,,,,0.0,201.2,0.0,0.0,30.2,2.3,,2.3,8.8,,,14.6,0.0,0.0,-0.4,7.3,5.6,,,,,267.8,199.4,275.0,217.4,273.2,210.2,267.8,210.2,,,11.0,253.8,,8.8,35.0,4.993,,,0.653,0.731,0.0,200.83999999999997,,,,,,0.0,270.95,2.5609640831758034,0.004291666666666667,0.506,420.8,True,2026-03-18 23:39:18 - Flight 2,2.3,0.0
27.06,1,10,2026-03-18 23:39:42,36.88888,-121.40332,264.0,0.0,329.7,-12.5,,,,,0.0,11.2,-0.7,114.4,0.0,145.0,-0.0,-0.01,1.0,99.0,-30.0,105.8,0.0,30.0,3209.0,,,305.0,,,,,0.0,0.0,,,,,,,,,,,,,,,,,,,0.0,201.2,0.0,0.0,30.2,2.3,,2.3,11.6,,,14.6,0.0,0.0,-0.4,7.3,5.6,,,,,266.0,199.4,275.0,217.4,273.2,210.2,267.8,210.2,,,11.0,253.8,,11.6,35.0,4.994,,,0.653,0.731,0.0,200.83999999999997,,,,,,0.0,270.5,2.556710775047259,0.004930555555555555,0.506,420.8,True,2026-03-18 23:39:18 - Flight 2,2.3,0.0
28.06,1,10,2026-03-18 23:39:43,36.88888,-121.40332,264.0,0.0,329.7,-12.5,,,,,0.0,11.2,-0.7,114.4,0.0,145.0,-0.0,-0.01,1.0,99.0,-21.0,105.8,0.0,30.0,3213.0,,,305.0,,,,,0.0,0.0,,,,,,,,,,,,,,,,,,,0.0,201.2,0.0,0.0,30.2,2.4,,2.4,11.4,,,14.6,0.0,0.0,-0.5,7.3,5.6,,,,,266.0,199.4,275.0,217.4,273.2,210.2,267.8,210.2,,,11.0,253.8,,11.4,35.0,4.993,,,0.653,0.731,0.0,200.83999999999997,,,,,,0.0,270.5,2.556710775047259,0.005583333333333333,0.506,420.8,True,2026-03-18 23:39:18 - Flight 2,2.4,0.0
29.06,1,10,2026-03-18 23:39:44,36.88888,-121.40332,264.0,0.0,329.7,-12.5,,,,,0.0,11.2,-0.7,114.4,0.0,144.0,-0.1,-0.01,1.0,99.0,-41.0,105.8,0.0,30.0,3209.0,,,305.0,,,,,0.0,0.0,,,,,,,,,,,,,,,,,,,0.0,201.2,0.0,0.0,30.2,2.5,,2.5,11.3,,,14.6,0.0,0.0,-0.5,7.3,5.6,,,,,266.0,199.4,275.0,217.4,273.2,210.2,267.8,210.2,,,11.0,253.8,,11.3,35.0,4.993,,,0.653,0.731,0.0,200.83999999999997,,,,,,0.0,270.5,2.556710775047259,0.006263888888888888,0.506,420.8,True,2026-03-18 23:39:18 - Flight 2,2.5,0.0
30.06,1,10,2026-03-18 23:39:45,36.88888,-121.40331,264.0,0.0,329.7,-12.5,,,,,0.0,11.3,-0.7,114.4,0.0,144.0,-0.0,-0.01,1.0,99.0,-60.0,105.8,0.0,30.0,3207.0,,,305.0,,,,,0.0,0.0,,,,,,,,,,,,,,,,,,,0.0,201.2,0.0,0.0,30.2,2.3,,2.3,11.3,,,14.6,0.0,0.0,-0.5,7.3,5.6,,,,,266.0,199.4,275.0,217.4,273.2,210.2,267.8,210.2,,,11.0,253.8,,11.3,35.0,4.993,,,0.653,0.731,0.0,200.83999999999997,,,,,,0.0,270.5,2.556710775047259,0.006930555555555555,0.506,420.8,True,2026-03-18 23:39:18 - Flight 2,2.3,0.0
31.06,1,10,2026-03-18 23:39:46,36.88888,-121.40331,264.0,0.0,329.7,-12.5,,,,,0.0,11.3,-0.7,114.3,0.0,143.0,-0.0,-0.01,1.0,99.0,-43.0,105.8,0.0,30.0,3207.0,,,305.0,,,,,0.0,0.0,,,,,,,,,,,,,,,,,,,0.0,201.2,0.0,0.0,30.2,1.9,,1.9,11.2,,,14.6,0.0,0.0,-0.5,7.3,5.6,,,,,266.0,199.4,275.0,217.4,273.2,210.2,267.8,210.2,,,11.0,253.8,,11.2,35.0,4.993,,,0.653,0.731,0.0,200.83999999999997,,,,,,0.0,270.5,2.556710775047259,0.0075138888888888885,0.506,420.8,True,2026-03-18 23:39:18 - Flight 2,1.9,0.0
32.06,1,10,2026-03-18 23:39:47,36.88888,-121.40331,264.0,0.0,329.7,-12.5,,,,,0.0,11.3,-0.7,114.3,0.0,143.0,-0.0,-0.01,1.0,99.0,-25.0,105.8,0.0,30.0,3207.0,,,305.0,,,,,0.0,0.0,,,,,,,,,,,,,,,,,,,0.0,201.2,0.0,0.0,30.2,1.6,,1.6,11.2,,,14.6,0.0,0.0,-0.5,7.3,5.6,,,,,266.0,199.4,275.0,217.4,273.2,208.4,267.8,210.2,,,11.0,253.8,,11.2,35.0,4.993,,,0.653,0.731,0.0,200.83999999999997,,,,,,0.0,270.5,2.556710775047259,0.008000000000000002,0.506,420.8,True,2026-03-18 23:39:18 - Flight 2,1.6,0.0
33.06,1,10,2026-03-18 23:39:48,36.88888,-121.40331,264.0,0.0,329.7,-12.5,,,,,0.0,11.3,-0.7,114.3,0.0,143.0,-0.1,-0.01,1.0,99.0,-8.0,104.0,0.0,30.0,3206.0,,,305.0,,,,,0.0,0.0,,,,,,,,,,,,,,,,,,,0.0,201.2,0.0,0.0,30.2,1.6,,1.6,11.2,,,14.6,0.0,0.0,-0.5,7.3,5.6,,,,,266.0,197.6,275.0,217.4,273.2,208.4,267.8,210.2,,,11.0,253.8,,11.2,35.0,4.993,,,0.653,0.731,0.0,200.83999999999997,,,,,,0.0,270.5,2.6009615384615383,0.008444444444444445,0.506,420.8,True,2026-03-18 23:39:18 - Flight 2,1.6,0.0
34.06,1,10,2026-03-18 23:39:49,36.88888,-121.40331,264.0,0.0,329.7,-12.5,,,,,0.0,11.3,-0.7,114.3,0.0,143.0,-0.1,-0.01,1.0,99.0,12.0,104.0,0.0,30.0,3206.0,,,305.0,,,,,0.0,0.0,,,,,,,,,,,,,,,,,,,0.0,201.2,0.0,0.0,30.2,1.7,,1.7,11.2,,,14.6,0.0,0.0,-0.5,7.3,5.6,,,,,266.0,197.6,275.0,217.4,273.2,208.4,267.8,210.2,,,11.0,253.8,,11.2,35.0,4.993,,,0.653,0.731,0.0,200.83999999999997,,,,,,0.0,270.5,2.6009615384615383,0.008902777777777779,0.506,420.8,True,2026-03-18 23:39:18 - Flight 2,1.7,0.0
35.06,1,10,2026-03-18 23:39:50,36.88888,-121.40331,264.0,0.0,329.7,-12.5,,,,,0.0,11.3,-0.7,114.1,0.0,143.0,-0.0,-0.01,1.0,99.0,11.0,104.0,0.0,30.0,3206.0,,,305.0,,,,,0.0,0.0,,,,,,,,,,,,,,,,,,,0.0,179.6,0.0,0.0,30.1,1.7,,1.7,11.0,,,14.6,0.0,0.0,-0.5,7.3,5.6,,,,,260.6,190.4,269.6,210.2,267.8,201.2,262.4,203.0,,,11.0,253.8,,11.0,35.0,4.993,,,0.652,0.73,0.1,179.78,,,,,,0.0,265.1,2.5490384615384616,0.009375000000000001,0.506,420.8,True,2026-03-18 23:39:18 - Flight 2,1.7,0.0
36.06,1,10,2026-03-18 23:39:51,36.88888,-121.40331,265.0,0.0,329.7,-12.5,,,,,0.0,11.3,-0.7,114.1,0.0,143.0,-0.0,-0.01,1.0,99.0,29.0,104.0,0.0,30.0,3200.0,,,305.0,,,,,0.0,0.0,,,,,,,,,,,,,,,,,,,0.0,190.4,197.0,197.0,28.9,1.8,,1.8,13.5,,,14.6,0.0,0.0,-0.6,7.3,5.6,,,,,264.2,195.8,271.4,213.8,269.6,204.8,264.2,208.4,,,11.0,253.8,,13.5,35.0,4.993,,,0.653,0.73,0.4,189.68,,,,,,197.0,267.34999999999997,2.5706730769230766,0.009861111111111112,0.506,420.8,True,2026-03-18 23:39:18 - Flight 2,1.8,0.0
37.06,1,10,2026-03-18 23:39:52,36.88888,-121.40331,264.0,0.0,329.7,-12.5,,,,,0.0,11.3,-0.7,114.0,0.0,143.0,-0.0,-0.01,1.0,99.0,12.0,105.8,0.0,30.0,3200.0,,,305.0,,,,,0.0,0.0,,,,,,,,,,,,,,,,,,,9.0,190.4,215.0,215.0,28.9,1.8,,1.8,10.4,,,14.6,0.0,0.0,-0.6,7.3,5.7,,,,,264.2,197.6,271.4,213.8,269.6,206.6,264.2,208.4,,,11.0,253.8,,10.4,35.0,4.993,,,0.653,0.73,8.6,189.68,,,8.0,L,,215.0,267.34999999999997,2.5269376181474477,0.010361111111111113,0.506,420.8,True,2026-03-18 23:39:18 - Flight 2,1.8,0.0
38.06,1,10,2026-03-18 23:39:53,36.88888,-121.40331,264.0,0.0,329.7,-12.5,,,,,0.0,11.3,-0.7,114.0,0.0,143.0,-0.0,-0.01,1.0,99.0,-29.0,105.8,0.0,30.0,3200.0,,,305.0,,,,,0.0,0.0,,,,,,,,,,,,,,,,,,,17.0,190.4,213.0,213.0,28.7,1.9,,1.9,9.8,,,14.6,0.0,0.0,-0.6,7.3,5.7,,,,,264.2,199.4,271.4,215.6,269.6,208.4,264.2,208.4,,,11.0,253.8,,9.8,35.0,4.993,,,0.653,0.731,17.5,189.5,,,13.0,L,,213.0,267.34999999999997,2.5269376181474477,0.010875000000000001,0.506,420.8,True,2026-03-18 23:39:18 - Flight 2,1.9,0.0
39.06,1,10,2026-03-18 23:39:54,36.88888,-121.40331,264.0,0.0,329.7,-12.5,,,,,0.0,11.3,-0.6,114.0,0.0,143.0,-0.0,-0.01,1.0,99.0,-46.0,104.0,0.0,30.0,3206.0,,,305.0,,,,,0.0,0.0,,,,,,,,,,,,,,,,,,,18.0,188.6,210.0,210.0,28.7,2.1,,2.1,9.2,,,14.6,0.0,0.0,-0.6,7.3,5.7,,,,,264.2,199.4,271.4,215.6,269.6,208.4,264.2,210.2,,,11.0,253.8,,9.2,35.0,4.993,,,0.653,0.73,17.9,189.32,,,15.0,L,,210.0,267.34999999999997,2.5706730769230766,0.011430555555555557,0.506,420.8,True,2026-03-18 23:39:18 - Flight 2,2.1,0.0
40.06,1,10,2026-03-18 23:39:55,36.88888,-121.40331,264.0,0.0,329.7,-12.5,,,,,0.0,11.3,-0.6,113.9,0.0,141.0,-0.1,-0.01,1.0,99.0,-62.0,105.8,0.0,30.0,3205.0,,,305.0,,,,,0.0,0.0,,,,,,,,,,,,,,,,,,,18.0,188.6,211.0,211.0,28.7,2.3,,2.3,8.6,,,14.6,0.0,0.0,-0.6,7.3,5.7,,,,,262.4,199.4,271.4,215.6,269.6,208.4,264.2,210.2,,,11.0,253.8,,8.6,35.0,4.993,,,0.653,0.73,18.2,189.32,,,17.0,L,,211.0,266.9,2.5226843100189034,0.012041666666666668,0.506,420.8,True,2026-03-18 23:39:18 - Flight 2,2.3,0.0
41.06,1,10,2026-03-18 23:39:56,36.88888,-121.40331,264.0,0.0,329.7,-12.5,,,,,0.0,11.3,-0.7,113.9,0.0,141.0,-0.1,-0.01,1.0,99.0,-47.0,104.0,0.0,30.0,3204.0,,,305.0,,,,,0.0,0.0,,,,,,,,,,,,,,,,,,,18.0,188.6,214.0,214.0,28.7,2.5,,2.5,8.3,,,14.6,0.0,0.0,-0.6,7.3,5.7,,,,,262.4,201.2,271.4,215.6,269.6,208.4,264.2,210.2,,,11.0,253.8,,8.3,35.0,4.993,,,0.653,0.73,18.4,189.32,,,19.0,L,,214.0,266.9,2.566346153846154,0.012708333333333335,0.506,420.8,True,2026-03-18 23:39:18 - Flight 2,2.5,0.0
42.06,1,10,2026-03-18 23:39:57,36.88888,-121.40331,264.0,0.0,329.7,-12.5,,,,,0.0,11.3,-0.7,113.9,0.0,140.0,-0.0,-0.01,1.0,99.0,-52.0,104.0,0.0,30.0,3203.0,,,305.0,,,,,0.0,0.0,,,,,,,,,,,,,,,,,,,18.0,188.6,211.0,211.0,28.7,2.5,,2.5,8.5,,,14.6,0.0,0.0,-0.6,7.3,5.7,,,,,262.4,201.2,271.4,215.6,269.6,208.4,264.2,210.2,,,11.0,219.3,,8.5,35.0,4.993,,,0.653,0.73,18.0,189.14,,,20.0,L,,211.0,266.9,2.566346153846154,0.013402777777777779,0.506,420.8,True,2026-03-18 23:39:18 - Flight 2,2.5,0.0
43.06,1,10,2026-03-18 23:39:58,36.88888,-121.40331,264.0,0.0,329.7,-12.5,,,,,0.0,11.4,-0.7,113.9,0.0,139.0,-0.0,-0.01,1.0,99.0,-42.0,105.8,0.0,30.0,3203.0,,,305.0,,,,,0.0,0.0,,,,,,,,,,,,,,,,,,,18.0,188.6,210.0,210.0,28.7,2.3,,2.3,8.8,,,14.6,0.0,0.0,-0.6,7.3,5.7,,,,,262.4,201.2,271.4,215.6,269.6,208.4,264.2,210.2,,,11.0,170.7,,8.8,35.0,4.993,,,0.653,0.73,17.8,189.14,,,20.0,L,,210.0,266.9,2.5226843100189034,0.014069444444444445,0.506,420.8,True,2026-03-18 23:39:18 - Flight 2,2.3,0.0
44.06,1,10,2026-03-18 23:39:59,36.88888,-121.40331,264.0,0.0,329.7,-12.5,,,,,0.0,11.3,-0.6,113.9,0.0,139.0,-0.1,-0.01,1.0,99.0,-23.0,104.0,0.0,30.0,3202.0,,,305.0,,,,,0.0,0.0,,,,,,,,,,,,,,,,,,,16.0,201.2,167.0,167.0,28.6,2.0,,2.0,9.0,,,14.6,0.0,0.0,-0.6,7.3,5.7,,,,,266.0,206.6,275.0,221.0,271.4,213.8,266.0,213.8,,,11.0,132.9,,9.0,35.0,4.993,,,0.653,0.73,16.2,200.83999999999997,,,19.0,L,,167.0,269.6,2.5923076923076924,0.014666666666666668,0.506,420.8,True,2026-03-18 23:39:18 - Flight 2,2.0,0.0
45.06,1,10,2026-03-18 23:40:00,36.88889,-121.40331,264.0,0.0,329.7,-12.5,,,,,0.0,11.3,-0.6,114.0,0.0,139.0,-0.1,-0.01,1.0,99.0,0.0,104.0,0.0,30.0,3202.0,,,305.0,,,,,0.0,0.0,,,,,,,,,,,,,,,,,,,3.0,201.2,167.0,167.0,29.8,1.9,,1.9,8.3,,,14.6,0.0,0.0,-0.5,7.3,5.7,,,,,266.0,204.8,275.0,221.0,271.4,213.8,266.0,213.8,,,11.0,103.5,,8.3,35.0,4.993,,,0.653,0.731,3.3,200.48,,,,,,167.0,269.6,2.5923076923076924,0.015208333333333334,0.506,420.8,True,2026-03-18 23:39:18 - Flight 2,1.9,0.0
46.06,1,10,2026-03-18 23:40:01,36.88889,-121.40331,264.0,0.0,329.7,-12.5,,,,,0.0,11.3,-0.6,114.1,0.0,138.0,-0.0,-0.01,1.0,99.0,-57.0,104.0,0.0,30.0,3200.0,,,305.0,,,,,0.0,0.0,,,,,,,,,,,,,,,,,,,1.0,201.2,0.0,0.0,29.9,1.8,,1.8,8.2,,,14.6,0.0,0.0,-0.5,7.3,5.7,,,,,266.0,204.8,275.0,221.0,271.4,213.8,266.0,213.8,,,11.0,80.7,,8.2,35.0,4.993,,,0.653,0.731,0.8,200.3,,,,,,0.0,269.6,2.5923076923076924,0.015722222222222224,0.506,420.8,True,2026-03-18 23:39:18 - Flight 2,1.8,0.0
47.06,1,10,2026-03-18 23:40:02,36.88889,-121.40331,264.0,0.0,329.7,-12.5,,,,,0.0,11.3,-0.6,114.2,0.0,138.0,-0.0,-0.01,1.0,99.0,-51.0,104.0,0.0,30.0,3200.0,,,305.0,,,,,0.0,0.0,,,,,,,,,,,,,,,,,,,0.0,201.2,0.0,0.0,30.0,1.8,,1.8,8.2,,,14.6,0.0,0.0,-0.5,7.3,5.7,,,,,266.0,204.8,273.2,221.0,271.4,213.8,266.0,213.8,,,11.0,63.0,,8.2,35.0,4.993,,,0.653,0.73,0.0,200.48,,,,,,0.0,269.15,2.587980769230769,0.016222222222222225,0.506,420.8,True,2026-03-18 23:39:18 - Flight 2,1.8,0.0
48.06,1,10,2026-03-18 23:40:03,36.88889,-121.40331,264.0,0.0,329.7,-12.5,,,,,0.0,11.3,-0.6,114.2,0.0,136.0,-0.0,-0.01,1.0,99.0,-79.0,105.8,0.0,30.0,3198.0,,,305.0,,,,,0.0,0.0,,,,,,,,,,,,,,,,,,,0.0,201.2,0.0,0.0,30.0,1.6,,1.6,8.1,,,14.6,0.0,0.0,-0.5,7.3,5.7,,,,,266.0,204.8,275.0,221.0,271.4,213.8,266.0,213.8,,,11.0,49.2,,8.1,35.0,4.993,,,0.653,0.731,0.0,200.48,,,,,,0.0,269.6,2.5482041587901705,0.016694444444444446,0.506,420.8,True,2026-03-18 23:39:18 - Flight 2,1.6,0.0
49.06,1,10,2026-03-18 23:40:04,36.88889,-121.40331,264.0,0.0,329.7,-12.5,,,,,0.0,11.3,-0.6,114.1,0.0,135.0,-0.1,-0.01,1.0,99.0,-67.0,105.8,0.0,30.0,3197.0,,,305.0,,,,,0.0,0.0,,,,,,,,,,,,,,,,,,,0.0,201.2,0.0,0.0,30.2,1.5,,1.5,8.1,,,14.6,0.0,0.0,-0.4,7.3,5.7,,,,,266.0,204.8,273.2,219.2,271.4,213.8,266.0,213.8,,,11.0,38.5,,8.1,35.0,4.993,,,0.653,0.73,0.0,200.48,,,,,,0.0,269.15,2.5439508506616257,0.017125,0.506,420.8,True,2026-03-18 23:39:18 - Flight 2,1.5,0.0
50.06,1,10,2026-03-18 23:40:05,36.88889,-121.40331,264.0,0.0,329.7,-12.5,,,,,0.0,11.3,-0.7,114.2,0.0,133.0,-0.1,-0.01,1.0,99.0,-99.0,105.8,0.0,30.0,3195.0,,,305.0,,,,,0.0,0.0,,,,,,,,,,,,,,,,,,,0.0,201.2,0.0,0.0,30.2,1.4,,1.4,8.1,,,14.6,0.0,0.0,-0.3,7.3,5.7,,,,,266.0,204.8,273.2,219.2,271.4,213.8,266.0,213.8,,,11.0,30.2,,8.1,35.0,4.993,,,0.653,0.731,0.0,200.48,,,,,,0.0,269.15,2.5439508506616257,0.017527777777777778,0.506,420.8,True,2026-03-18 23:39:18 - Flight 2,1.4,0.0
51.06,1,10,2026-03-18 23:40:06,36.88889,-121.40331,264.0,0.0,329.7,-12.5,,,,,0.0,11.3,-0.7,114.2,0.0,132.0,-0.1,-0.01,1.0,99.0,-90.0,105.8,0.0,30.0,3194.0,,,305.0,,,,,0.0,0.0,,,,,,,,,,,,,,,,,,,0.0,201.2,0.0,0.0,30.2,1.3,,1.3,8.1,,,14.6,0.0,0.0,-0.3,7.3,5.7,,,,,264.2,204.8,273.2,219.2,271.4,213.8,266.0,213.8,,,11.0,23.7,,8.1,35.0,4.993,,,0.653,0.731,0.0,200.48,,,,,,0.0,268.7,2.5396975425330814,0.017902777777777778,0.506,420.8,True,2026-03-18 23:39:18 - Flight 2,1.3,0.0
52.06,1,10,2026-03-18 23:40:07,36.88889,-121.40331,264.0,0.0,329.7,-12.5,,,,,0.0,11.4,-0.7,114.2,0.0,131.0,-0.1,-0.01,1.0,99.0,-67.0,105.8,0.0,30.0,3194.0,,,305.0,,,,,0.0,0.0,,,,,,,,,,,,,,,,,,,0.0,201.2,0.0,0.0,30.2,1.3,,1.3,8.0,,,14.6,0.0,0.0,-0.3,7.3,5.7,,,,,264.2,204.8,273.2,219.2,271.4,213.8,266.0,213.8,,,11.0,18.7,,8.0,35.0,4.993,,,0.653,0.731,0.0,200.48,,,,,,0.0,268.7,2.5396975425330814,0.01826388888888889,0.506,420.8,True,2026-03-18 23:39:18 - Flight 2,1.3,0.0
53.06,1,10,2026-03-18 23:40:08,36.88889,-121.40331,264.0,0.0,329.7,-12.5,,,,,0.0,11.4,-0.7,114.1,0.0,130.0,-0.1,-0.01,1.0,99.0,-86.0,105.8,0.0,30.0,3194.0,,,305.0,,,,,0.0,0.0,,,,,,,,,,,,,,,,,,,0.0,201.2,0.0,0.0,30.2,1.1,,1.1,8.0,,,14.6,0.0,0.0,-0.3,7.3,5.7,,,,,264.2,204.8,273.2,219.2,271.4,213.8,266.0,213.8,,,11.0,14.8,,8.0,35.0,4.993,,,0.653,0.73,0.0,200.48,,,,,,0.0,268.7,2.5396975425330814,0.018597222222222223,0.506,420.8,True,2026-03-18 23:39:18 - Flight 2,1.1,0.0
54.06,1,10,2026-03-18 23:40:09,36.88889,-121.40331,264.0,0.0,329.7,-12.5,,,,,0.0,11.3,-0.8,114.1,0.0,128.0,-0.1,-0.01,1.0,99.0,-88.0,105.8,0.0,30.0,3193.0,,,305.0,,,,,0.0,0.0,,,,,,,,,,,,,,,,,,,0.0,201.2,0.0,0.0,30.2,0.9,,0.9,8.0,,,14.6,0.0,0.0,-0.4,7.3,5.7,,,,,264.2,203.0,273.2,219.2,271.4,213.8,266.0,213.8,,,11.0,11.8,,8.0,35.0,4.993,,,0.653,0.73,0.0,200.48,,,,,,0.0,268.7,2.5396975425330814,0.018875000000000003,0.506,420.8,True,2026-03-18 23:39:18 - Flight 2,0.9,0.0
55.06,1,10,2026-03-18 23:40:10,36.88889,-121.40331,264.0,0.0,329.7,-12.5,,,,,0.0,11.4,-0.7,114.2,0.0,128.0,-0.0,-0.01,1.0,99.0,-52.0,105.8,0.0,30.0,3193.0,,,305.0,,,,,0.0,0.0,,,,,,,,,,,,,,,,,,,0.0,201.2,0.0,0.0,30.2,0.8,,0.8,8.0,,,14.6,0.0,0.0,-0.4,7.3,5.7,,,,,264.2,203.0,273.2,219.2,271.4,212.0,266.0,213.8,,,11.0,9.4,,8.0,35.0,4.993,,,0.653,0.731,0.0,200.48,,,,,,0.0,268.7,2.5396975425330814,0.019111111111111113,0.506,420.8,True,2026-03-18 23:39:18 - Flight 2,0.8,0.0
56.06,1,10,2026-03-18 23:40:11,36.88889,-121.40332,264.0,0.0,329.7,-12.5,,,,,0.0,11.4,-0.8,114.1,0.0,128.0,-0.0,-0.01,1.0,99.0,-13.0,105.8,0.0,30.0,3193.0,,,305.0,,,,,0.0,0.0,,,,,,,,,,,,,,,,,,,0.0,201.2,0.0,0.0,30.2,0.6,,0.6,8.0,,,14.6,0.0,0.0,-0.4,7.3,5.7,,,,,264.2,203.0,273.2,219.2,271.4,212.0,266.0,213.8,,,11.0,7.6,,8.0,35.0,4.993,,,0.653,0.731,0.0,200.48,,,,,,0.0,268.7,2.5396975425330814,0.01930555555555556,0.506,420.8,True,2026-03-18 23:39:18 - Flight 2,0.6,0.0
57.06,1,10,2026-03-18 23:40:12,36.88889,-121.40332,264.0,0.0,329.7,-12.5,,,,,0.0,11.4,-0.7,114.1,0.0,128.0,-0.0,-0.01,1.0,99.0,-14.0,105.8,0.0,30.0,3192.0,,,305.0,,,,,0.0,0.0,,,,,,,,,,,,,,,,,,,0.0,201.2,0.0,0.0,30.2,0.5,,0.5,8.0,,,14.6,0.0,0.0,-0.4,7.3,5.7,,,,,264.2,203.0,273.2,219.2,271.4,212.0,266.0,213.8,,,11.0,6.1,,8.0,35.0,4.993,,,0.653,0.731,0.0,200.48,,,,,,0.0,268.7,2.5396975425330814,0.019458333333333334,0.506,420.8,True,2026-03-18 23:39:18 - Flight 2,0.5,0.0
58.06,1,10,2026-03-18 23:40:13,36.88889,-121.40332,264.0,0.0,329.7,-12.5,,,,,0.0,11.4,-0.7,114.1,0.0,128.0,-0.1,-0.01,1.0,99.0,-1.0,105.8,0.0,30.0,3192.0,,,305.0,,,,,0.0,0.0,,,,,,,,,,,,,,,,,,,0.0,201.2,0.0,0.0,30.2,0.5,,0.5,8.0,,,14.6,0.0,0.0,-0.4,7.3,5.7,,,,,264.2,203.0,273.2,219.2,271.4,212.0,266.0,212.0,,,11.0,5.0,,8.0,35.0,4.993,,,0.653,0.731,0.0,200.48,,,,,,0.0,268.7,2.5396975425330814,0.019597222222222224,0.506,420.8,True,2026-03-18 23:39:18 - Flight 2,0.5,0.0
59.06,1,10,2026-03-18 23:40:14,36.88889,-121.40332,264.0,0.0,329.7,-12.5,,,,,0.0,11.4,-0.7,114.1,0.0,128.0,-0.0,-0.01,1.0,99.0,-13.0,105.8,0.0,30.0,3192.0,,,305.0,,,,,0.0,0.0,,,,,,,,,,,,,,,,,,,0.0,201.2,0.0,0.0,30.2,0.4,,0.4,8.0,,,14.6,0.0,0.0,-0.4,7.3,5.7,,,,,264.2,203.0,273.2,219.2,269.6,212.0,266.0,212.0,,,11.0,4.2,,8.0,35.0,4.993,,,0.653,0.73,0.0,200.48,,,,,,0.0,268.25,2.535444234404537,0.019722222222222224,0.506,420.8,True,2026-03-18 23:39:18 - Flight 2,0.4,0.0
60.06,1,10,2026-03-18 23:40:15,36.88889,-121.40332,264.0,0.0,329.7,-12.5,,,,,0.0,11.4,-0.7,114.0,0.0,128.0,-0.0,-0.01,1.0,99.0,-25.0,105.8,0.0,30.0,3192.0,,,305.0,,,,,0.0,0.0,,,,,,,,,,,,,,,,,,,1.0,179.6,0.0,0.0,30.2,0.4,,0.4,7.8,,,14.6,0.0,0.0,-0.6,7.3,5.7,,,,,258.8,195.8,267.8,210.2,266.0,204.8,260.6,204.8,,,11.0,3.5,,7.8,35.0,4.993,,,0.652,0.73,0.9,179.6,,,,,,0.0,263.3,2.4886578449905485,0.019833333333333335,0.506,420.8,True,2026-03-18 23:39:18 - Flight 2,0.4,0.0
61.06,1,10,2026-03-18 23:40:16,36.88889,-121.40332,264.0,0.0,329.7,-12.5,,,,,0.0,11.3,-0.7,113.9,0.0,127.0,-0.1,-0.0,1.0,99.0,-54.0,105.8,0.0,30.0,3192.0,,,305.0,,,,,0.0,0.0,,,,,,,,,,,,,,,,,,,14.0,188.6,240.0,240.0,29.9,0.4,,0.4,8.7,,,14.6,0.0,0.0,-0.6,7.3,5.7,,,,,260.6,199.4,269.6,213.8,267.8,206.6,262.4,208.4,,,11.0,2.9,,8.7,35.0,4.993,,,0.656,0.73,13.8,188.78,,,,,,240.0,265.1,2.505671077504726,0.019944444444444445,0.506,420.8,True,2026-03-18 23:39:18 - Flight 2,0.4,0.0
62.06,1,10,2026-03-18 23:40:17,36.88889,-121.40332,263.0,0.1,329.7,-12.5,,,,,0.0,11.3,-0.8,114.0,0.0,125.0,-0.0,-0.01,0.9,99.0,-68.0,105.8,0.0,30.0,3192.0,,,305.0,,,,,0.0,0.0,,,,,,,,,,,,,,,,,,,55.0,201.2,1131.0,1131.0,24.9,1.3,,1.3,7.6,,,14.6,0.0,0.0,-0.6,7.3,5.7,,,,,264.2,248.0,273.2,242.6,269.6,282.2,266.0,298.4,,,11.0,2.5,,7.6,35.0,4.993,,,0.657,0.735,54.6,200.48,,,4.0,L,,1131.0,268.25,2.535444234404537,0.020180555555555556,0.5903333333333333,420.8,True,2026-03-18 23:39:18 - Flight 2,1.3,0.07692307692307693
63.06,1,10,2026-03-18 23:40:18,36.8889,-121.40332,263.0,0.1,329.7,-12.5,,,,,0.0,11.3,-0.7,114.0,0.0,125.0,-0.0,-0.01,1.0,99.0,42.0,105.8,0.0,30.0,3189.0,,,305.0,,,,,0.0,0.0,,,,,,,,,,,,,,,,,,,62.0,199.4,1430.0,1430.0,20.2,2.0,,2.0,7.5,,,14.6,0.0,0.0,-0.6,7.3,5.7,,,,,264.2,368.6,273.2,329.0,269.6,348.8,266.0,386.6,,,11.0,2.2,,7.5,35.0,4.993,,,0.658,0.734,61.9,200.12,,,10.0,P,,1430.0,268.25,2.535444234404537,0.02063888888888889,0.7589999999999999,420.8,True,2026-03-18 23:39:18 - Flight 2,2.0,0.05
64.06,1,10,2026-03-18 23:40:19,36.8889,-121.40332,261.0,0.1,329.7,-12.5,,,,,0.0,11.3,-0.6,114.0,0.0,125.0,-0.1,-0.0,1.0,99.0,54.0,105.8,0.0,30.0,3189.0,,,305.0,,,,,0.0,0.0,,,,,,,,,,,,,,,,,,,55.0,199.4,1103.0,1103.0,19.3,2.4,,2.4,7.4,,,14.6,0.0,0.0,-0.5,7.3,5.7,,,,,264.2,447.8,273.2,406.4,271.4,402.8,266.0,442.4,,,11.0,2.0,,7.4,35.0,4.993,,,0.656,0.735,55.4,200.12,,,,,,1103.0,268.7,2.5396975425330814,0.02125,0.9276666666666666,420.8,True,2026-03-18 23:39:18 - Flight 2,2.4,0.04166666666666667
65.06,1,10,2026-03-18 23:40:20,36.8889,-121.40332,261.0,0.1,329.7,-12.5,,,,,0.0,11.2,-0.6,114.1,0.0,125.0,-0.0,-0.01,0.9,99.0,33.0,105.8,0.0,30.0,3189.0,,,305.0,,,,,0.0,0.0,,,,,,,,,,,,,,,,,,,59.0,199.4,1358.0,1358.0,20.9,2.9,,2.9,7.4,,,14.6,0.0,0.0,-0.5,7.3,5.7,,,,,264.2,496.4,273.2,451.4,269.6,392.0,266.0,500.0,,,11.0,1.8,,7.4,35.0,4.993,,,0.658,0.736,59.0,200.12,,,11.0,R,,1358.0,268.25,2.535444234404537,0.021986111111111113,1.0963333333333334,420.8,True,2026-03-18 23:39:18 - Flight 2,2.9,0.034482758620689655
66.06,1,10,2026-03-18 23:40:21,36.8889,-121.40332,261.0,0.0,329.7,-12.5,,,,,0.0,11.3,-0.7,114.0,0.0,125.0,-0.1,-0.01,1.0,99.0,58.0,105.8,0.0,30.0,3189.0,,,305.0,,,,,0.0,0.0,,,,,,,,,,,,,,,,,,,54.0,199.4,1019.0,1019.0,19.2,4.3,,4.3,7.7,,,14.6,0.0,0.0,-0.4,7.3,5.7,,,,,264.2,563.0,275.0,496.4,269.6,451.4,267.8,548.6,,,11.0,1.6,,7.7,35.0,4.993,,,0.656,0.729,54.1,200.12,,,,,,1019.0,269.15000000000003,2.543950850661626,0.022986111111111113,1.1806666666666665,420.8,True,2026-03-18 23:39:18 - Flight 2,4.3,0.0
67.06,1,10,2026-03-18 23:40:22,36.8889,-121.40332,261.0,0.0,329.7,-12.5,,,,,0.0,11.3,-0.7,114.0,0.0,125.0,-0.1,-0.01,1.0,99.0,33.0,105.8,0.0,30.0,3189.0,,,305.0,,,,,0.0,0.0,,,,,,,,,,,,,,,,,,,44.0,199.4,639.0,639.0,25.4,4.6,,4.6,8.8,,,14.6,0.0,0.0,-0.3,7.3,5.7,,,,,266.0,530.6,275.0,473.0,269.6,449.6,267.8,514.4,,,11.0,1.6,,8.8,35.0,4.993,,,0.653,0.728,43.6,200.12,,,12.0,R,,639.0,269.6,2.5482041587901705,0.024222222222222225,1.1806666666666665,420.8,True,2026-03-18 23:39:18 - Flight 2,4.6,0.0
68.06,1,10,2026-03-18 23:40:23,36.8889,-121.40332,261.0,0.3,329.7,-12.5,,,,,0.0,11.3,-0.6,113.9,0.0,125.0,-0.1,-0.0,1.0,99.0,68.0,105.8,0.0,30.0,3189.0,,,305.0,,,,,0.0,0.0,,,,,,,,,,,,,,,,,,,52.0,199.4,908.0,908.0,22.1,4.1,,4.1,14.9,,,14.6,0.0,0.0,-0.3,7.3,5.7,,,,,266.0,552.2,275.0,509.0,271.4,494.6,267.8,539.6,,,11.0,1.5,,14.9,35.0,4.993,,,0.656,0.729,51.5,200.3,,,19.0,R,,908.0,270.05,2.552457466918715,0.025430555555555557,1.4336666666666666,420.8,True,2026-03-18 23:39:18 - Flight 2,4.1,0.07317073170731708
69.06,1,10,2026-03-18 23:40:24,36.8889,-121.40332,261.0,0.2,329.7,-12.5,,,,,0.0,11.4,-0.5,113.9,0.0,125.0,-0.1,-0.01,1.1,99.0,56.0,105.8,0.0,30.0,3189.0,,,305.0,,,,,0.0,0.0,,,,,,,,,,,,,,,,,,,40.0,201.2,439.0,439.0,26.5,4.1,,4.1,16.2,,,14.6,0.0,0.0,-0.3,7.3,5.7,,,,,266.0,523.4,275.0,487.4,271.4,471.2,267.8,514.4,,,11.0,1.4,,16.2,35.0,4.993,,,0.654,0.731,39.8,200.3,,,18.0,R,,439.0,270.05,2.552457466918715,0.026569444444444444,1.8553333333333333,420.8,True,2026-03-18 23:39:18 - Flight 2,4.1,0.04878048780487806
70.06,1,10,2026-03-18 23:40:25,36.88889,-121.40332,261.0,0.1,329.7,-12.5,,,,,0.0,11.3,-0.5,114.0,0.0,125.0,0.0,-0.02,1.0,99.0,58.0,105.8,0.0,30.0,3189.0,,,305.0,,,,,0.0,0.0,,,,,,,,,,,,,,,,,,,62.0,201.2,1414.0,1414.0,22.6,4.3,,4.3,17.8,,,14.6,0.0,0.0,-0.3,7.3,5.7,,,,,266.0,570.2,275.0,528.8,271.4,489.2,267.8,548.6,,,11.0,1.3,,17.8,35.0,4.993,,,0.659,0.731,62.3,200.3,,,26.0,R,,1414.0,270.05,2.552457466918715,0.02773611111111111,2.1083333333333334,420.8,True,2026-03-18 23:39:18 - Flight 2,4.3,0.023255813953488375
71.06,1,10,2026-03-18 23:40:26,36.88889,-121.40332,261.0,0.0,329.7,-12.5,,,,,0.0,11.3,-0.6,114.0,0.0,130.0,-0.0,-0.01,1.0,99.0,125.0,105.8,0.0,30.0,3189.0,,,305.0,,,,,0.0,0.0,,,,,,,,,,,,,,,,,,,65.0,201.2,1511.0,1511.0,18.6,4.1,,4.1,20.2,,,14.6,0.0,0.0,-0.3,7.3,5.7,,,,,266.0,633.2,275.0,617.0,271.4,554.0,267.8,618.8,,,11.0,1.3,,20.2,35.0,4.993,,,0.657,0.732,65.0,200.48,,,21.0,R,,1511.0,270.05,2.552457466918715,0.028902777777777777,2.1926666666666668,420.8,True,2026-03-18 23:39:18 - Flight 2,4.1,0.0
72.06,1,10,2026-03-18 23:40:27,36.88889,-121.40332,261.0,0.1,329.7,-12.5,,,,,0.0,11.2,-0.6,114.1,0.0,130.0,-0.0,-0.02,1.0,99.0,70.0,105.8,0.0,30.0,3195.0,,,305.0,,,,,0.0,0.0,,,,,,,,,,,,,,,,,,,61.0,201.2,1370.0,1370.0,20.0,3.9,,3.9,20.3,,,14.6,0.0,0.0,-0.3,7.3,5.7,,,,,266.0,665.6,276.8,647.6,271.4,564.8,269.6,649.4,,,11.0,1.3,,20.3,35.0,4.993,,,0.658,0.732,61.1,200.66000000000003,,,14.0,R,,1370.0,270.95,2.5609640831758034,0.03001388888888889,2.2769999999999997,420.8,True,2026-03-18 23:39:18 - Flight 2,3.9,0.025641025641025644
73.06,1,10,2026-03-18 23:40:28,36.88889,-121.40332,261.0,0.1,329.7,-12.5,,,,,0.0,11.2,-0.7,114.1,0.0,130.0,-0.1,-0.01,0.9,99.0,55.0,105.8,0.0,30.0,3195.0,,,305.0,,,,,0.0,0.0,,,,,,,,,,,,,,,,,,,59.0,201.2,1264.0,1264.0,18.5,3.7,,3.7,20.3,,,14.6,0.0,0.0,-0.4,7.3,5.7,,,,,267.8,710.6,276.8,689.0,271.4,575.6,269.6,676.4,,,11.0,1.3,,20.3,35.0,4.993,,,0.656,0.729,58.9,200.83999999999997,,,,,,1264.0,271.4,2.5652173913043477,0.031069444444444445,2.4456666666666664,420.8,True,2026-03-18 23:39:18 - Flight 2,3.7,0.02702702702702703
74.06,1,10,2026-03-18 23:40:29,36.88889,-121.40332,261.0,0.1,329.7,-12.5,,,,,0.0,11.2,-0.7,114.0,0.0,130.0,-0.1,-0.01,0.9,99.0,9.0,105.8,0.0,30.0,3195.0,,,305.0,,,,,0.0,0.0,,,,,,,,,,,,,,,,,,,52.0,201.2,995.0,995.0,13.6,3.4,,3.4,20.4,,,14.6,0.0,0.0,-0.4,7.3,5.7,,,,,267.8,692.6,276.8,705.2,271.4,600.8,269.6,689.0,,,11.0,1.2,,20.4,35.0,4.993,,,0.653,0.729,51.6,200.83999999999997,,,,,,995.0,271.4,2.5652173913043477,0.03205555555555556,2.614333333333333,420.8,True,2026-03-18 23:39:18 - Flight 2,3.4,0.029411764705882356
75.06,1,10,2026-03-18 23:40:30,36.88889,-121.40332,260.0,0.1,329.7,-12.5,,,,,0.0,11.3,-0.6,114.0,0.0,130.0,-0.1,-0.01,0.9,99.0,-18.0,105.8,0.0,30.0,3195.0,,,305.0,,,,,0.0,0.0,,,,,,,,,,,,,,,,,,,45.0,201.2,677.0,677.0,15.6,3.2,,3.2,20.4,,,14.6,0.0,0.0,-0.4,7.3,5.7,,,,,267.8,707.0,278.6,735.8,271.4,586.4,269.6,685.4,,,11.0,1.2,,20.4,35.0,4.993,,,0.654,0.728,45.5,201.02,,,,,,677.0,271.85,2.5694706994328924,0.03297222222222222,2.783,420.8,True,2026-03-18 23:39:18 - Flight 2,3.2,0.03125
76.06,1,10,2026-03-18 23:40:31,36.88889,-121.40332,260.0,0.1,329.7,-12.5,,,,,0.0,11.3,-0.5,114.1,0.0,130.0,-0.1,-0.01,1.0,99.0,1.0,105.8,0.0,30.0,3195.0,,,305.0,,,,,0.0,0.0,,,,,,,,,,,,,,,,,,,50.0,201.2,933.0,933.0,15.7,3.1,,3.1,20.1,,,14.6,0.0,0.0,-0.4,7.3,5.7,,,,,269.6,703.4,278.6,728.6,271.4,620.6,271.4,696.2,,,11.0,1.2,,20.1,35.0,4.993,,,0.656,0.731,49.7,201.2,,,,,,933.0,272.75,2.577977315689981,0.03384722222222222,2.9516666666666667,420.8,True,2026-03-18 23:39:18 - Flight 2,3.1,0.03225806451612903
77.06,1,10,2026-03-18 23:40:32,36.88889,-121.40332,260.0,0.0,329.7,-12.5,,,,,0.0,11.3,-0.6,114.1,0.0,130.0,-0.0,-0.01,1.0,99.0,35.0,105.8,0.0,30.0,3195.0,,,305.0,,,,,0.0,0.0,,,,,,,,,,,,,,,,,,,48.0,201.2,863.0,863.0,14.8,3.0,,3.0,19.9,,,14.6,0.0,0.0,-0.4,7.3,5.7,,,,,269.6,690.8,278.6,732.2,271.4,642.2,271.4,726.8,,,11.0,1.2,,19.9,35.0,4.993,,,0.656,0.728,48.4,201.2,,,,,,863.0,272.75,2.577977315689981,0.034694444444444444,3.036,420.8,True,2026-03-18 23:39:18 - Flight 2,3.0,0.0
78.06,1,10,2026-03-18 23:40:33,36.88889,-121.40332,260.0,0.1,329.7,-12.5,,,,,0.0,11.4,-0.5,114.1,0.0,130.0,-0.0,-0.01,1.0,99.0,12.0,105.8,0.0,30.0,3195.0,,,305.0,,,,,0.0,0.0,,,,,,,,,,,,,,,,,,,49.0,201.2,880.0,880.0,15.0,2.9,,2.9,19.8,,,14.6,0.0,0.0,-0.4,7.3,5.7,,,,,269.6,685.4,278.6,730.4,273.2,653.0,271.4,735.8,,,11.0,1.2,,19.8,35.0,4.993,,,0.657,0.729,49.3,201.38,,,,,,880.0,273.2,2.5822306238185253,0.035513888888888887,3.120333333333333,420.8,True,2026-03-18 23:39:18 - Flight 2,2.9,0.034482758620689655
79.06,1,10,2026-03-18 23:40:34,36.88889,-121.40332,260.0,0.1,329.7,-12.5,,,,,0.0,11.3,-0.5,114.1,0.0,131.0,-0.0,-0.01,0.9,99.0,27.0,105.8,0.0,30.0,3195.0,,,305.0,,,,,0.0,0.0,,,,,,,,,,,,,,,,,,,50.0,201.2,915.0,915.0,14.8,2.8,,2.8,19.7,,,14.6,0.0,0.0,-0.4,7.3,5.7,,,,,269.6,721.4,278.6,741.2,273.2,654.8,271.4,748.4,,,11.0,1.2,,19.7,35.0,4.993,,,0.654,0.728,50.0,201.38,,,,,,915.0,273.2,2.5822306238185253,0.036305555555555556,3.2889999999999997,420.8,True,2026-03-18 23:39:18 - Flight 2,2.8,0.03571428571428572
80.06,1,10,2026-03-18 23:40:35,36.88889,-121.40332,260.0,0.0,329.7,-12.5,,,,,0.0,11.3,-0.6,114.0,0.0,131.0,-0.1,-0.01,1.0,99.0,32.0,105.8,0.0,30.0,3195.0,,,305.0,,,,,0.0,0.0,,,,,,,,,,,,,,,,,,,50.0,201.2,906.0,906.0,14.5,2.8,,2.8,19.5,,,14.6,0.0,0.0,-0.4,7.3,5.7,,,,,269.6,730.4,278.6,741.2,273.2,680.0,271.4,784.4,,,11.0,1.2,,19.5,35.0,4.993,,,0.654,0.728,49.9,201.38,,,,,,906.0,273.2,2.5822306238185253,0.037083333333333336,3.373333333333333,420.8,True,2026-03-18 23:39:18 - Flight 2,2.8,0.0
81.06,1,10,2026-03-18 23:40:36,36.88889,-121.40332,260.0,0.1,329.7,-12.5,,,,,0.0,11.3,-0.5,114.0,0.0,132.0,-0.1,-0.01,1.0,99.0,1.0,105.8,0.0,30.0,3197.0,,,305.0,,,,,0.0,0.0,,,,,,,,,,,,,,,,,,,50.0,201.2,926.0,926.0,14.4,2.7,,2.7,25.1,,,14.6,0.0,0.0,-0.3,7.3,5.7,,,,,269.6,753.8,280.4,752.0,273.2,714.2,273.2,780.8,,,11.0,1.2,,25.1,35.0,4.994,,,0.653,0.726,50.1,201.56,,,,,,926.0,274.1,2.590737240075615,0.03784722222222222,3.4576666666666664,420.8,True,2026-03-18 23:39:18 - Flight 2,2.7,0.037037037037037035
82.06,1,10,2026-03-18 23:40:37,36.88889,-121.40332,260.0,0.0,329.7,-12.5,,,,,0.0,11.3,-0.5,114.0,0.0,132.0,-0.1,-0.01,0.9,99.0,-20.0,105.8,0.0,30.0,3197.0,,,305.0,,,,,0.0,0.0,,,,,,,,,,,,,,,,,,,50.0,201.2,905.0,905.0,15.5,2.7,,2.7,31.0,,,14.6,0.0,0.0,-0.2,7.3,5.7,,,,,269.6,750.2,280.4,752.0,273.2,710.6,273.2,764.6,,,11.0,1.2,,31.0,35.0,4.993,,,0.656,0.728,49.7,201.56,,,,,,905.0,274.1,2.590737240075615,0.03859722222222222,3.542,420.8,True,2026-03-18 23:39:18 - Flight 2,2.7,0.0
83.06,1,10,2026-03-18 23:40:38,36.88889,-121.40332,260.0,0.1,329.7,-12.5,,,,,0.0,11.3,-0.5,114.0,0.0,132.0,-0.1,-0.01,1.0,99.0,-28.0,105.8,0.0,30.0,3197.0,,,305.0,,,,,0.0,0.0,,,,,,,,,,,,,,,,,,,49.0,201.2,887.0,887.0,15.3,2.7,,2.7,31.8,,,14.6,0.0,0.0,-0.2,7.3,5.7,,,,,269.6,750.2,280.4,755.6,273.2,714.2,273.2,786.2,,,11.0,1.2,,31.8,35.0,4.993,,,0.654,0.726,49.4,201.56,,,,,,887.0,274.1,2.590737240075615,0.03934722222222222,3.626333333333333,420.8,True,2026-03-18 23:39:18 - Flight 2,2.7,0.037037037037037035
84.06,1,10,2026-03-18 23:40:39,36.88889,-121.40332,259.0,0.0,329.7,-12.5,,,,,0.0,11.3,-0.5,114.0,0.0,132.0,-0.0,-0.01,1.0,99.0,-28.0,105.8,0.0,30.0,3197.0,,,305.0,,,,,0.0,0.0,,,,,,,,,,,,,,,,,,,49.0,201.2,895.0,895.0,15.1,2.6,,2.6,31.7,,,14.6,0.0,0.0,-0.1,7.3,5.7,,,,,269.6,748.4,280.4,773.6,273.2,716.0,273.2,793.4,,,11.0,1.2,,31.7,35.0,4.993,,,0.653,0.728,49.3,201.56,,,,,,895.0,274.1,2.590737240075615,0.04008333333333333,3.7106666666666666,420.8,True,2026-03-18 23:39:18 - Flight 2,2.6,0.0
85.06,1,10,2026-03-18 23:40:40,36.88889,-121.40332,259.0,0.0,329.7,-12.5,,,,,0.0,11.3,-0.6,114.0,0.0,132.0,-0.1,-0.01,1.0,99.0,-46.0,105.8,0.0,30.0,3197.0,,,305.0,,,,,0.0,0.0,,,,,,,,,,,,,,,,,,,49.0,201.2,854.0,854.0,15.1,2.6,,2.6,31.7,,,14.6,0.0,0.0,-0.1,7.3,5.7,,,,,271.4,759.2,280.4,777.2,273.2,743.0,273.2,824.0,,,11.0,1.2,,31.7,35.0,4.993,,,0.654,0.729,48.6,201.56,,,,,,854.0,274.54999999999995,2.5949905482041586,0.04080555555555555,3.7106666666666666,420.8,True,2026-03-18 23:39:18 - Flight 2,2.6,0.0
86.06,1,10,2026-03-18 23:40:41,36.88889,-121.40332,259.0,0.0,329.7,-12.5,,,,,0.0,11.3,-0.6,114.0,0.0,132.0,-0.1,-0.0,1.0,99.0,-44.0,105.8,0.0,30.0,3197.0,,,305.0,,,,,0.0,0.0,,,,,,,,,,,,,,,,,,,49.0,201.2,869.0,869.0,15.1,2.6,,2.6,31.8,,,14.6,0.0,0.0,-0.1,7.3,5.7,,,,,271.4,764.6,280.4,777.2,273.2,757.4,273.2,816.8,,,11.0,1.2,,31.8,35.0,4.993,,,0.654,0.732,49.4,201.56,,,,,,869.0,274.54999999999995,2.5949905482041586,0.04152777777777778,3.7106666666666666,420.8,True,2026-03-18 23:39:18 - Flight 2,2.6,0.0
87.06,1,10,2026-03-18 23:40:42,36.88889,-121.40332,259.0,0.1,329.7,-12.5,,,,,0.0,11.3,-0.5,114.0,0.0,132.0,-0.1,-0.01,1.0,99.0,-35.0,105.8,0.0,30.0,3197.0,,,305.0,,,,,0.0,0.0,,,,,,,,,,,,,,,,,,,49.0,201.2,910.0,910.0,15.3,2.6,,2.6,31.8,,,14.6,0.0,0.0,-0.1,7.3,5.7,,,,,271.4,759.2,282.2,793.4,275.0,757.4,275.0,829.4,,,11.0,1.1,,31.8,35.0,4.993,,,0.654,0.729,49.4,201.56,,,,,,910.0,275.9,2.607750472589792,0.04225,3.795,420.8,True,2026-03-18 23:39:18 - Flight 2,2.6,0.038461538461538464
88.06,1,10,2026-03-18 23:40:43,36.88889,-121.40332,259.0,0.0,329.7,-12.5,,,,,0.0,11.3,-0.5,114.1,0.0,132.0,-0.0,-0.01,1.0,99.0,-42.0,105.8,0.0,30.0,3197.0,,,305.0,,,,,0.0,0.0,,,,,,,,,,,,,,,,,,,50.0,201.2,911.0,911.0,15.3,2.6,,2.6,31.9,,,14.6,0.0,0.0,-0.1,7.3,5.7,,,,,271.4,761.0,282.2,797.0,273.2,755.6,275.0,827.6,,,11.0,1.1,,31.9,35.0,4.993,,,0.653,0.726,50.1,201.56,,,,,,911.0,275.45000000000005,2.603497164461248,0.042972222222222224,3.8793333333333333,420.8,True,2026-03-18 23:39:18 - Flight 2,2.6,0.0
89.06,1,10,2026-03-18 23:40:44,36.88889,-121.40332,259.0,0.0,329.7,-12.5,,,,,0.0,11.3,-0.6,114.1,0.0,132.0,-0.0,-0.01,0.9,99.0,-37.0,105.8,0.0,30.0,3197.0,,,305.0,,,,,0.0,0.0,,,,,,,,,,,,,,,,,,,50.0,201.2,920.0,920.0,15.0,2.6,,2.6,31.6,,,14.6,0.0,0.0,-0.1,7.3,5.7,,,,,271.4,762.8,282.2,804.2,275.0,780.8,275.0,858.2,,,11.0,1.1,,31.6,35.0,4.993,,,0.654,0.728,50.1,201.56,,,,,,920.0,275.9,2.607750472589792,0.043694444444444445,3.8793333333333333,420.8,True,2026-03-18 23:39:18 - Flight 2,2.6,0.0
90.06,1,10,2026-03-18 23:40:45,36.88889,-121.40332,259.0,0.0,329.7,-12.5,,,,,0.0,11.3,-0.6,114.1,0.0,132.0,-0.0,-0.01,1.0,99.0,-33.0,105.8,0.0,30.0,3197.0,,,305.0,,,,,0.0,0.0,,,,,,,,,,,,,,,,,,,50.0,201.2,929.0,929.0,14.9,2.6,,2.6,32.0,,,14.6,0.0,0.0,-0.1,7.3,5.7,,,,,271.4,752.0,282.2,815.0,275.0,797.0,275.0,870.8,,,11.0,1.3,,32.0,35.0,4.994,,,0.653,0.731,50.1,201.56,,,,,,929.0,275.9,2.607750472589792,0.04441666666666667,3.8793333333333333,420.8,True,2026-03-18 23:39:18 - Flight 2,2.6,0.0
91.06,1,10,2026-03-18 23:40:46,36.88889,-121.40332,258.0,0.0,329.7,-12.5,,,,,0.0,11.3,-0.5,114.1,0.0,132.0,-0.0,-0.01,1.0,99.0,-10.0,105.8,0.0,30.0,3197.0,,,305.0,,,,,0.0,0.0,,,,,,,,,,,,,,,,,,,51.0,201.2,957.0,957.0,14.3,2.5,,2.5,31.9,,,14.6,0.0,0.0,-0.1,7.3,5.7,,,,,271.4,744.8,282.2,813.2,275.0,818.6,276.8,894.2,,,11.0,1.5,,31.9,35.0,4.993,,,0.653,0.728,50.6,201.56,,,,,,957.0,276.35,2.6120037807183367,0.045125,3.8793333333333333,420.8,True,2026-03-18 23:39:18 - Flight 2,2.5,0.0
92.06,1,10,2026-03-18 23:40:47,36.88889,-121.40332,258.0,0.0,329.7,-12.5,,,,,0.0,11.3,-0.6,114.1,0.0,132.0,-0.1,-0.01,1.0,99.0,-38.0,105.8,0.0,30.0,3197.0,,,305.0,,,,,0.0,0.0,,,,,,,,,,,,,,,,,,,48.0,201.2,837.0,837.0,15.1,2.5,,2.5,32.1,,,14.6,0.0,0.0,0.1,7.3,5.7,,,,,273.2,743.0,284.0,813.2,275.0,834.8,276.8,887.0,,,11.0,1.6,,32.1,35.0,4.993,,,0.654,0.73,48.1,201.73999999999998,,,,,,837.0,277.25,2.6205103969754253,0.04581944444444445,3.8793333333333333,420.8,True,2026-03-18 23:39:18 - Flight 2,2.5,0.0
93.06,1,10,2026-03-18 23:40:48,36.88887,-121.40333,255.0,0.0,329.7,-12.5,,,,,0.0,11.3,-0.6,114.1,0.0,132.0,-0.0,-0.01,0.9,99.0,-43.0,105.8,0.0,30.0,3197.0,,,305.0,,,,,0.0,0.0,,,,,,,0.0,,,0.0,,,,,,,,,49.0,208.4,879.0,879.0,15.5,2.5,,2.5,32.3,,,14.6,0.0,0.0,17.6,7.3,5.7,,,,,275.0,743.0,285.8,809.6,276.8,825.8,278.6,892.4,,,11.0,1.7,,32.3,35.0,4.993,,,0.654,0.732,49.2,208.4,,,,,,879.0,279.05,2.6375236294896034,0.04651388888888889,3.8793333333333333,420.8,True,2026-03-18 23:39:18 - Flight 2,2.5,0.0
94.06,1,10,2026-03-18 23:40:49,36.88887,-121.40333,255.0,0.0,329.7,-12.5,,,,,0.0,11.3,-0.6,113.9,0.0,132.0,-0.1,-0.0,1.0,99.0,-5.0,105.8,0.0,30.0,3197.0,,,305.0,,,,,0.0,0.0,,,,,,,1.0,,,-2.0,,,,,,,,,49.0,208.4,845.0,845.0,15.3,2.4,,2.4,32.2,,,14.6,0.0,0.0,35.0,7.3,5.7,,,,,275.0,734.0,285.8,825.8,276.8,843.8,278.6,901.4,,,11.0,1.8,,32.2,35.0,4.993,,,0.653,0.734,48.9,208.22,,,,,,845.0,279.05,2.6375236294896034,0.04719444444444445,3.8793333333333333,420.8,True,2026-03-18 23:39:18 - Flight 2,2.4,0.0
95.06,1,10,2026-03-18 23:40:50,36.88887,-121.40333,255.0,0.1,329.7,-12.5,,,,,0.0,11.3,-0.6,114.0,0.0,132.0,-0.1,-0.01,0.9,99.0,-27.0,105.8,0.0,30.0,3197.0,,,305.0,,,,,0.0,0.0,,,,,,,2.0,,,-4.0,,,,,,,,,49.0,208.4,847.0,847.0,16.2,2.4,,2.4,32.5,,,14.6,0.0,0.0,43.6,7.3,5.7,,,,,275.0,732.2,285.8,829.4,278.6,858.2,278.6,910.4,,,11.0,1.9,,32.5,35.0,4.993,,,0.654,0.732,48.9,208.22,,,,,,847.0,279.5,2.6417769376181477,0.04786111111111111,3.9636666666666667,420.8,True,2026-03-18 23:39:18 - Flight 2,2.4,0.04166666666666667
96.06,1,10,2026-03-18 23:40:51,36.88887,-121.40333,255.0,0.0,329.7,-12.5,,,,,0.0,11.3,-0.6,114.0,0.0,132.0,-0.1,-0.01,1.0,99.0,-16.0,105.8,0.0,30.0,3197.0,,,305.0,,,,,0.0,0.0,,,,,,,2.0,,,-5.0,,,,,,,,,48.0,208.4,820.0,820.0,16.1,2.4,,2.4,32.6,,,14.6,0.0,0.0,49.2,7.3,5.7,,,,,275.0,753.8,285.8,825.8,278.6,869.0,278.6,910.4,,,11.0,1.9,,32.6,35.0,4.993,,,0.653,0.73,48.0,207.86,,,,,,820.0,279.5,2.6417769376181477,0.04852777777777778,4.048,420.8,True,2026-03-18 23:39:18 - Flight 2,2.4,0.0
97.06,1,10,2026-03-18 23:40:52,36.88887,-121.40333,255.0,0.1,329.7,-12.5,,,,,0.0,11.3,-0.7,114.0,0.0,132.0,-0.0,-0.02,1.0,99.0,-35.0,105.8,0.0,30.0,3197.0,,,305.0,,,,,0.0,0.0,,,,,,,3.0,,,-6.0,,,,,3.0,0.0,0.0,1200.0,47.0,208.4,807.0,807.0,17.0,2.5,,2.5,32.8,,,14.6,0.0,0.0,50.7,7.3,5.7,,,,,275.0,759.2,285.8,838.4,278.6,854.6,280.4,883.4,,,11.0,2.0,,32.8,35.0,4.993,,,0.658,0.731,47.4,207.68,,,,,,807.0,279.95,2.646030245746692,0.04920833333333333,4.132333333333333,420.8,True,2026-03-18 23:39:18 - Flight 2,2.5,0.04
98.06,1,10,2026-03-18 23:40:53,36.88887,-121.40333,255.0,0.1,329.7,-12.5,,,,,0.0,11.3,-0.7,114.0,0.0,132.0,-0.1,-0.01,1.0,99.0,2.0,105.8,0.0,30.0,3197.0,,,305.0,,,,,0.0,0.0,,,,,,,3.0,,,-6.0,,,,,1.0,1.0,0.0,1200.0,48.0,208.4,820.0,820.0,16.2,2.4,,2.4,31.5,,,14.6,0.0,0.0,53.8,7.3,5.7,,,,,275.0,773.6,285.8,849.2,278.6,861.8,280.4,887.0,,,11.0,2.0,,31.5,35.0,4.993,,,0.656,0.73,48.3,207.86,,,,,,820.0,279.95,2.646030245746692,0.04988888888888889,4.301,420.8,True,2026-03-18 23:39:18 - Flight 2,2.4,0.04166666666666667
99.06,1,10,2026-03-18 23:40:54,36.88887,-121.40333,256.0,0.1,329.7,-12.5,,,,,0.0,11.3,-0.6,114.0,0.0,132.0,-0.0,-0.0,1.0,99.0,2.0,105.8,0.0,30.0,3197.0,,,305.0,,,,,0.0,0.0,,,,,,,3.0,,,-7.0,,,,,1.0,1.0,0.0,1200.0,50.0,208.4,920.0,920.0,16.1,2.4,,2.4,28.8,,,14.6,0.0,0.0,55.5,7.3,5.7,,,,,276.8,777.2,287.6,863.6,278.6,865.4,280.4,901.4,,,11.0,2.0,,28.8,35.0,4.993,,,0.654,0.729,49.8,208.57999999999998,,,,,,920.0,280.85,2.654536862003781,0.050555555555555555,4.469666666666667,420.8,True,2026-03-18 23:39:18 - Flight 2,2.4,0.04166666666666667
100.06,1,10,2026-03-18 23:40:55,36.88887,-121.40333,256.0,0.1,329.7,-12.5,,,,,0.0,11.3,-0.5,114.0,0.0,132.0,-0.1,-0.01,1.0,99.0,-30.0,105.8,0.0,30.0,3193.0,,,305.0,,,,,0.0,0.0,,,,,,,4.0,,,-7.0,,,,,,,,,49.0,208.4,852.0,852.0,15.2,2.5,,2.5,26.5,,,14.6,0.0,0.0,57.5,7.3,5.7,,,,,276.8,806.0,287.6,874.4,278.6,856.4,280.4,923.0,,,11.0,2.1,,26.5,35.0,4.993,,,0.654,0.728,48.6,208.04,,,,,,852.0,280.85,2.654536862003781,0.051236111111111114,4.638333333333333,420.8,True,2026-03-18 23:39:18 - Flight 2,2.5,0.04
101.06,1,10,2026-03-18 23:40:56,36.88887,-121.40333,256.0,0.0,329.7,-12.5,,,,,0.0,11.4,-0.6,113.9,0.0,132.0,-0.1,-0.01,1.0,99.0,-12.0,105.8,0.0,30.0,3193.0,,,305.0,,,,,0.0,0.0,,,,,,,4.0,,,-8.0,,,,,,,,,45.0,206.6,603.0,603.0,17.2,2.5,,2.5,24.4,,,14.6,0.0,0.0,54.6,7.3,5.7,,,,,276.8,802.4,287.6,872.6,278.6,834.8,280.4,923.0,,,11.0,2.1,,24.4,35.0,4.993,,,0.654,0.729,44.5,206.23999999999998,,,,,,603.0,280.85,2.654536862003781,0.051930555555555556,4.722666666666666,420.8,True,2026-03-18 23:39:18 - Flight 2,2.5,0.0
102.06,1,10,2026-03-18 23:40:57,36.88887,-121.40333,257.0,0.1,329.7,-12.5,,,,,0.0,11.3,-0.6,113.9,0.0,132.0,-0.1,-0.0,1.0,99.0,-56.0,105.8,0.0,30.0,3193.0,,,305.0,,,,,0.0,0.0,,,,,,,0.0,,,-5.0,,,,,,,,,49.0,208.4,873.0,873.0,17.4,2.5,,2.5,23.3,,,14.6,0.0,0.0,53.2,7.3,5.7,,,,,276.8,779.0,287.6,851.0,280.4,845.6,282.2,926.6,,,11.0,2.1,,23.3,35.0,4.993,,,0.657,0.741,49.1,208.22,,,,,,873.0,281.75,2.6630434782608696,0.052625,4.8069999999999995,420.8,True,2026-03-18 23:39:18 - Flight 2,2.5,0.04
103.06,1,10,2026-03-18 23:40:58,36.88887,-121.40333,257.0,0.1,329.7,-12.5,,,,,0.0,11.3,-0.6,113.8,0.0,132.0,-0.1,-0.01,1.0,99.0,-22.0,105.8,0.0,30.0,3197.0,,,305.0,,,,,0.0,0.0,,,,,,,-7.0,,,18.0,,,,,,,,,50.0,208.4,895.0,895.0,15.5,2.5,,2.5,23.0,,,14.6,0.0,0.0,56.4,7.3,5.7,,,,,276.8,775.4,287.6,861.8,280.4,865.4,282.2,926.6,,,11.0,2.1,,23.0,35.0,4.993,,,0.654,0.729,49.6,208.4,,,,,,895.0,281.75,2.6630434782608696,0.05331944444444445,4.975666666666666,420.8,True,2026-03-18 23:39:18 - Flight 2,2.5,0.04
104.06,1,10,2026-03-18 23:40:59,36.88887,-121.40333,257.0,0.1,329.7,-12.5,,,,,0.0,11.4,-0.6,113.9,0.0,132.0,-0.1,-0.01,1.0,99.0,-8.0,105.8,0.0,30.0,3193.0,,,305.0,,,,,0.0,0.0,,,,,,,-7.0,,,18.0,,,,,,,,,51.0,208.4,1004.0,1004.0,18.4,2.6,,2.6,22.8,,,14.6,0.0,0.0,58.2,7.3,5.7,,,,,278.6,798.8,289.4,851.0,280.4,872.6,282.2,919.4,,,11.0,2.1,,22.8,35.0,4.993,,,0.657,0.73,51.0,208.94,,,,,,1004.0,282.65,2.671550094517958,0.05402777777777778,5.144333333333333,420.8,True,2026-03-18 23:39:18 - Flight 2,2.6,0.038461538461538464
105.06,1,10,2026-03-18 23:41:00,36.88887,-121.40333,258.0,0.0,329.7,-12.5,,,,,0.0,11.4,-0.6,113.9,0.0,132.0,-0.0,-0.01,1.0,99.0,38.0,104.0,0.0,30.0,3193.0,,,305.0,,,,,0.0,0.0,,,,,,,-7.0,,,18.0,,,,,,,,,53.0,208.4,1046.0,1046.0,16.4,2.6,,2.6,23.1,,,14.6,0.0,0.0,63.9,7.3,5.7,,,,,278.6,822.2,289.4,869.0,280.4,894.2,284.0,948.2,,,11.0,2.1,,23.1,35.0,4.993,,,0.656,0.731,53.2,209.12,,,,,,1046.0,283.1,2.722115384615385,0.05475,5.228666666666666,420.8,True,2026-03-18 23:39:18 - Flight 2,2.6,0.0
106.06,1,10,2026-03-18 23:41:01,36.88887,-121.40333,258.0,0.1,329.7,-12.5,,,,,0.0,11.4,-0.6,113.8,0.0,132.0,-0.1,-0.0,1.0,99.0,36.0,104.0,0.0,30.0,3193.0,,,305.0,,,,,0.0,0.0,,,,,,,-7.0,,,18.0,,,,,,,,,57.0,210.2,1177.0,1177.0,15.7,2.6,,2.6,23.2,,,14.6,0.0,0.0,68.0,7.3,5.7,,,,,278.6,842.0,289.4,897.8,282.2,914.0,284.0,962.6,,,11.0,2.1,,23.2,35.0,4.993,,,0.656,0.735,56.8,209.66000000000003,,,,,,1177.0,283.55,2.7264423076923077,0.05547222222222222,5.313,420.8,True,2026-03-18 23:39:18 - Flight 2,2.6,0.038461538461538464
107.06,1,10,2026-03-18 23:41:02,36.88887,-121.40333,258.0,0.0,329.7,-12.5,,,,,0.0,11.4,-0.7,113.9,0.0,132.0,-0.0,-0.01,0.9,99.0,22.0,104.0,0.0,30.0,3187.0,,,305.0,,,,,0.0,0.0,,,,,,,-7.0,,,18.0,,,,,,,,,56.0,210.2,1198.0,1198.0,15.5,2.7,,2.7,23.3,,,14.6,0.0,0.0,70.5,7.3,5.7,,,,,278.6,861.8,289.4,908.6,282.2,937.4,284.0,989.6,,,11.0,2.1,,23.3,35.0,4.993,,,0.656,0.731,56.5,209.66000000000003,,,,,,1198.0,283.55,2.7264423076923077,0.05620833333333333,5.397333333333333,420.8,True,2026-03-18 23:39:18 - Flight 2,2.7,0.0
108.06,1,10,2026-03-18 23:41:03,36.88887,-121.40333,258.0,0.1,329.7,-12.5,,,,,0.0,11.4,-0.6,113.8,0.0,132.0,-0.1,-0.01,0.9,99.0,43.0,104.0,0.0,30.0,3187.0,,,305.0,,,,,0.0,0.0,,,,,,,-5.0,,,18.0,,,,,,,,,55.0,210.2,1069.0,1069.0,15.2,2.6,,2.6,23.4,,,14.6,0.0,0.0,71.8,7.3,5.7,,,,,280.4,899.6,291.2,919.4,282.2,962.6,285.8,991.4,,,11.0,2.1,,23.4,35.0,4.993,,,0.656,0.737,54.8,209.3,,,,,,1069.0,284.9,2.7394230769230767,0.05694444444444444,5.4816666666666665,420.8,True,2026-03-18 23:39:18 - Flight 2,2.6,0.038461538461538464
109.06,1,10,2026-03-18 23:41:04,36.88887,-121.40332,259.0,0.1,329.7,-12.5,,,,,0.0,11.3,-0.5,113.8,0.0,132.0,-0.1,-0.01,1.0,99.0,36.0,104.0,0.0,30.0,3187.0,,,305.0,,,,,0.0,0.0,,,,,,,-5.0,,,18.0,,,,,,,,,55.0,210.2,1118.0,1118.0,15.8,2.6,,2.6,23.4,,,14.6,0.0,0.0,71.9,7.3,5.7,,,,,280.4,915.8,291.2,937.4,282.2,966.2,285.8,986.0,,,11.0,2.1,,23.4,35.0,4.993,,,0.656,0.732,54.7,209.3,,,,,,1118.0,284.9,2.7394230769230767,0.05766666666666667,5.650333333333333,420.8,True,2026-03-18 23:39:18 - Flight 2,2.6,0.038461538461538464
110.06,1,10,2026-03-18 23:41:05,36.88887,-121.40332,259.0,0.1,329.7,-12.5,,,,,0.0,11.3,-0.6,113.9,0.0,132.0,-0.1,-0.0,0.9,99.0,36.0,104.0,0.0,30.0,3184.0,,,305.0,,,,,0.0,0.0,,,,,,,-5.0,,,18.0,,,,,,,,,55.0,210.2,1130.0,1130.0,16.6,2.6,,2.6,23.5,,,14.6,0.0,0.0,71.2,7.3,5.7,,,,,280.4,917.6,291.2,930.2,284.0,959.0,285.8,978.8,,,11.0,2.1,,23.5,35.0,4.993,,,0.656,0.74,54.8,209.48,,,,,,1130.0,285.35,2.7437500000000004,0.05838888888888889,5.819,420.8,True,2026-03-18 23:39:18 - Flight 2,2.6,0.038461538461538464
111.06,1,10,2026-03-18 23:41:06,36.88887,-121.40332,259.0,0.1,329.7,-12.5,,,,,0.0,11.3,-0.7,113.9,0.0,132.0,-0.0,-0.01,1.0,99.0,67.0,104.0,0.0,30.0,3184.0,,,305.0,,,,,0.0,0.0,,,,,,,-5.0,,,18.0,,,,,,,,,56.0,210.2,1173.0,1173.0,16.1,2.6,,2.6,23.7,,,14.6,0.0,0.0,71.7,7.3,5.7,,,,,282.2,932.0,293.0,948.2,284.0,973.4,285.8,980.6,,,11.0,2.1,,23.7,35.0,4.993,,,0.656,0.734,56.1,209.48,,,,,,1173.0,286.25,2.7524038461538463,0.059111111111111114,5.987666666666667,420.8,True,2026-03-18 23:39:18 - Flight 2,2.6,0.038461538461538464
112.06,1,10,2026-03-18 23:41:07,36.88887,-121.40332,259.0,0.1,329.7,-12.5,,,,,0.0,11.4,-0.7,113.9,0.0,132.0,-0.0,-0.01,0.9,99.0,52.0,104.0,0.0,30.0,3184.0,,,305.0,,,,,0.0,0.0,,,,,,,-5.0,,,18.0,,,,,,,,,55.0,210.2,1159.0,1159.0,15.9,2.7,,2.7,23.9,,,14.6,0.0,0.0,71.8,7.3,5.7,,,,,282.2,933.8,293.0,957.2,284.0,982.4,287.6,996.8,,,11.0,3.1,,23.9,35.0,4.993,,,0.656,0.729,54.9,209.48,,,,,,1159.0,286.7,2.756730769230769,0.059847222222222225,6.156333333333333,420.8,True,2026-03-18 23:39:18 - Flight 2,2.7,0.037037037037037035
113.06,1,10,2026-03-18 23:41:08,36.88887,-121.40332,259.0,0.1,329.7,-12.5,,,,,0.0,11.4,-0.7,113.9,0.0,132.0,-0.0,-0.01,1.0,99.0,38.0,104.0,0.0,30.0,3184.0,,,305.0,,,,,0.0,0.0,,,,,,,-5.0,,,18.0,,,,,,,,,56.0,210.2,1132.0,1132.0,15.9,2.7,,2.7,23.8,,,14.6,0.0,0.0,71.9,7.3,5.7,,,,,282.2,951.8,293.0,975.2,284.0,973.4,287.6,1014.8,,,11.0,3.1,,23.8,35.0,4.993,,,0.657,0.731,55.7,209.48,,,,,,1132.0,286.7,2.756730769230769,0.060597222222222226,6.324999999999999,420.8,True,2026-03-18 23:39:18 - Flight 2,2.7,0.037037037037037035
114.06,1,10,2026-03-18 23:41:09,36.88888,-121.40332,260.0,0.1,329.7,-12.5,,,,,0.0,11.3,-0.6,113.8,0.0,133.0,-0.1,-0.01,1.0,99.0,68.0,104.0,0.0,30.0,3184.0,,,305.0,,,,,0.0,0.0,,,,,,,-5.0,,,18.0,,,,,,,,,57.0,208.4,1202.0,1202.0,15.1,2.8,,2.8,23.9,,,14.6,0.0,0.0,72.0,7.3,5.7,,,,,284.0,966.2,293.0,1000.4,285.8,978.8,287.6,1038.2,,,11.0,3.1,,23.9,35.0,4.993,,,0.656,0.736,57.3,209.12,,,,,,1202.0,287.6,2.7653846153846158,0.061361111111111116,6.493666666666666,420.8,True,2026-03-18 23:39:18 - Flight 2,2.8,0.03571428571428572
115.06,1,10,2026-03-18 23:41:10,36.88888,-121.40332,260.0,0.1,329.7,-12.5,,,,,0.0,11.3,-0.7,113.9,0.0,134.0,-0.1,-0.01,1.0,99.0,26.0,104.0,0.0,30.0,3184.0,,,305.0,,,,,0.0,0.0,,,,,,,-5.0,,,18.0,,,,,,,,,56.0,208.4,1177.0,1177.0,15.1,3.0,,3.0,24.1,,,14.6,0.0,0.0,68.4,7.3,5.7,,,,,284.0,987.8,293.0,1023.8,285.8,1002.2,287.6,1050.8,,,11.0,3.1,,24.1,35.0,4.993,,,0.654,0.73,56.2,208.4,,,,,,1177.0,287.6,2.7653846153846158,0.06216666666666667,6.662333333333333,420.8,True,2026-03-18 23:39:18 - Flight 2,3.0,0.03333333333333333
116.06,1,10,2026-03-18 23:41:11,36.88888,-121.40332,260.0,0.0,329.7,-12.5,,,,,0.0,11.3,-0.8,114.0,0.0,134.0,-0.0,-0.01,1.0,99.0,28.0,104.0,0.0,30.0,3186.0,,,305.0,,,,,0.0,0.0,,,,,,,-5.0,,,18.0,,,,,,,,,58.0,208.4,1263.0,1263.0,14.6,3.1,,3.1,24.4,,,14.6,0.0,0.0,63.2,7.3,5.7,,,,,284.0,1002.2,294.8,1036.4,285.8,1022.0,289.4,1063.4,,,11.0,2.9,,24.4,35.0,4.993,,,0.654,0.73,58.5,207.68,,,,,,1263.0,288.5,2.7740384615384617,0.0630138888888889,6.746666666666666,420.8,True,2026-03-18 23:39:18 - Flight 2,3.1,0.0
117.06,1,10,2026-03-18 23:41:12,36.88888,-121.40333,260.0,0.0,329.7,-12.5,,,,,0.0,11.3,-0.6,113.9,0.0,134.0,-0.0,-0.02,0.9,99.0,-7.0,104.0,0.0,30.0,3186.0,,,305.0,,,,,0.0,0.0,,,,,,,-5.0,,,18.0,,,,,,,,,56.0,206.6,1157.0,1157.0,14.3,3.1,,3.1,24.5,,,14.6,0.0,0.0,58.2,7.3,5.7,,,,,284.0,1014.8,294.8,1050.8,285.8,1038.2,289.4,1081.4,,,11.0,2.5,,24.5,35.0,4.993,,,0.653,0.731,55.9,207.14,,,,,,1157.0,288.5,2.7740384615384617,0.063875,6.746666666666666,420.8,True,2026-03-18 23:39:18 - Flight 2,3.1,0.0
118.06,2,10,2026-03-18 23:41:13,36.88888,-121.40333,255.0,0.2,329.7,-12.5,,,,,0.0,11.4,-0.6,114.2,0.0,134.0,0.0,-0.0,1.0,99.0,30.0,104.0,0.0,30.0,3186.0,,,305.0,,,,,0.0,0.0,,,,,,,-5.0,,,18.0,,,,,,,,,56.0,206.6,1181.0,1181.0,14.8,3.2,,3.2,24.7,,,14.6,0.0,0.0,53.2,7.3,5.7,,,,,284.0,1009.4,294.8,1058.0,287.6,1031.0,291.2,1094.0,,,11.0,2.2,,24.7,35.0,4.993,,,0.654,0.729,56.2,206.78,,,,,,1181.0,289.4,2.7826923076923076,0.06475,6.915333333333333,420.8,True,2026-03-18 23:39:18 - Flight 2,3.2,0.0625
