Session Time,GPS Fix Quality,Number of Satellites,GPS Date & Time,Latitude (deg),Longitude (deg),GPS Altitude (feet),Ground Speed (knots),Ground Track (deg),Mag Var (deg),Cross Track Error (NM),Destination Waypoint ID,Range to Destination (NM),Bearing to Destination (deg),System Time,Pitch (deg),Roll (deg),Magnetic Heading (deg),Indicated Airspeed (knots),Pressure Altitude (ft),Turn Rate (deg/s),Lateral Accel (g),Vertical Accel(g),Angle of Attack (%),Vertical Speed (ft/min),OAT (deg C),True Airspeed (knots),Barometer Setting (inHg),Density Altitude (ft),Wind Direction (deg),Wind Speed (knots),Heading Bug (deg),Altitude Bug (ft),Airspeed Bug (knots),Vertical Speed Bug (ft/min),Course (deg),CDI Source Type,CDI Source Port,CDI Scale (NM),CDI Deflection (%),Glideslope (%),AP Engaged,AP Roll Mode,AP Roll Force,AP Roll Position (steps),AP Roll Slip (bool),AP Pitch Force,AP Pitch Position (steps),AP Pitch Slip (bool),AP Yaw Force,AP Yaw Position,AP Yaw Slip (bool),Transponder Status,Transponder Reply (bool),Transponder Identing (bool),Transponder Code (octal),Oil Pressure (PSI),Oil Temp (deg C),RPM L,RPM R,Manifold Pressure (inHg),Fuel Flow 1 (gal/hr),Fuel Flow 2 (gal/hr),Total Fuel Flow (gal/hr),Fuel Pressure (PSI),Fuel Level L (gal),Fuel Level R (gal),Fuel Remaining (gal),Volts 1,Volts 2,Amps,Hobbs Time,Tach Time,Thermocouple 1 (deg C),Thermocouple 2 (deg C),Thermocouple 3 (deg C),Thermocouple 4 (deg C),CHT 4 (deg C),EGT 4 (deg C),CHT 3 (deg C),EGT 3 (deg C),CHT 2 (deg C),EGT 2 (deg C),CHT 1 (deg C),EGT 1 (deg C),Thermocouple 13 (deg C),Thermocouple 14 (deg C),ELEV POSITION (%),CO PPM PRESSURE (PSI),GP Input 3,FUEL PRESSURE (PSI),AILERN POSITION (%),CANOPY CONTACT (V),GP Input 7,GP Input 8,LEFT LEVEL (Sensor V),RIGHT LEVEL (Sensor V),OIL PRESSURE (PSI),OIL TEMPERATURE (deg C),GP Input 13,Contacts,Percent Power,EGT Leaning State,Unnamed: 103,OAT (deg F),Oil Temp (deg F),Thermocouple 1 (deg F),Thermocouple 2 (deg F),Thermocouple 3 (deg F),Thermocouple 4 (deg F),CHT 4 (deg F),EGT 4 (deg F),CHT 3 (deg F),EGT 3 (deg F),CHT 2 (deg F),EGT 2 (deg F),CHT 1 (deg F),EGT 1 (deg F),Thermocouple 13 (deg F),Thermocouple 14 (deg F),OIL TEMPERATURE (deg F),RPM,AVG_CHT,CHT_Delta_T,OIL_Delta_T,Fuel Flow Integral,Distance Traveled,MPG,Max CHT,Engine Run,Flight ID
0.06,1,6,2026-04-24 22:47:53,37.08164,-121.59959,323,0.1,114.7,-12.7,0.0,,0.0,0.0,0.0,0.0,0.0,0.0,0.0,0.0,0.0,0.0,0.0,0.0,0.0,25,0.0,0.0,0.0,0.0,0.0,144,0.0,100.0,-500.0,0.0,0,0,0.0,0.0,0.0,0.0,0.0,0.0,0.0,0.0,0.0,0.0,0.0,0.0,0.0,0.0,0.0,0.0,0.0,0.0,0.0,0.0,0.0,0.0,0.0,0.0,0.0,0.0,0.0,0.0,0.0,23.0,0.0,0.0,0.0,12.7,10.5,0.0,0.0,0.0,0.0,0.0,0.0,0.0,0.0,0.0,0.0,0.0,0.0,0.0,0.0,0.0,0.0,0.0,0.0,0.0,0.0,0.0,0.0,0.0,0.0,0.0,0.0,0.0,0.0,0.0,,0.0,77.0,0.0,0.0,0.0,0.0,0.0,0.0,0.0,0.0,0.0,0.0,0.0,0.0,0.0,0.0,0.0,0.0,0.0,0.0,0.0,0.0,0.0,0.0,0.0,388.4,True,2026-04-24 22:47:53
1.06,1,6,2026-04-24 22:47:54,37.08163,-121.59959,323,0.1,114.7,-12.6,0.0,,0.0,0.0,0.0,10.9,-1.1,42.9,0.0,344.0,0.0,-0.02,1.0,0.0,-142.0,25,0.0,30.02,1661.0,0.0,0.0,144,0.0,100.0,-500.0,0.0,0,0,0.0,0.0,0.0,0.0,0.0,0.0,0.0,0.0,0.0,0.0,0.0,0.0,0.0,0.0,0.0,0.0,0.0,0.0,0.0,0.0,0.0,0.0,0.0,0.0,0.0,0.0,0.0,0.0,0.0,23.0,0.0,0.0,-0.7,12.7,10.5,0.0,0.0,0.0,0.0,23.0,23.0,23.0,23.0,23.0,23.0,23.0,23.0,0.0,0.0,19.0,254.4,0.0,0.5,3.0,0.0,0.0,0.0,0.929,0.84,0.0,0.0,0.0,0.0,0.0,,0.0,77.0,0.0,0.0,0.0,0.0,0.0,73.4,73.4,73.4,73.4,73.4,73.4,73.4,73.4,0.0,0.0,0.0,0.0,73.4,-3.5999999999999943,0.0,0.0,0.16866666666666666,0.0,388.4,True,2026-04-24 22:47:53
2.06,1,6,2026-04-24 22:47:55,37.08163,-121.59958,324,0.0,114.7,-12.6,0.0,,0.0,0.0,0.0,10.9,-1.1,43.0,0.0,342.0,0.0,-0.02,1.0,0.0,-121.0,25,0.0,30.02,1661.0,0.0,0.0,144,0.0,100.0,-500.0,0.0,0,0,0.0,0.0,0.0,0.0,0.0,0.0,0.0,0.0,0.0,0.0,0.0,0.0,0.0,0.0,0.0,0.0,0.0,0.0,0.0,0.0,0.0,0.0,0.0,0.0,0.0,0.0,0.0,0.0,0.0,23.0,0.0,0.0,-0.7,12.7,10.5,0.0,0.0,0.0,0.0,23.0,23.0,23.0,23.0,23.0,23.0,23.0,23.0,0.0,0.0,19.0,254.4,0.0,0.5,3.0,0.0,0.0,0.0,0.929,0.846,0.0,22.2,0.0,0.0,0.0,,0.0,77.0,0.0,0.0,0.0,0.0,0.0,73.4,73.4,73.4,73.4,73.4,73.4,73.4,73.4,0.0,0.0,71.96,0.0,73.4,-3.5999999999999943,-5.040000000000006,0.0,0.253,0.0,388.4,True,2026-04-24 22:47:53
3.06,1,6,2026-04-24 22:47:56,37.08163,-121.59958,324,0.1,114.7,-12.6,0.0,,0.0,0.0,0.0,10.9,-1.2,43.0,0.0,340.0,0.0,-0.02,1.0,0.0,-138.0,25,0.0,30.02,1661.0,0.0,0.0,144,0.0,100.0,-500.0,0.0,0,0,0.0,0.0,0.0,0.0,0.0,0.0,0.0,0.0,0.0,0.0,0.0,0.0,0.0,0.0,0.0,0.0,0.0,0.0,0.0,0.0,0.0,0.0,0.0,0.0,0.0,0.0,0.0,0.0,0.0,23.0,0.0,0.0,-0.7,12.7,10.5,0.0,0.0,0.0,0.0,23.0,23.0,23.0,23.0,23.0,23.0,23.0,23.0,0.0,0.0,19.0,254.4,0.0,0.5,3.0,0.0,0.0,0.0,0.929,0.844,0.0,22.2,0.0,0.0,0.0,,0.0,77.0,0.0,0.0,0.0,0.0,0.0,73.4,73.4,73.4,73.4,73.4,73.4,73.4,73.4,0.0,0.0,71.96,0.0,73.4,-3.5999999999999943,-5.040000000000006,0.0,0.3373333333333333,0.0,388.4,True,2026-04-24 22:47:53
4.06,1,6,2026-04-24 22:47:57,37.08162,-121.59958,324,0.1,114.7,-12.6,0.0,,0.0,0.0,0.0,10.9,-1.1,43.0,0.0,338.0,0.0,-0.02,1.0,0.0,-122.0,25,0.0,30.02,1654.0,0.0,0.0,144,0.0,100.0,-500.0,0.0,0,0,0.0,0.0,0.0,0.0,0.0,0.0,0.0,0.0,0.0,0.0,0.0,0.0,0.0,0.0,0.0,0.0,0.0,0.0,0.0,0.0,0.0,0.0,0.0,0.0,0.0,0.0,0.0,0.0,0.0,23.0,0.0,0.0,-0.7,12.7,10.5,0.0,0.0,0.0,0.0,23.0,23.0,23.0,23.0,23.0,23.0,23.0,23.0,0.0,0.0,19.0,254.4,0.0,0.5,3.0,0.0,0.0,0.0,0.929,0.841,0.0,22.1,0.0,0.0,0.0,,0.0,77.0,0.0,0.0,0.0,0.0,0.0,73.4,73.4,73.4,73.4,73.4,73.4,73.4,73.4,0.0,0.0,71.78,0.0,73.4,-3.5999999999999943,-5.219999999999999,0.0,0.5059999999999999,0.0,388.4,True,2026-04-24 22:47:53
5.06,1,6,2026-04-24 22:47:58,37.08162,-121.59958,324,0.0,114.7,-12.6,0.0,,0.0,0.0,0.0,10.9,-1.2,43.0,0.0,335.0,0.1,-0.02,1.0,99.0,-133.0,25,0.0,30.02,1654.0,0.0,0.0,144,0.0,0.0,0.0,0.0,0,0,0.0,0.0,0.0,0.0,0.0,0.0,0.0,0.0,0.0,0.0,0.0,0.0,0.0,0.0,0.0,0.0,0.0,0.0,0.0,22.0,0.0,0.0,30.0,0.0,0.0,0.0,0.5,0.0,0.0,23.0,0.0,0.0,-0.7,12.7,10.5,0.0,0.0,0.0,0.0,23.0,23.0,23.0,23.0,23.0,23.0,23.0,23.0,0.0,0.0,18.0,254.4,0.0,0.5,3.0,0.0,0.0,0.0,0.929,0.839,0.0,22.1,0.0,0.0,0.0,,0.0,77.0,71.6,0.0,0.0,0.0,0.0,73.4,73.4,73.4,73.4,73.4,73.4,73.4,73.4,0.0,0.0,71.78,0.0,73.4,-3.5999999999999943,-5.219999999999999,0.0,0.5903333333333333,0.0,388.4,True,2026-04-24 22:47:53
6.06,1,6,2026-04-24 22:47:59,37.08162,-121.59958,323,0.1,114.7,-12.6,0.0,,0.0,0.0,0.0,10.9,-1.2,43.0,0.0,333.0,0.1,-0.02,1.0,99.0,-132.0,25,0.0,30.02,1654.0,0.0,0.0,144,0.0,0.0,0.0,0.0,0,0,0.0,0.0,0.0,0.0,0.0,0.0,0.0,0.0,0.0,0.0,0.0,0.0,0.0,0.0,0.0,0.0,0.0,0.0,0.0,22.0,0.0,0.0,30.0,0.0,0.0,0.0,0.5,0.0,0.0,23.0,0.0,0.0,-0.7,12.7,10.5,0.0,0.0,0.0,0.0,23.0,23.0,23.0,24.0,23.0,23.0,23.0,24.0,0.0,0.0,18.0,254.4,0.0,0.5,3.0,0.0,0.0,0.0,0.929,0.854,0.0,22.0,0.0,0.0,0.0,,0.0,77.0,71.6,0.0,0.0,0.0,0.0,73.4,73.4,73.4,75.2,73.4,73.4,73.4,75.2,0.0,0.0,71.6,0.0,73.4,-3.5999999999999943,-5.400000000000006,0.0,0.6746666666666665,0.0,388.4,True,2026-04-24 22:47:53
7.06,1,6,2026-04-24 22:48:00,37.08162,-121.59958,323,0.1,114.7,-12.6,0.0,,0.0,0.0,0.0,10.9,-1.2,43.0,0.0,333.0,0.1,-0.02,1.0,99.0,-90.0,25,0.0,30.02,1646.0,0.0,0.0,144,0.0,0.0,0.0,0.0,0,0,0.0,0.0,0.0,0.0,0.0,0.0,0.0,0.0,0.0,0.0,0.0,0.0,0.0,0.0,0.0,0.0,0.0,0.0,0.0,22.0,0.0,0.0,30.0,0.0,0.0,0.0,0.5,0.0,0.0,23.0,0.0,0.0,-0.7,12.7,10.5,0.0,0.0,0.0,0.0,23.0,23.0,23.0,24.0,23.0,23.0,23.0,24.0,0.0,0.0,18.0,254.4,0.0,0.5,3.0,0.0,0.0,0.0,0.929,0.84,0.0,22.0,0.0,0.0,0.0,,0.0,77.0,71.6,0.0,0.0,0.0,0.0,73.4,73.4,73.4,75.2,73.4,73.4,73.4,75.2,0.0,0.0,71.6,0.0,73.4,-3.5999999999999943,-5.400000000000006,0.0,0.8433333333333333,0.0,388.4,True,2026-04-24 22:47:53
8.06,1,8,2026-04-24 22:48:01,37.0816,-121.59956,327,0.0,114.7,-12.6,0.0,,0.0,0.0,0.0,10.9,-1.2,43.0,0.0,332.0,0.1,-0.02,1.0,99.0,-69.0,25,0.0,30.02,1646.0,0.0,0.0,144,0.0,0.0,0.0,0.0,0,0,0.0,0.0,0.0,0.0,0.0,0.0,0.0,0.0,0.0,0.0,0.0,0.0,0.0,0.0,0.0,0.0,0.0,0.0,0.0,22.0,0.0,0.0,30.0,0.0,0.0,0.0,0.5,0.0,0.0,23.0,0.0,0.0,-0.7,12.7,10.5,0.0,0.0,0.0,0.0,23.0,23.0,23.0,24.0,23.0,23.0,23.0,24.0,0.0,0.0,18.0,254.4,0.0,0.5,3.0,0.0,0.0,0.0,0.929,0.835,0.0,22.0,0.0,0.0,0.0,,0.0,77.0,71.6,0.0,0.0,0.0,0.0,73.4,73.4,73.4,75.2,73.4,73.4,73.4,75.2,0.0,0.0,71.6,0.0,73.4,-3.5999999999999943,-5.400000000000006,0.0,0.9276666666666666,0.0,388.4,True,2026-04-24 22:47:53
9.06,1,9,2026-04-24 22:48:02,37.08164,-121.59958,308,0.0,114.7,-12.6,0.0,,0.0,0.0,0.0,10.9,-1.2,42.9,0.0,331.0,0.0,-0.02,1.0,99.0,-28.0,25,0.0,30.02,1646.0,0.0,0.0,144,0.0,0.0,0.0,0.0,0,0,0.0,0.0,0.0,0.0,0.0,0.0,0.0,0.0,0.0,0.0,0.0,0.0,0.0,0.0,0.0,0.0,0.0,0.0,0.0,22.0,0.0,0.0,30.0,0.0,0.0,0.0,0.5,0.0,0.0,23.0,0.0,0.0,-0.7,12.7,10.5,0.0,0.0,0.0,0.0,23.0,23.0,23.0,24.0,23.0,23.0,23.0,24.0,0.0,0.0,19.0,254.4,0.0,0.5,3.0,0.0,0.0,0.0,0.93,0.836,0.0,22.0,0.0,0.0,0.0,,0.0,77.0,71.6,0.0,0.0,0.0,0.0,73.4,73.4,73.4,75.2,73.4,73.4,73.4,75.2,0.0,0.0,71.6,0.0,73.4,-3.5999999999999943,-5.400000000000006,0.0,0.9276666666666666,0.0,388.4,True,2026-04-24 22:47:53
10.06,1,9,2026-04-24 22:48:03,37.08164,-121.59958,308,0.0,114.7,-12.6,0.0,,0.0,0.0,0.0,10.9,-1.2,43.0,0.0,331.0,0.1,-0.03,1.0,99.0,-9.0,25,0.0,30.02,1654.0,0.0,0.0,144,0.0,0.0,0.0,0.0,0,0,0.0,0.0,0.0,0.0,0.0,0.0,0.0,0.0,0.0,0.0,0.0,0.0,0.0,0.0,0.0,0.0,0.0,0.0,0.0,22.0,0.0,0.0,30.0,0.0,0.0,0.0,0.5,0.0,0.0,23.0,0.0,0.0,-0.7,12.7,10.5,0.0,0.0,0.0,0.0,23.0,23.0,23.0,24.0,23.0,23.0,23.0,24.0,0.0,0.0,20.0,254.4,0.0,0.5,3.0,0.0,0.0,0.0,0.929,0.834,0.0,22.0,0.0,0.0,0.0,,0.0,77.0,71.6,0.0,0.0,0.0,0.0,73.4,73.4,73.4,75.2,73.4,73.4,73.4,75.2,0.0,0.0,71.6,0.0,73.4,-3.5999999999999943,-5.400000000000006,0.0,0.9276666666666666,0.0,388.4,True,2026-04-24 22:47:53
11.06,1,9,2026-04-24 22:48:04,37.08164,-121.59958,307,0.0,114.7,-12.6,0.0,,0.0,0.0,0.0,10.9,-1.2,42.9,0.0,331.0,0.0,-0.02,1.0,99.0,-15.0,25,0.0,30.02,1654.0,0.0,0.0,144,0.0,0.0,0.0,0.0,0,0,0.0,0.0,0.0,0.0,0.0,0.0,0.0,0.0,0.0,0.0,0.0,0.0,0.0,0.0,0.0,0.0,0.0,0.0,0.0,22.0,0.0,0.0,30.0,0.0,0.0,0.0,0.5,0.0,0.0,23.0,0.0,0.0,-0.6,12.7,10.5,0.0,0.0,0.0,0.0,23.0,23.0,23.0,24.0,23.0,23.0,23.0,24.0,0.0,0.0,20.0,254.4,0.0,0.5,3.0,0.0,0.0,0.0,0.929,0.835,0.0,22.0,0.0,0.0,0.0,,0.0,77.0,71.6,0.0,0.0,0.0,0.0,73.4,73.4,73.4,75.2,73.4,73.4,73.4,75.2,0.0,0.0,71.6,0.0,73.4,-3.5999999999999943,-5.400000000000006,0.0,0.9276666666666666,0.0,388.4,True,2026-04-24 22:47:53
12.06,1,9,2026-04-24 22:48:05,37.08164,-121.59958,307,0.0,114.7,-12.6,0.0,,0.0,0.0,0.0,10.9,-1.2,42.9,0.0,331.0,0.0,-0.02,1.0,99.0,-53.0,25,0.0,30.02,1654.0,0.0,0.0,144,0.0,0.0,0.0,0.0,0,0,0.0,0.0,0.0,0.0,0.0,0.0,0.0,0.0,0.0,0.0,0.0,0.0,0.0,0.0,0.0,0.0,0.0,0.0,0.0,22.0,0.0,0.0,30.0,0.0,0.0,0.0,0.5,0.0,0.0,23.0,0.0,0.0,-0.6,12.7,10.5,0.0,0.0,0.0,0.0,23.0,23.0,23.0,24.0,23.0,23.0,23.0,24.0,0.0,0.0,21.0,254.4,0.0,0.5,3.0,0.0,0.0,0.0,0.929,0.835,0.0,21.9,0.0,0.0,0.0,,0.0,77.0,71.6,0.0,0.0,0.0,0.0,73.4,73.4,73.4,75.2,73.4,73.4,73.4,75.2,0.0,0.0,71.42,0.0,73.4,-3.5999999999999943,-5.579999999999998,0.0,0.9276666666666666,0.0,388.4,True,2026-04-24 22:47:53
13.06,1,9,2026-04-24 22:48:06,37.08164,-121.59958,307,0.0,114.7,-12.6,0.0,,0.0,0.0,0.0,10.9,-1.3,42.9,0.0,330.0,0.0,-0.02,1.0,99.0,-78.0,25,0.0,30.02,1652.0,0.0,0.0,144,0.0,0.0,0.0,0.0,0,0,0.0,0.0,0.0,0.0,0.0,0.0,0.0,0.0,0.0,0.0,0.0,0.0,0.0,0.0,0.0,0.0,0.0,0.0,0.0,22.0,0.0,0.0,30.0,0.0,0.0,0.0,0.5,0.0,0.0,23.0,0.0,0.0,-0.6,12.7,10.5,0.0,0.0,0.0,0.0,23.0,23.0,23.0,24.0,23.0,23.0,23.0,24.0,0.0,0.0,21.0,254.4,0.0,0.5,3.0,0.0,0.0,0.0,0.929,0.836,0.0,21.9,0.0,0.0,0.0,,0.0,77.0,71.6,0.0,0.0,0.0,0.0,73.4,73.4,73.4,75.2,73.4,73.4,73.4,75.2,0.0,0.0,71.42,0.0,73.4,-3.5999999999999943,-5.579999999999998,0.0,0.9276666666666666,0.0,388.4,True,2026-04-24 22:47:53
14.06,1,9,2026-04-24 22:48:07,37.08164,-121.59958,306,0.1,114.7,-12.6,0.0,,0.0,0.0,0.0,10.9,-1.2,42.9,0.0,327.0,0.0,-0.02,1.0,99.0,-109.0,25,0.0,30.02,1652.0,0.0,0.0,144,0.0,0.0,0.0,0.0,0,0,0.0,0.0,0.0,0.0,0.0,0.0,0.0,0.0,0.0,0.0,0.0,0.0,0.0,0.0,0.0,0.0,0.0,0.0,0.0,22.0,0.0,0.0,30.0,0.0,0.0,0.0,0.5,0.0,0.0,23.0,0.0,0.0,-0.6,12.7,10.5,0.0,0.0,0.0,0.0,23.0,23.0,23.0,24.0,23.0,23.0,23.0,24.0,0.0,0.0,22.0,254.4,0.0,0.5,3.0,0.0,0.0,0.0,0.929,0.839,0.0,21.9,0.0,0.0,0.0,,0.0,77.0,71.6,0.0,0.0,0.0,0.0,73.4,73.4,73.4,75.2,73.4,73.4,73.4,75.2,0.0,0.0,71.42,0.0,73.4,-3.5999999999999943,-5.579999999999998,0.0,1.012,0.0,388.4,True,2026-04-24 22:47:53
15.06,1,9,2026-04-24 22:48:08,37.08164,-121.59958,306,0.0,114.7,-12.6,0.0,,0.0,0.0,0.0,10.9,-1.2,42.9,0.0,326.0,0.0,-0.02,1.0,99.0,-105.0,25,0.0,30.02,1652.0,0.0,0.0,144,0.0,0.0,0.0,0.0,0,0,0.0,0.0,0.0,0.0,0.0,0.0,0.0,0.0,0.0,0.0,0.0,0.0,0.0,0.0,0.0,0.0,0.0,0.0,0.0,22.0,0.0,0.0,30.0,0.0,0.0,0.0,0.5,0.0,0.0,23.0,0.0,0.0,-0.6,12.7,10.5,0.0,0.0,0.0,0.0,23.0,23.0,23.0,24.0,23.0,23.0,23.0,24.0,0.0,0.0,22.0,254.4,0.0,0.5,3.0,0.0,0.0,0.0,0.93,0.839,0.0,21.9,0.0,0.0,0.0,,0.0,77.0,71.6,0.0,0.0,0.0,0.0,73.4,73.4,73.4,75.2,73.4,73.4,73.4,75.2,0.0,0.0,71.42,0.0,73.4,-3.5999999999999943,-5.579999999999998,0.0,1.0963333333333334,0.0,388.4,True,2026-04-24 22:47:53
16.06,1,9,2026-04-24 22:48:09,37.08164,-121.59958,306,0.0,114.7,-12.6,0.0,,0.0,0.0,0.0,10.9,-1.2,42.9,0.0,326.0,0.0,-0.02,1.0,99.0,-55.0,25,0.0,30.02,1647.0,0.0,0.0,144,0.0,0.0,0.0,0.0,0,0,0.0,0.0,0.0,0.0,0.0,0.0,0.0,0.0,0.0,0.0,0.0,0.0,0.0,0.0,0.0,0.0,0.0,0.0,0.0,22.0,0.0,0.0,30.0,0.0,0.0,0.0,0.5,0.0,0.0,23.0,0.0,0.0,-0.6,12.7,10.5,0.0,0.0,0.0,0.0,23.0,23.0,23.0,24.0,23.0,23.0,23.0,24.0,0.0,0.0,22.0,254.4,0.0,0.5,3.0,0.0,0.0,0.0,0.93,0.839,0.0,21.9,0.0,0.0,0.0,,0.0,77.0,71.6,0.0,0.0,0.0,0.0,73.4,73.4,73.4,75.2,73.4,73.4,73.4,75.2,0.0,0.0,71.42,0.0,73.4,-3.5999999999999943,-5.579999999999998,0.0,1.0963333333333334,0.0,388.4,True,2026-04-24 22:47:53
17.06,1,9,2026-04-24 22:48:10,37.08164,-121.59958,306,0.0,114.7,-12.6,0.0,,0.0,0.0,0.0,10.9,-1.2,42.9,0.0,326.0,0.0,-0.02,1.0,99.0,-43.0,25,0.0,30.02,1647.0,0.0,0.0,144,0.0,0.0,0.0,0.0,0,0,0.0,0.0,0.0,0.0,0.0,0.0,0.0,0.0,0.0,0.0,0.0,0.0,0.0,0.0,0.0,0.0,0.0,0.0,0.0,22.0,0.0,0.0,30.0,0.0,0.0,0.0,0.5,0.0,0.0,23.0,0.0,0.0,-0.5,12.7,10.5,0.0,0.0,0.0,0.0,23.0,23.0,23.0,24.0,23.0,23.0,23.0,24.0,0.0,0.0,22.0,254.4,0.0,0.5,3.0,0.0,0.0,0.0,0.929,0.836,0.0,21.9,0.0,0.0,0.0,,0.0,77.0,71.6,0.0,0.0,0.0,0.0,73.4,73.4,73.4,75.2,73.4,73.4,73.4,75.2,0.0,0.0,71.42,0.0,73.4,-3.5999999999999943,-5.579999999999998,0.0,1.0963333333333334,0.0,388.4,True,2026-04-24 22:47:53
18.06,1,9,2026-04-24 22:48:11,37.08164,-121.59958,306,0.0,114.7,-12.6,0.0,,0.0,0.0,0.0,10.9,-1.2,42.9,0.0,326.0,0.1,-0.02,1.0,99.0,-12.0,25,0.0,30.02,1647.0,0.0,0.0,144,0.0,0.0,0.0,0.0,0,0,0.0,0.0,0.0,0.0,0.0,0.0,0.0,0.0,0.0,0.0,0.0,0.0,0.0,0.0,0.0,0.0,0.0,0.0,0.0,22.0,0.0,0.0,30.0,0.0,0.0,0.0,0.5,0.0,0.0,23.0,0.0,0.0,-0.5,12.7,10.5,0.0,0.0,0.0,0.0,23.0,23.0,23.0,24.0,23.0,23.0,23.0,24.0,0.0,0.0,22.0,254.4,0.0,0.5,3.0,0.0,0.0,0.0,0.93,0.834,0.0,21.9,0.0,0.0,0.0,,0.0,77.0,71.6,0.0,0.0,0.0,0.0,73.4,73.4,73.4,75.2,73.4,73.4,73.4,75.2,0.0,0.0,71.42,0.0,73.4,-3.5999999999999943,-5.579999999999998,0.0,1.0963333333333334,0.0,388.4,True,2026-04-24 22:47:53
19.06,1,9,2026-04-24 22:48:12,37.08164,-121.59958,306,0.0,114.7,-12.6,0.0,,0.0,0.0,0.0,10.9,-1.2,42.9,0.0,326.0,0.0,-0.02,1.0,99.0,-25.0,25,0.0,30.02,1647.0,0.0,0.0,144,0.0,0.0,0.0,0.0,0,0,0.0,0.0,0.0,0.0,0.0,0.0,0.0,0.0,0.0,0.0,0.0,0.0,0.0,0.0,0.0,0.0,0.0,0.0,0.0,22.0,0.0,0.0,30.0,0.0,0.0,0.0,0.5,0.0,0.0,23.0,0.0,0.0,-0.5,12.7,10.5,0.0,0.0,0.0,0.0,23.0,23.0,23.0,24.0,23.0,23.0,23.0,24.0,0.0,0.0,22.0,254.4,0.0,0.5,3.0,0.0,0.0,0.0,0.929,0.835,0.0,21.9,0.0,0.0,0.0,,0.0,77.0,71.6,0.0,0.0,0.0,0.0,73.4,73.4,73.4,75.2,73.4,73.4,73.4,75.2,0.0,0.0,71.42,0.0,73.4,-3.5999999999999943,-5.579999999999998,0.0,1.0963333333333334,0.0,388.4,True,2026-04-24 22:47:53
20.06,1,9,2026-04-24 22:48:13,37.08164,-121.59958,306,0.0,114.7,-12.6,0.0,,0.0,0.0,0.0,10.9,-1.3,42.9,0.0,325.0,0.0,-0.02,1.0,99.0,-17.0,25,0.0,30.02,1648.0,0.0,0.0,144,0.0,0.0,0.0,0.0,0,0,0.0,0.0,0.0,0.0,0.0,0.0,0.0,0.0,0.0,0.0,0.0,0.0,0.0,0.0,0.0,0.0,0.0,0.0,0.0,22.0,0.0,0.0,30.0,0.0,0.0,0.0,0.5,0.0,0.0,23.0,0.0,0.0,-0.5,12.7,10.5,0.0,0.0,0.0,0.0,23.0,23.0,23.0,24.0,23.0,23.0,23.0,24.0,0.0,0.0,22.0,254.4,0.0,0.5,3.0,0.0,0.0,0.0,0.929,0.833,0.0,21.9,0.0,0.0,0.0,,0.0,77.0,71.6,0.0,0.0,0.0,0.0,73.4,73.4,73.4,75.2,73.4,73.4,73.4,75.2,0.0,0.0,71.42,0.0,73.4,-3.5999999999999943,-5.579999999999998,0.0,1.0963333333333334,0.0,388.4,True,2026-04-24 22:47:53
21.06,1,9,2026-04-24 22:48:14,37.08164,-121.59958,306,0.0,114.7,-12.6,0.0,,0.0,0.0,0.0,10.9,-1.3,42.9,0.0,325.0,0.0,-0.02,1.0,99.0,-23.0,26,0.0,30.02,1648.0,0.0,0.0,144,0.0,0.0,0.0,0.0,0,0,0.0,0.0,0.0,0.0,0.0,0.0,0.0,0.0,0.0,0.0,0.0,0.0,0.0,0.0,0.0,0.0,0.0,0.0,0.0,22.0,0.0,0.0,30.0,0.0,0.0,0.0,0.5,0.0,0.0,23.0,0.0,0.0,-0.5,12.7,10.5,0.0,0.0,0.0,0.0,23.0,23.0,23.0,24.0,23.0,23.0,23.0,24.0,0.0,0.0,22.0,254.4,0.0,0.5,3.0,0.0,0.0,0.0,0.929,0.83,0.0,21.9,0.0,0.0,0.0,,0.0,78.8,71.6,0.0,0.0,0.0,0.0,73.4,73.4,73.4,75.2,73.4,73.4,73.4,75.2,0.0,0.0,71.42,0.0,73.4,-5.3999999999999915,-7.3799999999999955,0.0,1.0963333333333334,0.0,388.4,True,2026-04-24 22:47:53
22.06,1,9,2026-04-24 22:48:15,37.08164,-121.59958,306,0.0,114.7,-12.6,0.0,,0.0,0.0,0.0,10.9,-1.3,42.9,0.0,325.0,0.0,-0.02,1.0,99.0,-19.0,26,0.0,30.02,1648.0,0.0,0.0,144,0.0,0.0,0.0,0.0,0,0,0.0,0.0,0.0,0.0,0.0,0.0,0.0,0.0,0.0,0.0,0.0,0.0,0.0,0.0,0.0,0.0,0.0,0.0,0.0,22.0,0.0,0.0,30.0,0.0,0.0,0.0,0.5,0.0,0.0,23.0,0.0,0.0,-0.5,12.7,10.5,0.0,0.0,0.0,0.0,23.0,23.0,23.0,24.0,23.0,23.0,23.0,24.0,0.0,0.0,22.0,254.4,0.0,0.5,3.0,0.0,0.0,0.0,0.929,0.83,0.0,21.9,0.0,0.0,0.0,,0.0,78.8,71.6,0.0,0.0,0.0,0.0,73.4,73.4,73.4,75.2,73.4,73.4,73.4,75.2,0.0,0.0,71.42,0.0,73.4,-5.3999999999999915,-7.3799999999999955,0.0,1.0963333333333334,0.0,388.4,True,2026-04-24 22:47:53
23.06,1,9,2026-04-24 22:48:16,37.08164,-121.59958,306,0.0,114.7,-12.6,0.0,,0.0,0.0,0.0,10.9,-1.3,42.9,0.0,325.0,0.0,-0.02,1.0,99.0,-7.0,26,0.0,30.02,1656.0,0.0,0.0,144,0.0,0.0,0.0,0.0,0,0,0.0,0.0,0.0,0.0,0.0,0.0,0.0,0.0,0.0,0.0,0.0,0.0,0.0,0.0,0.0,0.0,0.0,0.0,0.0,22.0,0.0,0.0,30.0,0.0,0.0,0.0,0.5,0.0,0.0,23.0,0.0,0.0,-0.5,12.7,10.5,0.0,0.0,0.0,0.0,23.0,23.0,23.0,24.0,23.0,23.0,23.0,24.0,0.0,0.0,22.0,254.4,0.0,0.5,3.0,0.0,0.0,0.0,0.929,0.831,0.0,21.9,0.0,0.0,0.0,,0.0,78.8,71.6,0.0,0.0,0.0,0.0,73.4,73.4,73.4,75.2,73.4,73.4,73.4,75.2,0.0,0.0,71.42,0.0,73.4,-5.3999999999999915,-7.3799999999999955,0.0,1.0963333333333334,0.0,388.4,True,2026-04-24 22:47:53
24.06,1,9,2026-04-24 22:48:17,37.08164,-121.59958,306,0.0,114.7,-12.6,0.0,,0.0,0.0,0.0,10.9,-1.2,42.9,0.0,324.0,0.0,-0.02,1.0,99.0,-38.0,26,0.0,30.02,1656.0,0.0,0.0,144,0.0,0.0,0.0,0.0,0,0,0.0,0.0,0.0,0.0,0.0,0.0,0.0,0.0,0.0,0.0,0.0,0.0,0.0,0.0,0.0,0.0,0.0,0.0,0.0,22.0,0.0,0.0,30.0,0.0,0.0,0.0,0.4,0.0,0.0,23.0,0.0,0.0,-0.4,12.7,10.5,0.0,0.0,0.0,0.0,23.0,23.0,23.0,24.0,23.0,23.0,23.0,24.0,0.0,0.0,22.0,254.4,0.0,0.4,3.0,0.0,0.0,0.0,0.929,0.831,0.0,21.9,0.0,0.0,0.0,,0.0,78.8,71.6,0.0,0.0,0.0,0.0,73.4,73.4,73.4,75.2,73.4,73.4,73.4,75.2,0.0,0.0,71.42,0.0,73.4,-5.3999999999999915,-7.3799999999999955,0.0,1.0963333333333334,0.0,388.4,True,2026-04-24 22:47:53
25.06,1,9,2026-04-24 22:48:18,37.08164,-121.59958,306,0.0,114.7,-12.6,0.0,,0.0,0.0,0.0,10.9,-1.2,42.8,0.0,323.0,0.0,-0.02,1.0,99.0,-49.0,26,0.0,30.02,1656.0,0.0,0.0,144,0.0,0.0,0.0,0.0,0,0,0.0,0.0,0.0,0.0,0.0,0.0,0.0,0.0,0.0,0.0,0.0,0.0,0.0,0.0,0.0,0.0,0.0,0.0,0.0,22.0,0.0,0.0,30.0,0.0,0.0,0.0,0.4,0.0,0.0,23.0,0.0,0.0,-0.4,12.7,10.5,0.0,0.0,0.0,0.0,23.0,23.0,23.0,24.0,23.0,23.0,23.0,24.0,0.0,0.0,22.0,254.4,0.0,0.4,3.0,0.0,0.0,0.0,0.929,0.831,0.0,21.9,0.0,0.0,0.0,,0.0,78.8,71.6,0.0,0.0,0.0,0.0,73.4,73.4,73.4,75.2,73.4,73.4,73.4,75.2,0.0,0.0,71.42,0.0,73.4,-5.3999999999999915,-7.3799999999999955,0.0,1.0963333333333334,0.0,388.4,True,2026-04-24 22:47:53
26.06,1,9,2026-04-24 22:48:19,37.08164,-121.59958,307,0.0,114.7,-12.6,0.0,,0.0,0.0,0.0,10.9,-1.3,42.8,0.0,322.0,0.0,-0.02,1.0,99.0,-55.0,26,0.0,30.02,1654.0,0.0,0.0,144,0.0,0.0,0.0,0.0,0,0,0.0,0.0,0.0,0.0,0.0,0.0,0.0,0.0,0.0,0.0,0.0,0.0,0.0,0.0,0.0,0.0,0.0,0.0,0.0,22.0,0.0,0.0,30.0,0.0,0.0,0.0,0.1,0.0,0.0,23.0,0.0,0.0,-0.4,12.7,10.5,0.0,0.0,0.0,0.0,23.0,23.0,23.0,24.0,23.0,23.0,23.0,24.0,0.0,0.0,22.0,254.4,0.0,0.1,3.0,0.0,0.0,0.0,0.929,0.83,0.0,21.9,0.0,0.0,0.0,,0.0,78.8,71.6,0.0,0.0,0.0,0.0,73.4,73.4,73.4,75.2,73.4,73.4,73.4,75.2,0.0,0.0,71.42,0.0,73.4,-5.3999999999999915,-7.3799999999999955,0.0,1.0963333333333334,0.0,388.4,True,2026-04-24 22:47:53
27.06,1,9,2026-04-24 22:48:20,37.08164,-121.59958,307,0.0,114.7,-12.6,0.0,,0.0,0.0,0.0,10.9,-1.3,42.8,0.0,322.0,0.0,-0.02,1.0,99.0,-55.0,26,0.0,30.02,1654.0,0.0,0.0,144,0.0,0.0,0.0,0.0,0,0,0.0,0.0,0.0,0.0,0.0,0.0,0.0,0.0,0.0,0.0,0.0,0.0,0.0,0.0,0.0,0.0,0.0,0.0,0.0,22.0,0.0,0.0,30.0,0.0,0.0,0.0,0.0,0.0,0.0,23.0,0.0,0.0,-0.4,12.7,10.5,0.0,0.0,0.0,0.0,23.0,23.0,23.0,24.0,23.0,23.0,23.0,24.0,0.0,0.0,22.0,254.4,0.0,0.0,3.0,0.001,0.0,0.0,0.929,0.831,0.0,21.9,0.0,0.0,0.0,,0.0,78.8,71.6,0.0,0.0,0.0,0.0,73.4,73.4,73.4,75.2,73.4,73.4,73.4,75.2,0.0,0.0,71.42,0.0,73.4,-5.3999999999999915,-7.3799999999999955,0.0,1.0963333333333334,0.0,388.4,True,2026-04-24 22:47:53
28.06,1,9,2026-04-24 22:48:21,37.08164,-121.59958,307,0.1,114.7,-12.6,0.0,,0.0,0.0,0.0,10.9,-1.3,42.8,0.0,320.0,0.0,-0.02,1.0,99.0,-68.0,26,0.0,30.02,1654.0,0.0,0.0,144,0.0,0.0,0.0,0.0,0,0,0.0,0.0,0.0,0.0,0.0,0.0,0.0,0.0,0.0,0.0,0.0,0.0,0.0,0.0,0.0,0.0,0.0,0.0,0.0,22.0,0.0,0.0,30.0,0.0,0.0,0.0,32.3,0.0,0.0,23.0,0.0,0.0,-0.4,12.7,10.5,0.0,0.0,0.0,0.0,23.0,23.0,23.0,24.0,23.0,23.0,23.0,24.0,0.0,0.0,23.0,254.4,0.0,32.3,3.0,0.001,0.0,0.0,0.929,0.831,0.0,21.9,0.0,0.0,0.0,,0.0,78.8,71.6,0.0,0.0,0.0,0.0,73.4,73.4,73.4,75.2,73.4,73.4,73.4,75.2,0.0,0.0,71.42,0.0,73.4,-5.3999999999999915,-7.3799999999999955,0.0,1.1806666666666665,0.0,388.4,True,2026-04-24 22:47:53
29.06,1,9,2026-04-24 22:48:22,37.08164,-121.59958,307,0.0,114.7,-12.6,0.0,,0.0,0.0,0.0,10.9,-1.3,42.8,0.0,317.0,0.0,-0.02,1.0,99.0,-101.0,26,0.0,30.02,1649.0,0.0,0.0,144,0.0,0.0,0.0,0.0,0,0,0.0,0.0,0.0,0.0,0.0,0.0,0.0,0.0,0.0,0.0,0.0,0.0,0.0,0.0,0.0,0.0,0.0,0.0,0.0,22.0,0.0,0.0,30.0,0.0,0.0,0.0,33.7,0.0,0.0,23.0,0.0,0.0,-0.4,12.7,10.5,0.0,0.0,0.0,0.0,23.0,23.0,23.0,24.0,23.0,23.0,23.0,24.0,0.0,0.0,23.0,254.4,0.0,33.7,3.0,0.001,0.0,0.0,0.929,0.83,0.0,21.9,0.0,0.0,0.0,,0.0,78.8,71.6,0.0,0.0,0.0,0.0,73.4,73.4,73.4,75.2,73.4,73.4,73.4,75.2,0.0,0.0,71.42,0.0,73.4,-5.3999999999999915,-7.3799999999999955,0.0,1.265,0.0,388.4,True,2026-04-24 22:47:53
30.06,1,9,2026-04-24 22:48:23,37.08164,-121.59958,307,0.1,114.7,-12.6,0.0,,0.0,0.0,0.0,10.9,-1.3,42.8,0.0,315.0,0.0,-0.02,1.0,99.0,-121.0,26,0.0,30.02,1649.0,0.0,0.0,144,0.0,0.0,0.0,0.0,0,0,0.0,0.0,0.0,0.0,0.0,0.0,0.0,0.0,0.0,0.0,0.0,0.0,0.0,0.0,0.0,0.0,0.0,0.0,0.0,22.0,0.0,0.0,30.0,0.0,0.0,0.0,33.1,0.0,0.0,23.0,0.0,0.0,-0.4,12.7,10.5,0.0,0.0,0.0,0.0,23.0,24.0,23.0,24.0,23.0,24.0,23.0,24.0,0.0,0.0,23.0,254.4,0.0,33.1,3.0,0.001,0.0,0.0,0.929,0.83,0.0,21.9,0.0,0.0,0.0,,0.0,78.8,71.6,0.0,0.0,0.0,0.0,73.4,75.2,73.4,75.2,73.4,75.2,73.4,75.2,0.0,0.0,71.42,0.0,73.4,-5.3999999999999915,-7.3799999999999955,0.0,1.3493333333333333,0.0,388.4,True,2026-04-24 22:47:53
31.06,1,9,2026-04-24 22:48:24,37.08164,-121.59958,308,0.0,114.7,-12.6,0.0,,0.0,0.0,0.0,10.9,-1.3,42.8,0.0,312.0,0.0,-0.02,1.0,99.0,-138.0,26,0.0,30.02,1649.0,0.0,0.0,144,0.0,0.0,0.0,0.0,0,0,0.0,0.0,0.0,0.0,0.0,0.0,0.0,0.0,0.0,0.0,0.0,0.0,0.0,0.0,0.0,0.0,0.0,0.0,0.0,22.0,0.0,0.0,30.0,0.0,0.0,0.0,31.9,0.0,0.0,23.0,0.0,0.0,-0.4,12.7,10.5,0.0,0.0,0.0,0.0,23.0,24.0,23.0,24.0,23.0,24.0,23.0,24.0,0.0,0.0,23.0,254.3,0.0,31.9,3.0,0.001,0.0,0.0,0.929,0.83,0.0,21.9,0.0,0.0,0.0,,0.0,78.8,71.6,0.0,0.0,0.0,0.0,73.4,75.2,73.4,75.2,73.4,75.2,73.4,75.2,0.0,0.0,71.42,0.0,73.4,-5.3999999999999915,-7.3799999999999955,0.0,1.4336666666666666,0.0,388.4,True,2026-04-24 22:47:53
32.06,1,9,2026-04-24 22:48:25,37.08164,-121.59958,308,0.0,114.7,-12.6,0.0,,0.0,0.0,0.0,10.9,-1.3,42.8,0.0,311.0,0.0,-0.02,1.0,99.0,-129.0,26,0.0,30.02,1650.0,0.0,0.0,144,0.0,0.0,0.0,0.0,0,0,0.0,0.0,0.0,0.0,0.0,0.0,0.0,0.0,0.0,0.0,0.0,0.0,0.0,0.0,0.0,0.0,0.0,0.0,0.0,22.0,0.0,0.0,30.0,1.1,0.0,1.1,31.8,0.0,0.0,23.0,0.0,0.0,-0.4,12.7,10.5,0.0,0.0,0.0,0.0,23.0,23.0,23.0,24.0,23.0,23.0,23.0,24.0,0.0,0.0,23.0,254.3,0.0,31.8,3.0,0.001,0.0,0.0,0.929,0.83,0.0,21.9,0.0,0.0,0.0,,0.0,78.8,71.6,0.0,0.0,0.0,0.0,73.4,73.4,73.4,75.2,73.4,73.4,73.4,75.2,0.0,0.0,71.42,0.0,73.4,-5.3999999999999915,-7.3799999999999955,0.00015277777777777834,1.4336666666666666,0.0,388.4,True,2026-04-24 22:47:53
33.06,1,9,2026-04-24 22:48:26,37.08164,-121.59958,308,0.0,114.7,-12.6,0.0,,0.0,0.0,0.0,10.9,-1.3,42.9,0.0,309.0,0.0,-0.02,1.0,99.0,-111.0,26,0.0,30.02,1650.0,0.0,0.0,144,0.0,0.0,0.0,0.0,0,0,0.0,0.0,0.0,0.0,0.0,0.0,0.0,0.0,0.0,0.0,0.0,0.0,0.0,0.0,0.0,0.0,0.0,0.0,0.0,22.0,0.0,0.0,30.0,1.9,0.0,1.9,31.6,0.0,0.0,23.0,0.0,0.0,-0.4,12.7,10.5,0.0,0.0,0.0,0.0,23.0,23.0,23.0,24.0,23.0,23.0,23.0,24.0,0.0,0.0,23.0,254.3,0.0,31.6,3.0,0.001,0.0,0.0,0.929,0.83,0.0,21.9,0.0,0.0,0.0,,0.0,78.8,71.6,0.0,0.0,0.0,0.0,73.4,73.4,73.4,75.2,73.4,73.4,73.4,75.2,0.0,0.0,71.42,0.0,73.4,-5.3999999999999915,-7.3799999999999955,0.000569444444444445,1.4336666666666666,0.0,388.4,True,2026-04-24 22:47:53
34.06,1,9,2026-04-24 22:48:27,37.08164,-121.59958,308,0.0,114.7,-12.6,0.0,,0.0,0.0,0.0,10.9,-1.3,42.9,0.0,308.0,0.0,-0.02,1.0,99.0,-100.0,26,0.0,30.02,1650.0,0.0,0.0,144,0.0,0.0,0.0,0.0,0,0,0.0,0.0,0.0,0.0,0.0,0.0,0.0,0.0,0.0,0.0,0.0,0.0,0.0,0.0,0.0,0.0,0.0,0.0,0.0,22.0,0.0,0.0,30.0,2.5,0.0,2.5,31.6,0.0,0.0,23.0,0.0,0.0,-0.4,12.7,10.5,0.0,0.0,0.0,0.0,23.0,23.0,23.0,24.0,23.0,23.0,23.0,24.0,0.0,0.0,23.0,254.3,0.0,31.6,3.0,0.001,0.0,0.0,0.929,0.83,0.0,21.9,0.0,0.0,0.0,,0.0,78.8,71.6,0.0,0.0,0.0,0.0,73.4,73.4,73.4,75.2,73.4,73.4,73.4,75.2,0.0,0.0,71.42,0.0,73.4,-5.3999999999999915,-7.3799999999999955,0.0011805555555555562,1.4336666666666666,0.0,388.4,True,2026-04-24 22:47:53
35.06,1,9,2026-04-24 22:48:28,37.08164,-121.59958,308,0.0,114.7,-12.6,0.0,,0.0,0.0,0.0,10.9,-1.3,42.9,0.0,307.0,0.0,-0.02,1.0,99.0,-97.0,26,0.0,30.02,1644.0,0.0,0.0,144,0.0,0.0,0.0,0.0,0,0,0.0,0.0,0.0,0.0,0.0,0.0,0.0,0.0,0.0,0.0,0.0,0.0,0.0,0.0,0.0,0.0,0.0,0.0,0.0,22.0,0.0,0.0,30.0,3.0,0.0,3.0,31.6,0.0,0.0,23.0,0.0,0.0,-0.4,12.7,10.5,0.0,0.0,0.0,0.0,23.0,24.0,23.0,24.0,23.0,24.0,23.0,24.0,0.0,0.0,23.0,254.3,0.0,31.6,3.0,0.001,0.0,0.0,0.929,0.83,0.0,21.9,0.0,0.0,0.0,,0.0,78.8,71.6,0.0,0.0,0.0,0.0,73.4,75.2,73.4,75.2,73.4,75.2,73.4,75.2,0.0,0.0,71.42,0.0,73.4,-5.3999999999999915,-7.3799999999999955,0.001944444444444445,1.4336666666666666,0.0,388.4,True,2026-04-24 22:47:53
36.06,1,9,2026-04-24 22:48:29,37.08164,-121.59958,309,0.0,114.7,-12.6,0.0,,0.0,0.0,0.0,10.9,-1.3,42.9,0.0,306.0,0.0,-0.02,1.0,99.0,-78.0,26,0.0,30.02,1644.0,0.0,0.0,144,0.0,0.0,0.0,0.0,0,0,0.0,0.0,0.0,0.0,0.0,0.0,0.0,0.0,0.0,0.0,0.0,0.0,0.0,0.0,0.0,0.0,0.0,0.0,0.0,22.0,0.0,0.0,30.0,3.4,0.0,3.4,31.6,0.0,0.0,23.0,0.0,0.0,-0.4,12.7,10.5,0.0,0.0,0.0,0.0,23.0,23.0,23.0,24.0,23.0,23.0,23.0,24.0,0.0,0.0,23.0,254.3,0.0,31.6,3.0,0.001,0.0,0.0,0.929,0.83,0.0,21.9,0.0,0.0,0.0,,0.0,78.8,71.6,0.0,0.0,0.0,0.0,73.4,73.4,73.4,75.2,73.4,73.4,73.4,75.2,0.0,0.0,71.42,0.0,73.4,-5.3999999999999915,-7.3799999999999955,0.002833333333333334,1.4336666666666666,0.0,388.4,True,2026-04-24 22:47:53
37.06,1,9,2026-04-24 22:48:30,37.08164,-121.59958,309,0.0,114.7,-12.6,0.0,,0.0,0.0,0.0,10.9,-1.3,42.8,0.0,304.0,0.0,-0.02,1.0,99.0,-92.0,26,0.0,30.02,1644.0,0.0,0.0,144,0.0,0.0,0.0,0.0,0,0,0.0,0.0,0.0,0.0,0.0,0.0,0.0,0.0,0.0,0.0,0.0,0.0,0.0,0.0,0.0,0.0,0.0,0.0,0.0,22.0,0.0,0.0,30.0,3.1,0.0,3.1,33.7,0.0,0.0,23.0,0.0,0.0,-0.4,12.7,10.5,0.0,0.0,0.0,0.0,23.0,23.0,23.0,24.0,23.0,23.0,23.0,24.0,0.0,0.0,23.0,254.3,0.0,33.7,3.0,0.001,0.0,0.0,0.929,0.83,0.0,21.9,0.0,0.0,0.0,,0.0,78.8,71.6,0.0,0.0,0.0,0.0,73.4,73.4,73.4,75.2,73.4,73.4,73.4,75.2,0.0,0.0,71.42,0.0,73.4,-5.3999999999999915,-7.3799999999999955,0.003736111111111112,1.4336666666666666,0.0,388.4,True,2026-04-24 22:47:53
38.06,1,9,2026-04-24 22:48:31,37.08164,-121.59958,309,0.0,114.7,-12.6,0.0,,0.0,0.0,0.0,10.9,-1.3,42.8,0.0,303.0,0.0,-0.02,1.0,99.0,-88.0,26,0.0,30.02,1639.0,0.0,0.0,144,0.0,0.0,0.0,0.0,0,0,0.0,0.0,0.0,0.0,0.0,0.0,0.0,0.0,0.0,0.0,0.0,0.0,0.0,0.0,0.0,0.0,0.0,0.0,0.0,22.0,0.0,0.0,30.0,3.1,0.0,3.1,32.8,0.0,0.0,23.0,0.0,0.0,-0.4,12.7,10.5,0.0,0.0,0.0,0.0,23.0,23.0,23.0,24.0,23.0,23.0,23.0,24.0,0.0,0.0,23.0,254.3,0.0,32.8,3.0,0.0,0.0,0.0,0.929,0.83,0.0,21.9,0.0,0.0,0.0,,0.0,78.8,71.6,0.0,0.0,0.0,0.0,73.4,73.4,73.4,75.2,73.4,73.4,73.4,75.2,0.0,0.0,71.42,0.0,73.4,-5.3999999999999915,-7.3799999999999955,0.004597222222222223,1.4336666666666666,0.0,388.4,True,2026-04-24 22:47:53
39.06,1,9,2026-04-24 22:48:32,37.08164,-121.59958,309,0.0,114.7,-12.6,0.0,,0.0,0.0,0.0,10.9,-1.3,42.8,0.0,302.0,0.0,-0.02,1.0,99.0,-42.0,26,0.0,30.02,1640.0,0.0,0.0,144,0.0,0.0,0.0,0.0,0,0,0.0,0.0,0.0,0.0,0.0,0.0,0.0,0.0,0.0,0.0,0.0,0.0,0.0,0.0,0.0,0.0,0.0,0.0,0.0,22.0,0.0,0.0,30.0,3.1,0.0,3.1,32.5,0.0,0.0,23.0,0.0,0.0,-0.5,12.7,10.5,0.0,0.0,0.0,0.0,23.0,23.0,23.0,24.0,23.0,23.0,23.0,24.0,0.0,0.0,23.0,254.3,0.0,32.5,3.0,0.0,0.0,0.0,0.929,0.83,0.0,21.9,0.0,0.0,0.0,,0.0,78.8,71.6,0.0,0.0,0.0,0.0,73.4,73.4,73.4,75.2,73.4,73.4,73.4,75.2,0.0,0.0,71.42,0.0,73.4,-5.3999999999999915,-7.3799999999999955,0.005458333333333334,1.4336666666666666,0.0,388.4,True,2026-04-24 22:47:53
40.06,1,9,2026-04-24 22:48:33,37.08164,-121.59959,309,0.0,114.7,-12.6,0.0,,0.0,0.0,0.0,10.9,-1.3,42.9,0.0,302.0,0.0,-0.02,1.0,99.0,9.0,26,0.0,30.02,1640.0,0.0,0.0,144,0.0,0.0,0.0,0.0,0,0,0.0,0.0,0.0,0.0,0.0,0.0,0.0,0.0,0.0,0.0,0.0,0.0,0.0,0.0,0.0,0.0,0.0,0.0,0.0,22.0,0.0,0.0,30.0,0.0,0.0,0.0,32.3,0.0,0.0,23.0,0.0,0.0,-0.5,12.7,10.5,0.0,0.0,0.0,0.0,23.0,24.0,23.0,24.0,23.0,24.0,23.0,24.0,0.0,0.0,23.0,254.3,0.0,32.3,3.0,0.0,0.0,0.0,0.929,0.83,0.0,21.9,0.0,0.0,0.0,,0.0,78.8,71.6,0.0,0.0,0.0,0.0,73.4,75.2,73.4,75.2,73.4,75.2,73.4,75.2,0.0,0.0,71.42,0.0,73.4,-5.3999999999999915,-7.3799999999999955,0.00588888888888889,1.4336666666666666,0.0,388.4,True,2026-04-24 22:47:53
41.06,1,9,2026-04-24 22:48:34,37.08164,-121.59959,309,0.0,114.7,-12.6,0.0,,0.0,0.0,0.0,10.8,-1.3,42.9,0.0,302.0,0.0,-0.02,1.0,99.0,-1.0,26,0.0,30.02,1640.0,0.0,0.0,144,0.0,0.0,0.0,0.0,0,0,0.0,0.0,0.0,0.0,0.0,0.0,0.0,0.0,0.0,0.0,0.0,0.0,0.0,0.0,0.0,0.0,0.0,0.0,0.0,22.0,0.0,0.0,30.0,0.0,0.0,0.0,32.0,0.0,0.0,23.0,0.0,0.0,-0.5,12.7,10.5,0.0,0.0,0.0,0.0,23.0,24.0,23.0,24.0,23.0,24.0,23.0,24.0,0.0,0.0,23.0,254.3,0.0,32.0,3.0,0.0,0.0,0.0,0.929,0.83,0.0,21.9,0.0,0.0,0.0,,0.0,78.8,71.6,0.0,0.0,0.0,0.0,73.4,75.2,73.4,75.2,73.4,75.2,73.4,75.2,0.0,0.0,71.42,0.0,73.4,-5.3999999999999915,-7.3799999999999955,0.00588888888888889,1.4336666666666666,0.0,388.4,True,2026-04-24 22:47:53
42.06,1,9,2026-04-24 22:48:35,37.08164,-121.59959,309,0.1,114.7,-12.6,0.0,,0.0,0.0,0.0,10.8,-1.3,42.9,0.0,302.0,0.0,-0.02,1.0,99.0,8.0,26,0.0,30.02,1648.0,0.0,0.0,144,0.0,0.0,0.0,0.0,0,0,0.0,0.0,0.0,0.0,0.0,0.0,0.0,0.0,0.0,0.0,0.0,0.0,0.0,0.0,0.0,0.0,0.0,0.0,0.0,22.0,0.0,0.0,30.0,0.0,0.0,0.0,31.9,0.0,0.0,23.0,0.0,0.0,-0.5,12.7,10.5,0.0,0.0,0.0,0.0,23.0,24.0,23.0,24.0,23.0,24.0,23.0,24.0,0.0,0.0,23.0,225.0,0.0,31.9,3.0,0.0,0.0,0.0,0.929,0.83,0.0,21.9,0.0,0.0,0.0,,0.0,78.8,71.6,0.0,0.0,0.0,0.0,73.4,75.2,73.4,75.2,73.4,75.2,73.4,75.2,0.0,0.0,71.42,0.0,73.4,-5.3999999999999915,-7.3799999999999955,0.00588888888888889,1.518,0.0,388.4,True,2026-04-24 22:47:53
43.06,1,9,2026-04-24 22:48:36,37.08164,-121.59959,309,0.0,114.7,-12.6,0.0,,0.0,0.0,0.0,10.8,-1.2,42.9,0.0,302.0,0.0,-0.02,1.0,99.0,-37.0,26,0.0,30.02,1648.0,0.0,0.0,144,0.0,0.0,0.0,0.0,0,0,0.0,0.0,0.0,0.0,0.0,0.0,0.0,0.0,0.0,0.0,0.0,0.0,0.0,0.0,0.0,0.0,0.0,0.0,0.0,22.0,0.0,0.0,30.0,0.0,0.0,0.0,31.7,0.0,0.0,23.0,0.0,0.0,-0.5,12.7,10.5,0.0,0.0,0.0,0.0,23.0,24.0,23.0,24.0,23.0,24.0,23.0,24.0,0.0,0.0,23.0,175.2,0.0,31.7,3.0,0.001,0.0,0.0,0.929,0.83,0.0,21.9,0.0,0.0,0.0,,0.0,78.8,71.6,0.0,0.0,0.0,0.0,73.4,75.2,73.4,75.2,73.4,75.2,73.4,75.2,0.0,0.0,71.42,0.0,73.4,-5.3999999999999915,-7.3799999999999955,0.00588888888888889,1.6023333333333332,0.0,388.4,True,2026-04-24 22:47:53
44.06,1,9,2026-04-24 22:48:37,37.08164,-121.59959,309,0.0,114.7,-12.6,0.0,,0.0,0.0,0.0,10.8,-1.2,43.0,0.0,301.0,0.0,-0.02,1.0,99.0,-62.0,26,0.0,30.02,1648.0,0.0,0.0,144,0.0,0.0,0.0,0.0,0,0,0.0,0.0,0.0,0.0,0.0,0.0,0.0,0.0,0.0,0.0,0.0,0.0,0.0,0.0,0.0,0.0,0.0,0.0,0.0,22.0,0.0,0.0,30.0,0.0,0.0,0.0,31.6,0.0,0.0,23.0,0.0,0.0,-0.5,12.7,10.5,0.0,0.0,0.0,0.0,23.0,24.0,23.0,24.0,23.0,24.0,23.0,24.0,0.0,0.0,23.0,136.4,0.0,31.6,3.0,0.0,0.0,0.0,0.929,0.83,0.0,21.9,0.0,0.0,0.0,,0.0,78.8,71.6,0.0,0.0,0.0,0.0,73.4,75.2,73.4,75.2,73.4,75.2,73.4,75.2,0.0,0.0,71.42,0.0,73.4,-5.3999999999999915,-7.3799999999999955,0.00588888888888889,1.6023333333333332,0.0,388.4,True,2026-04-24 22:47:53
45.06,1,9,2026-04-24 22:48:38,37.08164,-121.59959,309,0.0,114.7,-12.6,0.0,,0.0,0.0,0.0,10.9,-1.3,42.9,0.0,300.0,0.1,-0.02,1.0,99.0,-52.0,26,0.0,30.02,1647.0,0.0,0.0,144,0.0,0.0,0.0,0.0,0,0,0.0,0.0,0.0,0.0,0.0,0.0,0.0,0.0,0.0,0.0,0.0,0.0,0.0,0.0,0.0,0.0,0.0,0.0,0.0,22.0,0.0,0.0,30.0,0.0,0.0,0.0,31.4,0.0,0.0,23.0,0.0,0.0,-0.5,12.7,10.5,0.0,0.0,0.0,0.0,23.0,24.0,23.0,24.0,23.0,24.0,23.0,24.0,0.0,0.0,23.0,106.2,0.0,31.4,3.0,0.0,0.0,0.0,0.929,0.83,0.0,21.9,0.0,0.0,0.0,,0.0,78.8,71.6,0.0,0.0,0.0,0.0,73.4,75.2,73.4,75.2,73.4,75.2,73.4,75.2,0.0,0.0,71.42,0.0,73.4,-5.3999999999999915,-7.3799999999999955,0.00588888888888889,1.6023333333333332,0.0,388.4,True,2026-04-24 22:47:53
46.06,1,9,2026-04-24 22:48:39,37.08164,-121.59959,309,0.0,114.7,-12.6,0.0,,0.0,0.0,0.0,10.9,-1.3,42.9,0.0,300.0,0.0,-0.02,1.0,99.0,-26.0,26,0.0,30.02,1647.0,0.0,0.0,144,0.0,0.0,0.0,0.0,0,0,0.0,0.0,0.0,0.0,0.0,0.0,0.0,0.0,0.0,0.0,0.0,0.0,0.0,0.0,0.0,0.0,0.0,0.0,0.0,22.0,0.0,0.0,30.0,0.0,0.0,0.0,31.2,0.0,0.0,23.0,0.0,0.0,-0.5,12.7,10.5,0.0,0.0,0.0,0.0,23.0,24.0,23.0,24.0,23.0,24.0,23.0,24.0,0.0,0.0,23.0,82.8,0.0,31.2,3.0,0.0,0.0,0.0,0.929,0.83,0.0,21.9,0.0,0.0,0.0,,0.0,78.8,71.6,0.0,0.0,0.0,0.0,73.4,75.2,73.4,75.2,73.4,75.2,73.4,75.2,0.0,0.0,71.42,0.0,73.4,-5.3999999999999915,-7.3799999999999955,0.00588888888888889,1.6023333333333332,0.0,388.4,True,2026-04-24 22:47:53
47.06,1,9,2026-04-24 22:48:40,37.08164,-121.59959,309,0.0,114.7,-12.6,0.0,,0.0,0.0,0.0,10.9,-1.3,42.9,0.0,300.0,0.0,-0.02,1.0,99.0,6.0,26,0.0,30.02,1647.0,0.0,0.0,144,0.0,0.0,0.0,0.0,0,0,0.0,0.0,0.0,0.0,0.0,0.0,0.0,0.0,0.0,0.0,0.0,0.0,0.0,0.0,0.0,0.0,0.0,0.0,0.0,22.0,0.0,0.0,30.0,0.0,0.0,0.0,31.2,0.0,0.0,23.0,0.0,0.0,-0.5,12.7,10.5,0.0,0.0,0.0,0.0,23.0,24.0,23.0,24.0,23.0,24.0,23.0,24.0,0.0,0.0,23.0,64.5,0.0,31.2,3.0,0.0,0.0,0.0,0.929,0.83,0.0,21.9,0.0,0.0,0.0,,0.0,78.8,71.6,0.0,0.0,0.0,0.0,73.4,75.2,73.4,75.2,73.4,75.2,73.4,75.2,0.0,0.0,71.42,0.0,73.4,-5.3999999999999915,-7.3799999999999955,0.00588888888888889,1.6023333333333332,0.0,388.4,True,2026-04-24 22:47:53
48.06,1,9,2026-04-24 22:48:41,37.08164,-121.59959,309,0.1,114.7,-12.6,0.0,,0.0,0.0,0.0,10.9,-1.3,42.8,0.0,300.0,0.1,-0.02,1.0,99.0,22.0,26,0.0,30.02,1646.0,0.0,0.0,144,0.0,0.0,0.0,0.0,0,0,0.0,0.0,0.0,0.0,0.0,0.0,0.0,0.0,0.0,0.0,0.0,0.0,0.0,0.0,0.0,0.0,0.0,0.0,0.0,22.0,0.0,0.0,30.0,0.0,0.0,0.0,31.1,0.0,0.0,23.0,0.0,0.0,-0.5,12.7,10.5,0.0,0.0,0.0,0.0,23.0,24.0,23.0,24.0,23.0,24.0,23.0,24.0,0.0,0.0,23.0,50.4,0.0,31.1,3.0,0.0,0.0,0.0,1.085,0.841,0.0,21.9,0.0,0.0,0.0,,0.0,78.8,71.6,0.0,0.0,0.0,0.0,73.4,75.2,73.4,75.2,73.4,75.2,73.4,75.2,0.0,0.0,71.42,0.0,73.4,-5.3999999999999915,-7.3799999999999955,0.00588888888888889,1.6866666666666665,0.0,388.4,True,2026-04-24 22:47:53
49.06,1,9,2026-04-24 22:48:42,37.08164,-121.59959,309,0.0,114.7,-12.6,0.0,,0.0,0.0,0.0,10.9,-1.3,42.8,0.0,300.0,0.0,-0.02,1.0,99.0,39.0,26,0.0,30.02,1646.0,0.0,0.0,144,0.0,0.0,0.0,0.0,0,0,0.0,0.0,0.0,0.0,0.0,0.0,0.0,0.0,0.0,0.0,0.0,0.0,0.0,0.0,0.0,0.0,0.0,0.0,0.0,22.0,0.0,0.0,30.0,0.0,0.0,0.0,30.9,0.0,0.0,23.0,0.0,0.0,-0.5,12.7,10.5,0.0,0.0,0.0,0.0,23.0,24.0,23.0,24.0,23.0,24.0,23.0,24.0,0.0,0.0,23.0,39.4,0.0,30.9,3.0,0.0,0.0,0.0,1.064,0.874,0.0,21.9,0.0,0.0,0.0,,0.0,78.8,71.6,0.0,0.0,0.0,0.0,73.4,75.2,73.4,75.2,73.4,75.2,73.4,75.2,0.0,0.0,71.42,0.0,73.4,-5.3999999999999915,-7.3799999999999955,0.00588888888888889,1.771,0.0,388.4,True,2026-04-24 22:47:53
50.06,1,9,2026-04-24 22:48:43,37.08164,-121.59959,309,0.0,114.7,-12.6,0.0,,0.0,0.0,0.0,10.9,-1.3,42.8,0.0,300.0,0.0,-0.02,1.0,99.0,35.0,26,0.0,30.02,1647.0,0.0,0.0,144,0.0,0.0,0.0,0.0,0,0,0.0,0.0,0.0,0.0,0.0,0.0,0.0,0.0,0.0,0.0,0.0,0.0,0.0,0.0,0.0,0.0,0.0,0.0,0.0,22.0,0.0,0.0,30.0,0.0,0.0,0.0,30.8,0.0,0.0,23.0,0.0,0.0,-0.5,12.7,10.5,0.0,0.0,0.0,0.0,23.0,24.0,23.0,24.0,23.0,24.0,23.0,24.0,0.0,0.0,23.0,30.8,0.0,30.8,3.0,0.0,0.0,0.0,0.952,0.879,0.0,21.9,0.0,0.0,0.0,,0.0,78.8,71.6,0.0,0.0,0.0,0.0,73.4,75.2,73.4,75.2,73.4,75.2,73.4,75.2,0.0,0.0,71.42,0.0,73.4,-5.3999999999999915,-7.3799999999999955,0.00588888888888889,1.771,0.0,388.4,True,2026-04-24 22:47:53
51.06,1,9,2026-04-24 22:48:44,37.08164,-121.59959,309,0.0,114.7,-12.6,0.0,,0.0,0.0,0.0,11.0,-1.2,42.8,0.0,300.0,0.0,-0.02,1.0,99.0,21.0,26,0.0,30.02,1647.0,0.0,0.0,144,0.0,0.0,0.0,0.0,0,0,0.0,0.0,0.0,0.0,0.0,0.0,0.0,0.0,0.0,0.0,0.0,0.0,0.0,0.0,0.0,0.0,0.0,0.0,0.0,22.0,0.0,0.0,30.0,0.0,0.0,0.0,30.7,0.0,0.0,23.0,0.0,0.0,-0.5,12.7,10.5,0.0,0.0,0.0,0.0,23.0,24.0,23.0,24.0,23.0,24.0,23.0,24.0,0.0,0.0,23.0,24.2,0.0,30.7,3.0,0.0,0.0,0.0,0.929,0.84,0.0,21.9,0.0,0.0,0.0,,0.0,78.8,71.6,0.0,0.0,0.0,0.0,73.4,75.2,73.4,75.2,73.4,75.2,73.4,75.2,0.0,0.0,71.42,0.0,73.4,-5.3999999999999915,-7.3799999999999955,0.00588888888888889,1.771,0.0,388.4,True,2026-04-24 22:47:53
52.06,1,9,2026-04-24 22:48:45,37.08164,-121.59959,309,0.0,114.7,-12.6,0.0,,0.0,0.0,0.0,10.9,-1.3,42.8,0.0,300.0,0.0,-0.02,1.0,99.0,24.0,26,0.0,30.02,1647.0,0.0,0.0,144,0.0,0.0,0.0,0.0,0,0,0.0,0.0,0.0,0.0,0.0,0.0,0.0,0.0,0.0,0.0,0.0,0.0,0.0,0.0,0.0,0.0,0.0,0.0,0.0,22.0,0.0,0.0,30.0,0.0,0.0,0.0,30.6,0.0,0.0,23.0,0.0,0.0,-0.5,12.7,10.5,0.0,0.0,0.0,0.0,23.0,24.0,23.0,24.0,23.0,24.0,23.0,24.0,0.0,0.0,23.0,19.0,0.0,30.6,3.0,0.0,0.0,0.0,0.929,0.834,0.0,21.9,0.0,0.0,0.0,,0.0,78.8,71.6,0.0,0.0,0.0,0.0,73.4,75.2,73.4,75.2,73.4,75.2,73.4,75.2,0.0,0.0,71.42,0.0,73.4,-5.3999999999999915,-7.3799999999999955,0.00588888888888889,1.771,0.0,388.4,True,2026-04-24 22:47:53
53.06,1,9,2026-04-24 22:48:46,37.08164,-121.59959,309,0.0,114.7,-12.6,0.0,,0.0,0.0,0.0,10.9,-1.3,42.8,0.0,300.0,0.0,-0.02,1.0,99.0,18.0,26,0.0,30.02,1657.0,0.0,0.0,144,0.0,0.0,0.0,0.0,0,0,0.0,0.0,0.0,0.0,0.0,0.0,0.0,0.0,0.0,0.0,0.0,0.0,0.0,0.0,0.0,0.0,0.0,0.0,0.0,22.0,0.0,0.0,30.0,0.0,0.0,0.0,30.4,0.0,0.0,23.0,0.0,0.0,-0.4,12.7,10.5,0.0,0.0,0.0,0.0,23.0,24.0,23.0,24.0,23.0,24.0,23.0,24.0,0.0,0.0,23.0,15.0,0.0,30.4,3.0,0.0,0.0,0.0,0.929,0.85,0.0,21.9,0.0,0.0,0.0,,0.0,78.8,71.6,0.0,0.0,0.0,0.0,73.4,75.2,73.4,75.2,73.4,75.2,73.4,75.2,0.0,0.0,71.42,0.0,73.4,-5.3999999999999915,-7.3799999999999955,0.00588888888888889,1.771,0.0,388.4,True,2026-04-24 22:47:53
54.06,1,9,2026-04-24 22:48:47,37.08164,-121.59959,309,0.0,114.7,-12.6,0.0,,0.0,0.0,0.0,11.0,-1.3,42.7,0.0,300.0,0.1,-0.02,1.0,99.0,2.0,26,0.0,30.02,1657.0,0.0,0.0,144,0.0,0.0,0.0,0.0,0,0,0.0,0.0,0.0,0.0,0.0,0.0,0.0,0.0,0.0,0.0,0.0,0.0,0.0,0.0,0.0,0.0,0.0,0.0,0.0,22.0,0.0,0.0,30.0,0.0,0.0,0.0,30.3,0.0,0.0,23.0,0.0,0.0,-0.4,12.7,10.5,0.0,0.0,0.0,0.0,23.0,24.0,23.0,24.0,23.0,24.0,23.0,24.0,0.0,0.0,23.0,11.9,0.0,30.3,3.0,0.0,0.0,0.0,0.929,0.846,0.0,21.9,0.0,0.0,0.0,,0.0,78.8,71.6,0.0,0.0,0.0,0.0,73.4,75.2,73.4,75.2,73.4,75.2,73.4,75.2,0.0,0.0,71.42,0.0,73.4,-5.3999999999999915,-7.3799999999999955,0.00588888888888889,1.771,0.0,388.4,True,2026-04-24 22:47:53
55.06,1,9,2026-04-24 22:48:48,37.08164,-121.59959,309,0.0,114.7,-12.6,0.0,,0.0,0.0,0.0,10.9,-1.3,42.7,0.0,300.0,0.0,-0.02,1.0,99.0,-5.0,26,0.0,30.02,1657.0,0.0,0.0,144,0.0,0.0,0.0,0.0,0,0,0.0,0.0,0.0,0.0,0.0,0.0,0.0,0.0,0.0,0.0,0.0,0.0,0.0,0.0,0.0,0.0,0.0,0.0,0.0,22.0,0.0,0.0,30.0,0.0,0.0,0.0,30.2,0.0,0.0,23.0,0.0,0.0,-0.4,12.7,10.5,0.0,0.0,0.0,0.0,23.0,24.0,23.0,24.0,23.0,24.0,23.0,24.0,0.0,0.0,23.0,9.4,0.0,30.2,3.0,0.0,0.0,0.0,0.929,0.861,0.0,21.9,0.0,0.0,0.0,,0.0,78.8,71.6,0.0,0.0,0.0,0.0,73.4,75.2,73.4,75.2,73.4,75.2,73.4,75.2,0.0,0.0,71.42,0.0,73.4,-5.3999999999999915,-7.3799999999999955,0.00588888888888889,1.771,0.0,388.4,True,2026-04-24 22:47:53
56.06,1,9,2026-04-24 22:48:49,37.08164,-121.59959,307,0.0,114.7,-12.6,0.0,,0.0,0.0,0.0,10.9,-1.3,42.7,0.0,300.0,0.0,-0.02,1.0,99.0,-18.0,26,0.0,30.02,1657.0,0.0,0.0,144,0.0,0.0,0.0,0.0,0,0,0.0,0.0,0.0,0.0,0.0,0.0,0.0,0.0,0.0,0.0,0.0,0.0,0.0,0.0,0.0,0.0,0.0,0.0,0.0,22.0,0.0,0.0,30.0,0.0,0.0,0.0,30.1,0.0,0.0,23.0,0.0,0.0,-0.4,12.7,10.5,0.0,0.0,0.0,0.0,23.0,24.0,23.0,24.0,23.0,24.0,23.0,24.0,0.0,0.0,23.0,7.5,0.0,30.1,3.0,0.0,0.0,0.0,0.929,0.852,0.0,21.9,0.0,0.0,0.0,,0.0,78.8,71.6,0.0,0.0,0.0,0.0,73.4,75.2,73.4,75.2,73.4,75.2,73.4,75.2,0.0,0.0,71.42,0.0,73.4,-5.3999999999999915,-7.3799999999999955,0.00588888888888889,1.771,0.0,388.4,True,2026-04-24 22:47:53
57.06,1,9,2026-04-24 22:48:50,37.08164,-121.59959,307,0.1,114.7,-12.6,0.0,,0.0,0.0,0.0,10.9,-1.3,42.7,0.0,300.0,0.0,-0.02,1.0,99.0,-9.0,26,0.0,30.02,1657.0,0.0,0.0,144,0.0,0.0,0.0,0.0,0,0,0.0,0.0,0.0,0.0,0.0,0.0,0.0,0.0,0.0,0.0,0.0,0.0,0.0,0.0,0.0,0.0,0.0,0.0,0.0,22.0,0.0,0.0,30.0,0.0,0.0,0.0,30.0,0.0,0.0,23.0,0.0,0.0,-0.4,12.7,10.5,0.0,0.0,0.0,0.0,23.0,24.0,23.0,24.0,23.0,24.0,23.0,24.0,0.0,0.0,23.0,6.1,0.0,30.0,3.0,0.001,0.0,0.0,0.929,0.84,0.0,21.9,0.0,0.0,0.0,,0.0,78.8,71.6,0.0,0.0,0.0,0.0,73.4,75.2,73.4,75.2,73.4,75.2,73.4,75.2,0.0,0.0,71.42,0.0,73.4,-5.3999999999999915,-7.3799999999999955,0.00588888888888889,1.8553333333333333,0.0,388.4,True,2026-04-24 22:47:53
58.06,1,9,2026-04-24 22:48:51,37.08164,-121.59959,307,0.0,114.7,-12.6,0.0,,0.0,0.0,0.0,10.9,-1.3,42.7,0.0,300.0,0.0,-0.02,1.0,99.0,3.0,26,0.0,30.02,1657.0,0.0,0.0,144,0.0,0.0,0.0,0.0,0,0,0.0,0.0,0.0,0.0,0.0,0.0,0.0,0.0,0.0,0.0,0.0,0.0,0.0,0.0,0.0,0.0,0.0,0.0,0.0,22.0,0.0,0.0,30.0,0.0,0.0,0.0,29.9,0.0,0.0,23.0,0.0,0.0,-0.4,12.7,10.5,0.0,0.0,0.0,0.0,23.0,24.0,23.0,24.0,23.0,24.0,23.0,24.0,0.0,0.0,23.0,4.9,0.0,29.9,3.0,0.0,0.0,0.0,0.929,0.837,0.0,21.9,0.0,0.0,0.0,,0.0,78.8,71.6,0.0,0.0,0.0,0.0,73.4,75.2,73.4,75.2,73.4,75.2,73.4,75.2,0.0,0.0,71.42,0.0,73.4,-5.3999999999999915,-7.3799999999999955,0.00588888888888889,1.9396666666666667,0.0,388.4,True,2026-04-24 22:47:53
59.06,1,9,2026-04-24 22:48:52,37.08164,-121.59959,307,0.0,114.7,-12.6,0.0,,0.0,0.0,0.0,10.9,-1.3,42.7,0.0,300.0,0.0,-0.02,1.0,99.0,2.0,26,0.0,30.02,1657.0,0.0,0.0,144,0.0,0.0,0.0,0.0,0,0,0.0,0.0,0.0,0.0,0.0,0.0,0.0,0.0,0.0,0.0,0.0,0.0,0.0,0.0,0.0,0.0,0.0,0.0,0.0,22.0,0.0,0.0,30.0,0.0,0.0,0.0,29.8,0.0,0.0,23.0,0.0,0.0,-0.4,12.7,10.5,0.0,0.0,0.0,0.0,23.0,24.0,23.0,24.0,23.0,24.0,23.0,24.0,0.0,0.0,23.0,4.1,0.0,29.8,3.0,0.0,0.0,0.0,0.929,0.835,0.0,21.9,0.0,0.0,0.0,,0.0,78.8,71.6,0.0,0.0,0.0,0.0,73.4,75.2,73.4,75.2,73.4,75.2,73.4,75.2,0.0,0.0,71.42,0.0,73.4,-5.3999999999999915,-7.3799999999999955,0.00588888888888889,1.9396666666666667,0.0,388.4,True,2026-04-24 22:47:53
60.06,1,9,2026-04-24 22:48:53,37.08164,-121.59959,307,0.0,114.7,-12.6,0.0,,0.0,0.0,0.0,10.9,-1.3,42.7,0.0,300.0,0.0,-0.02,1.0,99.0,11.0,26,0.0,30.02,1658.0,0.0,0.0,144,0.0,0.0,0.0,0.0,0,0,0.0,0.0,0.0,0.0,0.0,0.0,0.0,0.0,0.0,0.0,0.0,0.0,0.0,0.0,0.0,0.0,0.0,0.0,0.0,22.0,0.0,0.0,30.0,0.0,0.0,0.0,29.7,0.0,0.0,23.0,0.0,0.0,-0.4,12.7,10.5,0.0,0.0,0.0,0.0,23.0,24.0,23.0,24.0,23.0,24.0,23.0,24.0,0.0,0.0,23.0,3.4,0.0,29.7,3.0,0.0,0.0,0.0,0.93,0.834,0.0,21.9,0.0,0.0,0.0,,0.0,78.8,71.6,0.0,0.0,0.0,0.0,73.4,75.2,73.4,75.2,73.4,75.2,73.4,75.2,0.0,0.0,71.42,0.0,73.4,-5.3999999999999915,-7.3799999999999955,0.00588888888888889,1.9396666666666667,0.0,388.4,True,2026-04-24 22:47:53
61.06,1,9,2026-04-24 22:48:54,37.08164,-121.59959,307,0.0,114.7,-12.6,0.0,,0.0,0.0,0.0,10.9,-1.3,42.7,0.0,300.0,0.0,-0.02,1.0,99.0,-6.0,26,0.0,30.02,1658.0,0.0,0.0,144,0.0,0.0,0.0,0.0,0,0,0.0,0.0,0.0,0.0,0.0,0.0,0.0,0.0,0.0,0.0,0.0,0.0,0.0,0.0,0.0,0.0,0.0,0.0,0.0,22.0,0.0,0.0,30.0,0.0,0.0,0.0,29.6,0.0,0.0,23.0,0.0,0.0,-0.4,12.7,10.5,0.0,0.0,0.0,0.0,23.0,24.0,23.0,24.0,23.0,24.0,23.0,24.0,0.0,0.0,23.0,2.8,0.0,29.6,3.0,0.0,0.0,0.0,0.93,0.834,0.0,21.9,0.0,0.0,0.0,,0.0,78.8,71.6,0.0,0.0,0.0,0.0,73.4,75.2,73.4,75.2,73.4,75.2,73.4,75.2,0.0,0.0,71.42,0.0,73.4,-5.3999999999999915,-7.3799999999999955,0.00588888888888889,1.9396666666666667,0.0,388.4,True,2026-04-24 22:47:53
62.06,1,9,2026-04-24 22:48:55,37.08164,-121.59959,307,0.0,114.7,-12.6,0.0,,0.0,0.0,0.0,10.9,-1.3,42.7,0.0,300.0,0.0,-0.02,1.0,99.0,-22.0,26,0.0,30.02,1658.0,0.0,0.0,144,0.0,0.0,0.0,0.0,0,0,0.0,0.0,0.0,0.0,0.0,0.0,0.0,0.0,0.0,0.0,0.0,0.0,0.0,0.0,0.0,0.0,0.0,0.0,0.0,22.0,0.0,0.0,30.0,0.0,0.0,0.0,29.5,0.0,0.0,23.0,0.0,0.0,-0.4,12.7,10.5,0.0,0.0,0.0,0.0,23.0,24.0,23.0,24.0,23.0,24.0,23.0,24.0,0.0,0.0,23.0,2.4,0.0,29.5,3.0,0.0,0.0,0.0,0.929,0.833,0.0,21.9,0.0,0.0,0.0,,0.0,78.8,71.6,0.0,0.0,0.0,0.0,73.4,75.2,73.4,75.2,73.4,75.2,73.4,75.2,0.0,0.0,71.42,0.0,73.4,-5.3999999999999915,-7.3799999999999955,0.00588888888888889,1.9396666666666667,0.0,388.4,True,2026-04-24 22:47:53
63.06,1,9,2026-04-24 22:48:56,37.08164,-121.59959,307,0.0,114.7,-12.6,0.0,,0.0,0.0,0.0,10.9,-1.3,42.7,0.0,300.0,0.0,-0.02,1.0,99.0,-64.0,26,0.0,30.02,1666.0,0.0,0.0,144,0.0,0.0,0.0,0.0,0,0,0.0,0.0,0.0,0.0,0.0,0.0,0.0,0.0,0.0,0.0,0.0,0.0,0.0,0.0,0.0,0.0,0.0,0.0,0.0,22.0,0.0,0.0,30.0,0.0,0.0,0.0,29.4,0.0,0.0,23.0,0.0,0.0,-0.4,12.7,10.5,0.0,0.0,0.0,0.0,23.0,24.0,23.0,24.0,23.0,24.0,24.0,24.0,0.0,0.0,23.0,2.1,0.0,29.4,3.0,0.0,0.0,0.0,0.929,0.833,0.0,21.9,0.0,0.0,0.0,,0.0,78.8,71.6,0.0,0.0,0.0,0.0,73.4,75.2,73.4,75.2,73.4,75.2,75.2,75.2,0.0,0.0,71.42,0.0,73.85000000000001,-4.949999999999989,-7.3799999999999955,0.00588888888888889,1.9396666666666667,0.0,388.4,True,2026-04-24 22:47:53
64.06,1,9,2026-04-24 22:48:57,37.08164,-121.5996,307,0.0,114.7,-12.6,0.0,,0.0,0.0,0.0,10.9,-1.3,42.7,0.0,299.0,0.0,-0.02,1.0,99.0,-82.0,26,0.0,30.02,1666.0,0.0,0.0,144,0.0,0.0,0.0,0.0,0,0,0.0,0.0,0.0,0.0,0.0,0.0,0.0,0.0,0.0,0.0,0.0,0.0,0.0,0.0,0.0,0.0,0.0,0.0,0.0,22.0,0.0,0.0,30.0,0.0,0.0,0.0,29.4,0.0,0.0,23.0,0.0,0.0,-0.4,12.7,10.5,0.0,0.0,0.0,0.0,23.0,24.0,23.0,24.0,23.0,24.0,24.0,24.0,0.0,0.0,23.0,1.8,0.0,29.4,3.0,0.0,0.0,0.0,0.93,0.83,0.0,21.9,0.0,0.0,0.0,,0.0,78.8,71.6,0.0,0.0,0.0,0.0,73.4,75.2,73.4,75.2,73.4,75.2,75.2,75.2,0.0,0.0,71.42,0.0,73.85000000000001,-4.949999999999989,-7.3799999999999955,0.00588888888888889,1.9396666666666667,0.0,388.4,True,2026-04-24 22:47:53
65.06,1,9,2026-04-24 22:48:58,37.08164,-121.5996,307,0.0,114.7,-12.6,0.0,,0.0,0.0,0.0,10.9,-1.3,42.8,0.0,299.0,0.0,-0.02,1.0,99.0,-82.0,26,0.0,30.02,1666.0,0.0,0.0,144,0.0,0.0,0.0,0.0,0,0,0.0,0.0,0.0,0.0,0.0,0.0,0.0,0.0,0.0,0.0,0.0,0.0,0.0,0.0,0.0,0.0,0.0,0.0,0.0,22.0,0.0,0.0,30.0,0.0,0.0,0.0,29.3,0.0,0.0,23.0,0.0,0.0,-0.4,12.7,10.5,0.0,0.0,0.0,0.0,23.0,24.0,23.0,24.0,23.0,24.0,24.0,24.0,0.0,0.0,23.0,1.7,0.0,29.3,3.0,0.0,0.0,0.0,0.93,0.83,0.0,21.9,0.0,0.0,0.0,,0.0,78.8,71.6,0.0,0.0,0.0,0.0,73.4,75.2,73.4,75.2,73.4,75.2,75.2,75.2,0.0,0.0,71.42,0.0,73.85000000000001,-4.949999999999989,-7.3799999999999955,0.00588888888888889,1.9396666666666667,0.0,388.4,True,2026-04-24 22:47:53
66.06,1,9,2026-04-24 22:48:59,37.08164,-121.5996,307,0.0,114.7,-12.6,0.0,,0.0,0.0,0.0,10.9,-1.3,42.7,0.0,296.0,0.0,-0.02,1.0,99.0,-115.0,26,0.0,30.02,1663.0,0.0,0.0,144,0.0,0.0,0.0,0.0,0,0,0.0,0.0,0.0,0.0,0.0,0.0,0.0,0.0,0.0,0.0,0.0,0.0,0.0,0.0,0.0,0.0,0.0,0.0,0.0,22.0,0.0,0.0,30.0,0.0,0.0,0.0,29.2,0.0,0.0,23.0,0.0,0.0,-0.4,12.7,10.5,0.0,0.0,0.0,0.0,23.0,24.0,23.0,24.0,23.0,24.0,24.0,24.0,0.0,0.0,23.0,1.5,0.0,29.2,3.0,0.0,0.0,0.0,0.929,0.831,0.0,21.9,0.0,0.0,0.0,,0.0,78.8,71.6,0.0,0.0,0.0,0.0,73.4,75.2,73.4,75.2,73.4,75.2,75.2,75.2,0.0,0.0,71.42,0.0,73.85000000000001,-4.949999999999989,-7.3799999999999955,0.00588888888888889,1.9396666666666667,0.0,388.4,True,2026-04-24 22:47:53
67.06,1,9,2026-04-24 22:49:00,37.08164,-121.5996,307,0.0,114.7,-12.6,0.0,,0.0,0.0,0.0,10.9,-1.3,42.7,0.0,294.0,0.0,-0.02,1.0,99.0,-108.0,26,0.0,30.02,1663.0,0.0,0.0,144,0.0,0.0,0.0,0.0,0,0,0.0,0.0,0.0,0.0,0.0,0.0,0.0,0.0,0.0,0.0,0.0,0.0,0.0,0.0,0.0,0.0,0.0,0.0,0.0,22.0,0.0,0.0,30.0,0.0,0.0,0.0,29.1,0.0,0.0,23.0,0.0,0.0,-0.4,12.7,10.5,0.0,0.0,0.0,0.0,23.0,24.0,23.0,24.0,23.0,24.0,24.0,24.0,0.0,0.0,23.0,1.4,0.0,29.1,3.0,0.0,0.0,0.0,0.93,0.831,0.0,21.9,0.0,0.0,0.0,,0.0,78.8,71.6,0.0,0.0,0.0,0.0,73.4,75.2,73.4,75.2,73.4,75.2,75.2,75.2,0.0,0.0,71.42,0.0,73.85000000000001,-4.949999999999989,-7.3799999999999955,0.00588888888888889,1.9396666666666667,0.0,388.4,True,2026-04-24 22:47:53
68.06,1,9,2026-04-24 22:49:01,37.08165,-121.59961,309,0.0,114.7,-12.6,0.0,,0.0,0.0,0.0,10.9,-1.3,42.7,0.0,294.0,0.0,-0.02,1.0,99.0,-78.0,26,0.0,30.02,1663.0,0.0,0.0,144,0.0,0.0,0.0,0.0,0,0,0.0,0.0,0.0,0.0,0.0,0.0,0.0,0.0,0.0,0.0,0.0,0.0,0.0,0.0,0.0,0.0,0.0,0.0,0.0,22.0,0.0,0.0,30.0,0.0,0.0,0.0,29.0,0.0,0.0,23.0,0.0,0.0,-0.4,12.7,10.5,0.0,0.0,0.0,0.0,23.0,24.0,23.0,24.0,23.0,24.0,24.0,24.0,0.0,0.0,23.0,1.3,0.0,29.0,3.0,0.0,0.0,0.0,0.93,0.831,0.0,21.9,0.0,0.0,0.0,,0.0,78.8,71.6,0.0,0.0,0.0,0.0,73.4,75.2,73.4,75.2,73.4,75.2,75.2,75.2,0.0,0.0,71.42,0.0,73.85000000000001,-4.949999999999989,-7.3799999999999955,0.00588888888888889,1.9396666666666667,0.0,388.4,True,2026-04-24 22:47:53
69.06,1,9,2026-04-24 22:49:02,37.08165,-121.59961,309,0.0,114.7,-12.6,0.0,,0.0,0.0,0.0,10.9,-1.2,42.6,0.0,293.0,-0.0,-0.02,1.0,99.0,-50.0,26,0.0,30.02,1658.0,0.0,0.0,144,0.0,0.0,0.0,0.0,0,0,0.0,0.0,0.0,0.0,0.0,0.0,0.0,0.0,0.0,0.0,0.0,0.0,0.0,0.0,0.0,0.0,0.0,0.0,0.0,22.0,0.0,0.0,30.0,0.0,0.0,0.0,28.9,0.0,0.0,23.0,0.0,0.0,-0.4,12.7,10.5,0.0,0.0,0.0,0.0,23.0,24.0,23.0,24.0,23.0,24.0,23.0,24.0,0.0,0.0,23.0,1.2,0.0,28.9,3.0,0.0,0.0,0.0,0.93,0.831,0.0,21.9,0.0,0.0,0.0,,0.0,78.8,71.6,0.0,0.0,0.0,0.0,73.4,75.2,73.4,75.2,73.4,75.2,73.4,75.2,0.0,0.0,71.42,0.0,73.4,-5.3999999999999915,-7.3799999999999955,0.00588888888888889,1.9396666666666667,0.0,388.4,True,2026-04-24 22:47:53
70.06,1,9,2026-04-24 22:49:03,37.08165,-121.59961,309,0.0,114.7,-12.6,0.0,,0.0,0.0,0.0,10.9,-1.3,42.7,0.0,293.0,-0.0,-0.02,1.0,99.0,-40.0,26,0.0,30.02,1659.0,0.0,0.0,144,0.0,0.0,0.0,0.0,0,0,0.0,0.0,0.0,0.0,0.0,0.0,0.0,0.0,0.0,0.0,0.0,0.0,0.0,0.0,0.0,0.0,0.0,0.0,0.0,22.0,0.0,0.0,30.0,0.0,0.0,0.0,28.8,0.0,0.0,23.0,0.0,0.0,-0.4,12.7,10.5,0.0,0.0,0.0,0.0,23.0,24.0,23.0,24.0,23.0,24.0,24.0,24.0,0.0,0.0,23.0,1.2,0.0,28.8,3.0,0.0,0.0,0.0,0.929,0.831,0.0,21.9,0.0,0.0,0.0,,0.0,78.8,71.6,0.0,0.0,0.0,0.0,73.4,75.2,73.4,75.2,73.4,75.2,75.2,75.2,0.0,0.0,71.42,0.0,73.85000000000001,-4.949999999999989,-7.3799999999999955,0.00588888888888889,1.9396666666666667,0.0,388.4,True,2026-04-24 22:47:53
71.06,1,9,2026-04-24 22:49:04,37.08165,-121.59961,309,0.0,114.7,-12.6,0.0,,0.0,0.0,0.0,10.9,-1.2,42.7,0.0,293.0,0.0,-0.02,1.0,99.0,-8.0,26,0.0,30.02,1659.0,0.0,0.0,144,0.0,0.0,0.0,0.0,0,0,0.0,0.0,0.0,0.0,0.0,0.0,0.0,0.0,0.0,0.0,0.0,0.0,0.0,0.0,0.0,0.0,0.0,0.0,0.0,22.0,0.0,0.0,30.0,0.0,0.0,0.0,28.7,0.0,0.0,23.0,0.0,0.0,-0.4,12.7,10.5,0.0,0.0,0.0,0.0,23.0,24.0,23.0,24.0,23.0,24.0,24.0,24.0,0.0,0.0,23.0,1.1,0.0,28.7,3.0,0.0,0.0,0.0,0.929,0.831,0.0,21.9,0.0,0.0,0.0,,0.0,78.8,71.6,0.0,0.0,0.0,0.0,73.4,75.2,73.4,75.2,73.4,75.2,75.2,75.2,0.0,0.0,71.42,0.0,73.85000000000001,-4.949999999999989,-7.3799999999999955,0.00588888888888889,1.9396666666666667,0.0,388.4,True,2026-04-24 22:47:53
72.06,1,9,2026-04-24 22:49:05,37.08165,-121.59961,309,0.0,114.7,-12.6,0.0,,0.0,0.0,0.0,10.9,-1.2,42.8,0.0,293.0,0.1,-0.02,1.0,99.0,25.0,26,0.0,30.02,1659.0,0.0,0.0,144,0.0,0.0,0.0,0.0,0,0,0.0,0.0,0.0,0.0,0.0,0.0,0.0,0.0,0.0,0.0,0.0,0.0,0.0,0.0,0.0,0.0,0.0,0.0,0.0,22.0,0.0,0.0,30.0,0.0,0.0,0.0,28.7,0.0,0.0,23.0,0.0,0.0,-0.4,12.7,10.5,0.0,0.0,0.0,0.0,23.0,24.0,23.0,24.0,23.0,24.0,23.0,24.0,0.0,0.0,23.0,1.1,0.0,28.7,3.0,0.0,0.0,0.0,0.93,0.831,0.0,21.9,0.0,0.0,0.0,,0.0,78.8,71.6,0.0,0.0,0.0,0.0,73.4,75.2,73.4,75.2,73.4,75.2,73.4,75.2,0.0,0.0,71.42,0.0,73.4,-5.3999999999999915,-7.3799999999999955,0.00588888888888889,1.9396666666666667,0.0,388.4,True,2026-04-24 22:47:53
73.06,1,9,2026-04-24 22:49:06,37.08165,-121.59961,309,0.1,114.7,-12.6,0.0,,0.0,0.0,0.0,11.0,-1.2,42.8,0.0,293.0,0.1,-0.02,1.0,99.0,20.0,26,0.0,30.02,1668.0,0.0,0.0,144,0.0,0.0,0.0,0.0,0,0,0.0,0.0,0.0,0.0,0.0,0.0,0.0,0.0,0.0,0.0,0.0,0.0,0.0,0.0,0.0,0.0,0.0,0.0,0.0,22.0,0.0,0.0,30.0,0.0,0.0,0.0,28.6,0.0,0.0,23.0,0.0,0.0,-0.4,12.7,10.5,0.0,0.0,0.0,0.0,23.0,24.0,23.0,24.0,23.0,24.0,24.0,24.0,0.0,0.0,23.0,1.1,0.0,28.6,3.0,0.0,0.0,0.0,0.93,0.83,0.0,21.9,0.0,0.0,0.0,,0.0,78.8,71.6,0.0,0.0,0.0,0.0,73.4,75.2,73.4,75.2,73.4,75.2,75.2,75.2,0.0,0.0,71.42,0.0,73.85000000000001,-4.949999999999989,-7.3799999999999955,0.00588888888888889,2.024,0.0,388.4,True,2026-04-24 22:47:53
74.06,1,9,2026-04-24 22:49:07,37.08165,-121.59961,309,0.0,114.7,-12.6,0.0,,0.0,0.0,0.0,10.9,-1.2,42.8,0.0,293.0,0.0,-0.02,1.0,99.0,-5.0,26,0.0,30.02,1668.0,0.0,0.0,144,0.0,0.0,0.0,0.0,0,0,0.0,0.0,0.0,0.0,0.0,0.0,0.0,0.0,0.0,0.0,0.0,0.0,0.0,0.0,0.0,0.0,0.0,0.0,0.0,22.0,0.0,0.0,30.0,0.0,0.0,0.0,28.5,0.0,0.0,23.0,0.0,0.0,-0.4,12.7,10.5,0.0,0.0,0.0,0.0,23.0,24.0,23.0,24.0,23.0,24.0,23.0,24.0,0.0,0.0,24.0,1.0,0.0,28.5,3.0,0.0,0.0,0.0,0.93,0.834,0.0,21.9,0.0,0.0,0.0,,0.0,78.8,71.6,0.0,0.0,0.0,0.0,73.4,75.2,73.4,75.2,73.4,75.2,73.4,75.2,0.0,0.0,71.42,0.0,73.4,-5.3999999999999915,-7.3799999999999955,0.00588888888888889,2.1083333333333334,0.0,388.4,True,2026-04-24 22:47:53
75.06,1,9,2026-04-24 22:49:08,37.08165,-121.59961,309,0.0,114.7,-12.6,0.0,,0.0,0.0,0.0,10.9,-1.2,42.8,0.0,293.0,0.0,-0.02,1.0,99.0,-31.0,26,0.0,30.02,1668.0,0.0,0.0,144,0.0,0.0,0.0,0.0,0,0,0.0,0.0,0.0,0.0,0.0,0.0,0.0,0.0,0.0,0.0,0.0,0.0,0.0,0.0,0.0,0.0,0.0,0.0,0.0,22.0,0.0,0.0,30.0,0.0,0.0,0.0,28.4,0.0,0.0,23.0,0.0,0.0,-0.4,12.7,10.5,0.0,0.0,0.0,0.0,23.0,24.0,23.0,24.0,23.0,24.0,23.0,24.0,0.0,0.0,24.0,1.0,0.0,28.4,3.0,0.0,0.0,0.0,0.93,0.833,0.0,21.9,0.0,0.0,0.0,,0.0,78.8,71.6,0.0,0.0,0.0,0.0,73.4,75.2,73.4,75.2,73.4,75.2,73.4,75.2,0.0,0.0,71.42,0.0,73.4,-5.3999999999999915,-7.3799999999999955,0.00588888888888889,2.1083333333333334,0.0,388.4,True,2026-04-24 22:47:53
76.06,1,9,2026-04-24 22:49:09,37.08165,-121.59961,309,0.0,114.7,-12.6,0.0,,0.0,0.0,0.0,10.9,-1.2,42.8,0.0,292.0,0.0,-0.02,1.0,99.0,-65.0,26,0.0,30.02,1668.0,0.0,0.0,144,0.0,0.0,0.0,0.0,0,0,0.0,0.0,0.0,0.0,0.0,0.0,0.0,0.0,0.0,0.0,0.0,0.0,0.0,0.0,0.0,0.0,0.0,0.0,0.0,22.0,0.0,0.0,30.0,0.0,0.0,0.0,28.3,0.0,0.0,23.0,0.0,0.0,-0.4,12.7,10.5,0.0,0.0,0.0,0.0,23.0,24.0,23.0,24.0,23.0,24.0,23.0,24.0,0.0,0.0,24.0,1.0,0.0,28.3,3.0,0.0,0.0,0.0,0.93,0.83,0.0,21.9,0.0,0.0,0.0,,0.0,78.8,71.6,0.0,0.0,0.0,0.0,73.4,75.2,73.4,75.2,73.4,75.2,73.4,75.2,0.0,0.0,71.42,0.0,73.4,-5.3999999999999915,-7.3799999999999955,0.00588888888888889,2.1083333333333334,0.0,388.4,True,2026-04-24 22:47:53
77.06,1,9,2026-04-24 22:49:10,37.08165,-121.59961,309,0.0,114.7,-12.6,0.0,,0.0,0.0,0.0,11.0,-1.2,42.8,0.0,291.0,0.0,-0.02,1.0,99.0,-56.0,26,0.0,30.02,1668.0,0.0,0.0,144,0.0,0.0,0.0,0.0,0,0,0.0,0.0,0.0,0.0,0.0,0.0,0.0,0.0,0.0,0.0,0.0,0.0,0.0,0.0,0.0,0.0,0.0,0.0,0.0,22.0,0.0,0.0,30.0,0.0,0.0,0.0,28.3,0.0,0.0,23.0,0.0,0.0,-0.4,12.7,10.5,0.0,0.0,0.0,0.0,23.0,24.0,23.0,24.0,23.0,24.0,23.0,24.0,0.0,0.0,24.0,1.0,0.0,28.3,3.0,0.001,0.0,0.0,0.93,0.831,0.0,21.9,0.0,0.0,0.0,,0.0,78.8,71.6,0.0,0.0,0.0,0.0,73.4,75.2,73.4,75.2,73.4,75.2,73.4,75.2,0.0,0.0,71.42,0.0,73.4,-5.3999999999999915,-7.3799999999999955,0.00588888888888889,2.1083333333333334,0.0,388.4,True,2026-04-24 22:47:53
78.06,1,9,2026-04-24 22:49:11,37.08165,-121.59961,309,0.0,114.7,-12.6,0.0,,0.0,0.0,0.0,10.9,-1.2,42.8,0.0,291.0,0.0,-0.02,1.0,99.0,-22.0,26,0.0,30.02,1668.0,0.0,0.0,144,0.0,0.0,0.0,0.0,0,0,0.0,0.0,0.0,0.0,0.0,0.0,0.0,0.0,0.0,0.0,0.0,0.0,0.0,0.0,0.0,0.0,0.0,0.0,0.0,22.0,0.0,0.0,30.0,0.0,0.0,0.0,28.2,0.0,0.0,23.0,0.0,0.0,-0.4,12.7,10.5,0.0,0.0,0.0,0.0,23.0,24.0,23.0,24.0,23.0,24.0,23.0,24.0,0.0,0.0,24.0,1.0,0.0,28.2,3.0,0.0,0.0,0.0,0.93,0.831,0.0,21.9,0.0,0.0,0.0,,0.0,78.8,71.6,0.0,0.0,0.0,0.0,73.4,75.2,73.4,75.2,73.4,75.2,73.4,75.2,0.0,0.0,71.42,0.0,73.4,-5.3999999999999915,-7.3799999999999955,0.00588888888888889,2.1083333333333334,0.0,388.4,True,2026-04-24 22:47:53
79.06,1,9,2026-04-24 22:49:12,37.08165,-121.59961,309,0.0,114.7,-12.6,0.0,,0.0,0.0,0.0,10.9,-1.2,42.8,0.0,291.0,0.0,-0.02,1.0,99.0,-4.0,26,0.0,30.02,1667.0,0.0,0.0,144,0.0,0.0,0.0,0.0,0,0,0.0,0.0,0.0,0.0,0.0,0.0,0.0,0.0,0.0,0.0,0.0,0.0,0.0,0.0,0.0,0.0,0.0,0.0,0.0,22.0,0.0,0.0,30.0,0.0,0.0,0.0,28.1,0.0,0.0,23.0,0.0,0.0,-0.4,12.7,10.5,0.0,0.0,0.0,0.0,23.0,24.0,23.0,24.0,23.0,24.0,24.0,24.0,0.0,0.0,24.0,1.0,0.0,28.1,3.0,0.0,0.0,0.0,0.929,0.831,0.0,21.7,0.0,0.0,0.0,,0.0,78.8,71.6,0.0,0.0,0.0,0.0,73.4,75.2,73.4,75.2,73.4,75.2,75.2,75.2,0.0,0.0,71.06,0.0,73.85000000000001,-4.949999999999989,-7.739999999999995,0.00588888888888889,2.1083333333333334,0.0,388.4,True,2026-04-24 22:47:53
80.06,1,9,2026-04-24 22:49:13,37.08165,-121.59961,309,0.0,114.7,-12.6,0.0,,0.0,0.0,0.0,10.9,-1.2,42.7,0.0,291.0,-0.0,-0.02,1.0,99.0,18.0,26,0.0,30.02,1667.0,0.0,0.0,144,0.0,0.0,0.0,0.0,0,0,0.0,0.0,0.0,0.0,0.0,0.0,0.0,0.0,0.0,0.0,0.0,0.0,0.0,0.0,0.0,0.0,0.0,0.0,0.0,20.0,164.0,164.0,29.7,0.0,0.0,0.0,28.2,0.0,0.0,23.0,0.0,0.0,-0.4,12.7,10.5,0.0,0.0,0.0,0.0,22.0,31.0,22.0,23.0,22.0,23.0,23.0,23.0,0.0,0.0,24.0,1.0,0.0,28.2,3.0,0.0,0.0,0.0,0.929,0.853,0.2,19.5,0.0,0.0,0.0,,0.0,78.8,68.0,0.0,0.0,0.0,0.0,71.6,87.8,71.6,73.4,71.6,73.4,73.4,73.4,0.0,0.0,67.1,164.0,72.05,-6.75,-11.700000000000003,0.00588888888888889,2.1083333333333334,0.0,388.4,True,2026-04-24 22:47:53
81.06,1,9,2026-04-24 22:49:14,37.08165,-121.59961,309,0.0,114.7,-12.6,0.0,,0.0,0.0,0.0,10.9,-1.2,42.7,0.0,291.0,-0.0,-0.02,1.0,99.0,16.0,26,0.0,30.02,1667.0,0.0,0.0,144,0.0,0.0,0.0,0.0,0,0,0.0,0.0,0.0,0.0,0.0,0.0,0.0,0.0,0.0,0.0,0.0,0.0,0.0,0.0,0.0,0.0,0.0,0.0,1.0,22.0,704.0,704.0,24.8,0.9,0.0,0.9,24.2,0.0,0.0,23.0,0.0,0.0,-0.3,12.7,10.5,0.0,0.0,0.0,0.0,23.0,62.0,23.0,46.0,23.0,53.0,24.0,54.0,0.0,0.0,24.0,1.0,0.0,24.2,3.0,0.001,0.0,0.0,0.931,0.864,1.5,21.6,0.0,0.0,0.0,,0.0,78.8,71.6,0.0,0.0,0.0,0.0,73.4,143.6,73.4,114.8,73.4,127.4,75.2,129.2,0.0,0.0,70.88,704.0,73.85000000000001,-4.949999999999989,-7.920000000000002,0.00601388888888889,2.1083333333333334,0.0,388.4,True,2026-04-24 22:47:53
82.06,1,9,2026-04-24 22:49:15,37.08165,-121.59961,309,0.0,114.7,-12.6,0.0,,0.0,0.0,0.0,10.9,-1.2,42.8,0.0,291.0,0.0,-0.01,0.9,99.0,114.0,26,0.0,30.02,1676.0,0.0,0.0,144,0.0,0.0,0.0,0.0,0,0,0.0,0.0,0.0,0.0,0.0,0.0,0.0,0.0,0.0,0.0,0.0,0.0,0.0,0.0,0.0,0.0,0.0,0.0,4.0,22.0,843.0,843.0,22.0,2.0,0.0,2.0,24.5,0.0,0.0,23.0,0.0,0.0,-0.3,12.7,10.5,0.0,0.0,0.0,0.0,23.0,87.0,23.0,72.0,23.0,102.0,24.0,101.0,0.0,0.0,24.0,1.0,0.0,24.5,3.0,0.0,0.0,0.0,1.071,0.858,4.3,21.9,0.0,0.0,7.0,R,0.0,78.8,71.6,0.0,0.0,0.0,0.0,73.4,188.6,73.4,161.6,73.4,215.6,75.2,213.8,0.0,0.0,71.42,843.0,73.85000000000001,-4.949999999999989,-7.3799999999999955,0.006416666666666667,2.1083333333333334,0.0,388.4,True,2026-04-24 22:47:53
83.06,1,9,2026-04-24 22:49:16,37.08165,-121.59962,309,0.0,114.7,-12.6,0.0,,0.0,0.0,0.0,11.0,-1.2,42.8,0.0,291.0,0.0,-0.02,1.0,99.0,83.0,26,0.0,30.02,1676.0,0.0,0.0,144,0.0,0.0,0.0,0.0,0,0,0.0,0.0,0.0,0.0,0.0,0.0,0.0,0.0,0.0,0.0,0.0,0.0,0.0,0.0,0.0,0.0,0.0,0.0,8.0,22.0,951.0,951.0,20.3,2.8,0.0,2.8,24.8,0.0,0.0,23.0,0.0,0.0,-0.4,12.7,10.5,0.0,0.0,0.0,0.0,24.0,116.0,24.0,99.0,24.0,154.0,24.0,143.0,0.0,0.0,24.0,1.0,0.0,24.8,3.0,0.0,0.0,0.0,1.014,0.858,8.4,21.9,0.0,0.0,0.0,,0.0,78.8,71.6,0.0,0.0,0.0,0.0,75.2,240.8,75.2,210.2,75.2,309.2,75.2,289.4,0.0,0.0,71.42,951.0,75.2,-3.5999999999999943,-7.3799999999999955,0.007083333333333334,2.1083333333333334,0.0,388.4,True,2026-04-24 22:47:53
84.06,1,9,2026-04-24 22:49:17,37.08165,-121.59962,309,0.0,114.7,-12.6,0.0,,0.0,0.0,0.0,10.9,-1.1,42.8,0.0,291.0,-0.0,-0.02,1.0,99.0,100.0,26,0.0,30.02,1676.0,0.0,0.0,144,0.0,0.0,0.0,0.0,0,0,0.0,0.0,0.0,0.0,0.0,0.0,0.0,0.0,0.0,0.0,0.0,0.0,0.0,0.0,0.0,0.0,0.0,0.0,14.0,22.0,928.0,928.0,18.7,3.3,0.0,3.3,24.9,0.0,0.0,23.0,0.0,0.0,-0.4,12.7,10.5,0.0,0.0,0.0,0.0,24.0,144.0,24.0,117.0,24.0,193.0,25.0,184.0,0.0,0.0,24.0,1.0,0.0,24.9,3.0,0.0,0.0,0.0,0.94,0.876,14.0,21.9,0.0,0.0,0.0,,0.0,78.8,71.6,0.0,0.0,0.0,0.0,75.2,291.2,75.2,242.6,75.2,379.4,77.0,363.2,0.0,0.0,71.42,928.0,75.64999999999999,-3.1500000000000057,-7.3799999999999955,0.007930555555555555,2.1083333333333334,0.0,388.4,True,2026-04-24 22:47:53
85.06,1,9,2026-04-24 22:49:18,37.08165,-121.59962,309,0.0,114.7,-12.6,0.0,,0.0,0.0,0.0,10.9,-1.1,42.9,0.0,291.0,0.0,-0.02,1.0,99.0,61.0,26,0.0,30.02,1677.0,0.0,0.0,144,0.0,0.0,0.0,0.0,0,0,0.0,0.0,0.0,0.0,0.0,0.0,0.0,0.0,0.0,0.0,0.0,0.0,0.0,0.0,0.0,0.0,0.0,0.0,22.0,22.0,945.0,945.0,18.3,3.5,0.0,3.5,25.0,0.0,0.0,23.0,0.0,0.0,-0.3,12.7,10.5,0.0,0.0,0.0,0.0,24.0,176.0,24.0,140.0,24.0,226.0,25.0,218.0,0.0,0.0,24.0,1.0,0.0,25.0,3.0,0.0,0.0,0.0,0.924,0.854,21.6,21.9,0.0,0.0,0.0,,0.0,78.8,71.6,0.0,0.0,0.0,0.0,75.2,348.8,75.2,284.0,75.2,438.8,77.0,424.4,0.0,0.0,71.42,945.0,75.64999999999999,-3.1500000000000057,-7.3799999999999955,0.008875000000000001,2.1083333333333334,0.0,388.4,True,2026-04-24 22:47:53
