Session Time,GPS Fix Quality,Number of Satellites,GPS Date & Time,Latitude (deg),Longitude (deg),GPS Altitude (feet),Ground Speed (knots),Ground Track (deg),Mag Var (deg),Cross Track Error (NM),Destination Waypoint ID,Range to Destination (NM),Bearing to Destination (deg),System Time,Pitch (deg),Roll (deg),Magnetic Heading (deg),Indicated Airspeed (knots),Pressure Altitude (ft),Turn Rate (deg/s),Lateral Accel (g),Vertical Accel(g),Angle of Attack (%),Vertical Speed (ft/min),OAT (deg C),True Airspeed (knots),Barometer Setting (inHg),Density Altitude (ft),Wind Direction (deg),Wind Speed (knots),Heading Bug (deg),Altitude Bug (ft),Airspeed Bug (knots),Vertical Speed Bug (ft/min),Course (deg),CDI Source Type,CDI Source Port,CDI Scale (NM),CDI Deflection (%),Glideslope (%),AP Engaged,AP Roll Mode,AP Roll Force,AP Roll Position (steps),AP Roll Slip (bool),AP Pitch Force,AP Pitch Position (steps),AP Pitch Slip (bool),AP Yaw Force,AP Yaw Position,AP Yaw Slip (bool),Transponder Status,Transponder Reply (bool),Transponder Identing (bool),Transponder Code (octal),Oil Pressure (PSI),Oil Temp (deg C),RPM L,RPM R,Manifold Pressure (inHg),Fuel Flow 1 (gal/hr),Fuel Flow 2 (gal/hr),Total Fuel Flow (gal/hr),Fuel Pressure (PSI),Fuel Level L (gal),Fuel Level R (gal),Fuel Remaining (gal),Volts 1,Volts 2,Amps,Hobbs Time,Tach Time,Thermocouple 1 (deg C),Thermocouple 2 (deg C),Thermocouple 3 (deg C),Thermocouple 4 (deg C),CHT 4 (deg C),EGT 4 (deg C),CHT 3 (deg C),EGT 3 (deg C),CHT 2 (deg C),EGT 2 (deg C),CHT 1 (deg C),EGT 1 (deg C),Thermocouple 13 (deg C),Thermocouple 14 (deg C),ELEV POSITION (%),CO PPM PRESSURE (PSI),GP Input 3,FUEL PRESSURE (PSI),AILERN POSITION (%),CANOPY CONTACT (V),GP Input 7,GP Input 8,LEFT LEVEL (Sensor V),RIGHT LEVEL (Sensor V),OIL PRESSURE (PSI),OIL TEMPERATURE (deg C),GP Input 13,Contacts,Percent Power,EGT Leaning State,Unnamed: 103,OAT (deg F),Oil Temp (deg F),Thermocouple 1 (deg F),Thermocouple 2 (deg F),Thermocouple 3 (deg F),Thermocouple 4 (deg F),CHT 4 (deg F),EGT 4 (deg F),CHT 3 (deg F),EGT 3 (deg F),CHT 2 (deg F),EGT 2 (deg F),CHT 1 (deg F),EGT 1 (deg F),Thermocouple 13 (deg F),Thermocouple 14 (deg F),OIL TEMPERATURE (deg F),RPM,AVG_CHT,CHT_Delta_T,OIL_Delta_T,Fuel Flow Integral,Distance Traveled,MPG,Max CHT,Engine Run,Flight ID
5.06,1,5,2026-04-14 00:09:03,37.08118,-121.59937,239.0,0.1,153.6,-12.6,,,,,0.0,10.7,-0.7,11.8,0.0,153.0,0.1,-0.01,1.0,99.0,-89.0,24,0.0,29.93,1209.0,,,307.0,,,,,0.0,0.0,,,,,,,,,,,,,,,,,,,0.0,19.0,0.0,0.0,30.2,0.0,,0.0,0.1,,,16.3,0.0,0.0,-0.7,10.0,8.1,,,,,19.0,20.0,20.0,20.0,19.0,20.0,20.0,20.0,,,9.0,254.5,,0.1,2.0,0.0,,,1.576,1.584,+0.0,18.9,,,,,,75.2,66.2,,,,,66.2,68.0,68.0,68.0,66.2,68.0,68.0,68.0,,,66.02,0.0,67.1,-8.100000000000009,-9.0,0.0,0.0,0.0,379.4,True,2026-04-14 00:09:03
6.06,1,6,2026-04-14 00:09:04,37.08156,-121.59961,335.0,0.0,153.6,-12.6,,,,,0.0,10.7,-0.7,11.8,0.0,152.0,0.1,-0.01,1.0,99.0,-87.0,24,0.0,29.93,1209.0,,,307.0,,,,,0.0,0.0,,,,,,,,,,,,,,,,,,,0.0,19.0,0.0,0.0,30.2,0.0,,0.0,0.1,,,16.3,0.0,0.0,-0.7,10.0,8.1,,,,,19.0,20.0,20.0,20.0,19.0,20.0,20.0,20.0,,,9.0,254.5,,0.1,2.0,0.0,,,1.576,1.586,+0.0,18.8,,,,,,75.2,66.2,,,,,66.2,68.0,68.0,68.0,66.2,68.0,68.0,68.0,,,65.84,0.0,67.1,-8.100000000000009,-9.0,0.0,0.08433333333333333,0.0,379.4,True,2026-04-14 00:09:03
7.06,1,7,2026-04-14 00:09:05,37.08154,-121.5996,324.0,0.0,153.6,-12.6,,,,,0.0,10.7,-0.7,11.8,0.0,152.0,0.1,-0.01,1.0,99.0,-71.0,24,0.0,29.93,1215.0,,,307.0,,,,,0.0,0.0,,,,,,,,,,,,,,,,,,,0.0,19.0,0.0,0.0,30.2,0.0,,0.0,0.1,,,16.3,0.0,0.0,-0.7,10.0,8.1,,,,,19.0,20.0,20.0,20.0,19.0,20.0,20.0,20.0,,,9.0,254.5,,0.1,2.0,0.0,,,1.576,1.584,+0.0,18.8,,,,,,75.2,66.2,,,,,66.2,68.0,68.0,68.0,66.2,68.0,68.0,68.0,,,65.84,0.0,67.1,-8.100000000000009,-9.0,0.0,0.08433333333333333,0.0,379.4,True,2026-04-14 00:09:03
8.06,1,7,2026-04-14 00:09:06,37.08154,-121.5996,324.0,0.0,153.6,-12.6,,,,,0.0,10.7,-0.7,11.8,0.0,151.0,0.1,-0.01,1.0,99.0,-41.0,24,0.0,29.93,1215.0,,,307.0,,,,,0.0,0.0,,,,,,,,,,,,,,,,,,,0.0,19.0,0.0,0.0,30.2,0.0,,0.0,0.1,,,16.3,0.0,0.0,-0.7,10.0,8.1,,,,,19.0,20.0,20.0,20.0,19.0,20.0,20.0,20.0,,,9.0,254.5,,0.1,2.0,0.0,,,1.576,1.584,+0.0,18.8,,,,,,75.2,66.2,,,,,66.2,68.0,68.0,68.0,66.2,68.0,68.0,68.0,,,65.84,0.0,67.1,-8.100000000000009,-9.0,0.0,0.08433333333333333,0.0,379.4,True,2026-04-14 00:09:03
9.06,1,7,2026-04-14 00:09:07,37.08154,-121.5996,322.0,0.1,153.6,-12.6,,,,,0.0,10.7,-0.7,11.8,0.0,150.0,0.1,-0.01,1.0,99.0,-54.0,24,0.0,29.93,1215.0,,,307.0,,,,,0.0,0.0,,,,,,,,,,,,,,,,,,,0.0,19.0,0.0,0.0,30.2,0.0,,0.0,0.1,,,16.3,0.0,0.0,-0.7,10.0,8.1,,,,,19.0,20.0,20.0,20.0,19.0,20.0,20.0,20.0,,,9.0,254.5,,0.1,2.0,0.0,,,1.576,1.584,+0.0,18.8,,,,,,75.2,66.2,,,,,66.2,68.0,68.0,68.0,66.2,68.0,68.0,68.0,,,65.84,0.0,67.1,-8.100000000000009,-9.0,0.0,0.16866666666666666,0.0,379.4,True,2026-04-14 00:09:03
10.06,1,7,2026-04-14 00:09:08,37.08154,-121.59961,320.0,0.1,153.6,-12.6,,,,,0.0,10.7,-0.7,11.8,0.0,149.0,0.1,-0.01,1.0,99.0,-54.0,24,0.0,29.93,1212.0,,,307.0,,,,,0.0,0.0,,,,,,,,,,,,,,,,,,,0.0,19.0,0.0,0.0,30.2,0.0,,0.0,0.1,,,16.3,0.0,0.0,-0.7,10.0,8.1,,,,,19.0,20.0,19.0,20.0,19.0,20.0,20.0,20.0,,,9.0,254.5,,0.1,2.0,0.0,,,1.576,1.584,+0.0,18.8,,,,,,75.2,66.2,,,,,66.2,68.0,66.2,68.0,66.2,68.0,68.0,68.0,,,65.84,0.0,66.64999999999999,-8.550000000000011,-9.0,0.0,0.3373333333333333,0.0,379.4,True,2026-04-14 00:09:03
11.06,1,7,2026-04-14 00:09:09,37.08154,-121.59961,318.0,0.1,153.6,-12.6,,,,,0.0,10.7,-0.7,11.7,0.0,149.0,0.1,-0.01,1.0,99.0,-42.0,24,0.0,29.93,1212.0,,,307.0,,,,,0.0,0.0,,,,,,,,,,,,,,,,,,,0.0,19.0,0.0,0.0,30.2,0.0,,0.0,0.1,,,16.3,0.0,0.0,-0.7,10.0,8.1,,,,,20.0,20.0,20.0,20.0,20.0,20.0,20.0,20.0,,,9.0,254.4,,0.1,2.0,0.0,,,1.576,1.584,+0.0,18.7,,,,,,75.2,66.2,,,,,68.0,68.0,68.0,68.0,68.0,68.0,68.0,68.0,,,65.66,0.0,68.0,-7.200000000000003,-9.0,0.0,0.506,0.0,379.4,True,2026-04-14 00:09:03
12.06,1,7,2026-04-14 00:09:10,37.08154,-121.59961,317.0,0.1,153.6,-12.6,,,,,0.0,10.7,-0.8,11.7,0.0,148.0,0.1,-0.02,1.0,99.0,-31.0,24,0.0,29.93,1212.0,,,307.0,,,,,0.0,0.0,,,,,,,,,,,,,,,,,,,0.0,19.0,0.0,0.0,30.2,0.0,,0.0,0.1,,,16.3,0.0,0.0,-0.7,10.0,8.1,,,,,20.0,20.0,20.0,20.0,20.0,20.0,20.0,20.0,,,9.0,254.4,,0.1,2.0,0.0,,,1.576,1.586,+0.0,18.7,,,,,,75.2,66.2,,,,,68.0,68.0,68.0,68.0,68.0,68.0,68.0,68.0,,,65.66,0.0,68.0,-7.200000000000003,-9.0,0.0,0.6746666666666666,0.0,379.4,True,2026-04-14 00:09:03
13.06,1,7,2026-04-14 00:09:11,37.08155,-121.59961,317.0,0.0,153.6,-12.6,,,,,0.0,10.7,-0.7,11.7,0.0,148.0,0.1,-0.01,1.0,99.0,-12.0,24,0.0,29.93,1220.0,,,307.0,,,,,0.0,0.0,,,,,,,,,,,,,,,,,,,0.0,19.0,0.0,0.0,30.2,0.0,,0.0,0.1,,,16.3,0.0,0.0,-0.7,10.0,8.1,,,,,20.0,20.0,20.0,20.0,20.0,20.0,20.0,20.0,,,9.0,254.4,,0.1,2.0,0.0,,,1.576,1.586,+0.0,18.7,,,,,,75.2,66.2,,,,,68.0,68.0,68.0,68.0,68.0,68.0,68.0,68.0,,,65.66,0.0,68.0,-7.200000000000003,-9.0,0.0,0.759,0.0,379.4,True,2026-04-14 00:09:03
14.06,1,7,2026-04-14 00:09:12,37.08155,-121.59961,317.0,0.0,153.6,-12.6,,,,,0.0,10.7,-0.8,11.7,0.0,148.0,0.1,-0.01,1.0,99.0,-29.0,24,0.0,29.93,1220.0,,,307.0,,,,,0.0,0.0,,,,,,,,,,,,,,,,,,,0.0,19.0,0.0,0.0,30.2,0.0,,0.0,0.1,,,16.3,0.0,0.0,-0.7,10.0,8.1,,,,,20.0,20.0,20.0,20.0,20.0,20.0,20.0,20.0,,,9.0,254.4,,0.1,2.0,0.0,,,1.576,1.584,+0.0,18.7,,,,,,75.2,66.2,,,,,68.0,68.0,68.0,68.0,68.0,68.0,68.0,68.0,,,65.66,0.0,68.0,-7.200000000000003,-9.0,0.0,0.759,0.0,379.4,True,2026-04-14 00:09:03
15.06,1,8,2026-04-14 00:09:13,37.08178,-121.5997,373.0,0.1,153.6,-12.6,,,,,0.0,10.6,-0.7,11.7,0.0,148.0,0.1,-0.01,1.0,99.0,-43.0,24,0.0,29.93,1222.0,,,307.0,,,,,0.0,0.0,,,,,,,,,,,,,,,,,,,0.0,19.0,0.0,0.0,30.2,0.0,,0.0,0.1,,,16.3,0.0,0.0,-0.7,10.0,8.1,,,,,20.0,20.0,20.0,20.0,20.0,20.0,20.0,20.0,,,10.0,254.4,,0.1,2.0,0.0,,,1.576,1.584,+0.0,18.7,,,,,,75.2,66.2,,,,,68.0,68.0,68.0,68.0,68.0,68.0,68.0,68.0,,,65.66,0.0,68.0,-7.200000000000003,-9.0,0.0,0.8433333333333333,0.0,379.4,True,2026-04-14 00:09:03
16.06,1,8,2026-04-14 00:09:14,37.08178,-121.5997,373.0,0.0,153.6,-12.6,,,,,0.0,10.6,-0.8,11.7,0.0,145.0,0.1,-0.01,1.0,99.0,-62.0,24,0.0,29.93,1222.0,,,307.0,,,,,0.0,0.0,,,,,,,,,,,,,,,,,,,0.0,19.0,0.0,0.0,30.2,0.0,,0.0,0.1,,,16.3,0.0,0.0,-0.7,10.0,8.1,,,,,20.0,20.0,20.0,20.0,20.0,20.0,20.0,20.0,,,10.0,254.4,,0.1,2.0,0.0,,,1.576,1.597,+0.0,18.7,,,,,,75.2,66.2,,,,,68.0,68.0,68.0,68.0,68.0,68.0,68.0,68.0,,,65.66,0.0,68.0,-7.200000000000003,-9.0,0.0,0.9276666666666664,0.0,379.4,True,2026-04-14 00:09:03
17.06,1,8,2026-04-14 00:09:15,37.08178,-121.5997,373.0,0.1,153.6,-12.6,,,,,0.0,10.6,-0.8,11.7,0.0,144.0,0.1,-0.01,1.0,99.0,-80.0,24,0.0,29.93,1222.0,,,307.0,,,,,0.0,0.0,,,,,,,,,,,,,,,,,,,0.0,19.0,0.0,0.0,30.2,0.0,,0.0,0.0,,,16.3,0.0,0.0,-0.7,10.0,8.1,,,,,20.0,20.0,20.0,20.0,20.0,20.0,20.0,20.0,,,9.0,254.4,,0.0,2.0,0.0,,,1.576,1.594,+0.0,18.7,,,,,,75.2,66.2,,,,,68.0,68.0,68.0,68.0,68.0,68.0,68.0,68.0,,,65.66,0.0,68.0,-7.200000000000003,-9.0,0.0,1.0119999999999998,0.0,379.4,True,2026-04-14 00:09:03
18.06,1,9,2026-04-14 00:09:16,37.08178,-121.59972,361.0,0.0,153.6,-12.6,,,,,0.0,10.6,-0.8,11.7,0.0,142.0,0.1,-0.01,1.0,99.0,-106.0,24,0.0,29.93,1225.0,,,307.0,,,,,0.0,0.0,,,,,,,,,,,,,,,,,,,0.0,19.0,0.0,0.0,30.2,0.0,,0.0,0.0,,,16.3,0.0,0.0,-0.7,10.0,8.1,,,,,20.0,20.0,20.0,20.0,20.0,20.0,20.0,20.0,,,9.0,254.4,,0.0,2.0,0.0,,,1.576,1.587,+0.0,18.7,,,,,,75.2,66.2,,,,,68.0,68.0,68.0,68.0,68.0,68.0,68.0,68.0,,,65.66,0.0,68.0,-7.200000000000003,-9.0,0.0,1.0963333333333332,0.0,379.4,True,2026-04-14 00:09:03
19.06,1,9,2026-04-14 00:09:17,37.08177,-121.59974,350.0,0.1,153.6,-12.6,,,,,0.0,10.7,-0.7,11.8,0.0,140.0,0.1,-0.01,1.0,99.0,-96.0,24,0.0,29.93,1225.0,,,307.0,,,,,0.0,0.0,,,,,,,,,,,,,,,,,,,0.0,19.0,0.0,0.0,30.2,0.0,,0.0,5.5,,,16.3,0.0,0.0,-0.6,10.0,8.1,,,,,20.0,20.0,20.0,20.0,20.0,20.0,20.0,20.0,,,9.0,254.4,,5.5,2.0,0.0,,,1.576,1.589,+0.0,18.7,,,,,,75.2,66.2,,,,,68.0,68.0,68.0,68.0,68.0,68.0,68.0,68.0,,,65.66,0.0,68.0,-7.200000000000003,-9.0,0.0,1.1806666666666665,0.0,379.4,True,2026-04-14 00:09:03
20.06,1,9,2026-04-14 00:09:18,37.08177,-121.59974,350.0,0.0,153.6,-12.6,,,,,0.0,10.7,-0.7,11.8,0.0,140.0,0.1,-0.02,1.0,99.0,-54.0,24,0.0,29.93,1225.0,,,307.0,,,,,0.0,0.0,,,,,,,,,,,,,,,,,,,0.0,19.0,0.0,0.0,30.2,0.0,,0.0,27.7,,,16.3,0.0,0.0,-0.6,10.0,8.1,,,,,20.0,20.0,20.0,20.0,20.0,20.0,20.0,20.0,,,9.0,254.4,,27.7,2.0,0.0,,,1.576,1.589,+0.0,18.7,,,,,,75.2,66.2,,,,,68.0,68.0,68.0,68.0,68.0,68.0,68.0,68.0,,,65.66,0.0,68.0,-7.200000000000003,-9.0,0.0,1.2649999999999997,0.0,379.4,True,2026-04-14 00:09:03
21.06,1,9,2026-04-14 00:09:19,37.08178,-121.59974,350.0,0.1,153.6,-12.6,,,,,0.0,10.7,-0.8,11.7,0.0,140.0,0.1,-0.02,1.0,99.0,-1.0,24,0.0,29.93,1232.0,,,307.0,,,,,0.0,0.0,,,,,,,,,,,,,,,,,,,0.0,19.0,0.0,0.0,30.2,0.5,,0.5,30.7,,,16.3,0.0,0.0,-0.6,10.0,8.1,,,,,20.0,20.0,20.0,20.0,20.0,20.0,20.0,20.0,,,9.0,254.4,,30.7,2.0,0.0,,,1.576,1.587,+0.0,18.7,,,,,,75.2,66.2,,,,,68.0,68.0,68.0,68.0,68.0,68.0,68.0,68.0,,,65.66,0.0,68.0,-7.200000000000003,-9.0,6.944444444444444e-05,1.349333333333333,0.2,379.4,True,2026-04-14 00:09:03
22.06,1,9,2026-04-14 00:09:20,37.08178,-121.59975,350.0,0.1,153.6,-12.6,,,,,0.0,10.7,-0.8,11.7,0.0,140.0,0.1,-0.01,1.0,99.0,-36.0,24,0.0,29.93,1232.0,,,307.0,,,,,0.0,0.0,,,,,,,,,,,,,,,,,,,0.0,19.0,0.0,0.0,30.2,1.2,,1.2,31.8,,,16.3,0.0,0.0,-0.6,10.0,8.1,,,,,20.0,20.0,20.0,20.0,20.0,20.0,20.0,20.0,,,9.0,254.4,,31.8,2.0,0.0,,,1.576,1.588,+0.0,18.7,,,,,,75.2,66.2,,,,,68.0,68.0,68.0,68.0,68.0,68.0,68.0,68.0,,,65.66,0.0,68.0,-7.200000000000003,-9.0,0.00030555555555555555,1.5179999999999998,0.08333333333333334,379.4,True,2026-04-14 00:09:03
23.06,1,9,2026-04-14 00:09:21,37.08178,-121.59975,350.0,0.0,153.6,-12.6,,,,,0.0,10.7,-0.7,11.7,0.0,140.0,0.1,-0.01,1.0,99.0,-34.0,24,0.0,29.93,1233.0,,,307.0,,,,,0.0,0.0,,,,,,,,,,,,,,,,,,,0.0,19.0,0.0,0.0,30.2,1.8,,1.8,31.9,,,16.3,0.0,0.0,-0.5,10.0,8.1,,,,,20.0,20.0,20.0,20.0,20.0,20.0,20.0,20.0,,,9.0,254.4,,31.9,2.0,0.0,,,1.576,1.588,+0.0,18.7,,,,,,75.2,66.2,,,,,68.0,68.0,68.0,68.0,68.0,68.0,68.0,68.0,,,65.66,0.0,68.0,-7.200000000000003,-9.0,0.0007222222222222222,1.6023333333333332,0.0,379.4,True,2026-04-14 00:09:03
24.06,1,9,2026-04-14 00:09:22,37.08178,-121.59975,350.0,0.0,153.6,-12.6,,,,,0.0,10.7,-0.8,11.7,0.0,139.0,0.1,-0.02,1.0,99.0,-62.0,24,0.0,29.93,1233.0,,,307.0,,,,,0.0,0.0,,,,,,,,,,,,,,,,,,,0.0,19.0,0.0,0.0,30.2,2.3,,2.3,31.9,,,16.3,0.0,0.0,-0.5,10.0,8.1,,,,,20.0,20.0,20.0,20.0,20.0,20.0,20.0,20.0,,,9.0,254.4,,31.9,2.0,0.0,,,1.576,1.588,+0.0,18.7,,,,,,75.2,66.2,,,,,68.0,68.0,68.0,68.0,68.0,68.0,68.0,68.0,,,65.66,0.0,68.0,-7.200000000000003,-9.0,0.0012916666666666667,1.6023333333333332,0.0,379.4,True,2026-04-14 00:09:03
25.06,1,9,2026-04-14 00:09:23,37.08179,-121.59975,350.0,0.0,153.6,-12.6,,,,,0.0,10.7,-0.8,11.7,0.0,135.0,0.1,-0.01,1.0,99.0,-104.0,24,0.0,29.93,1233.0,,,307.0,,,,,0.0,0.0,,,,,,,,,,,,,,,,,,,0.0,19.0,0.0,0.0,30.2,2.6,,2.6,33.2,,,16.3,0.0,0.0,-0.5,10.0,8.1,,,,,20.0,20.0,20.0,20.0,20.0,20.0,20.0,20.0,,,9.0,254.4,,33.2,2.0,0.0,,,1.576,1.588,+0.0,18.7,,,,,,75.2,66.2,,,,,68.0,68.0,68.0,68.0,68.0,68.0,68.0,68.0,,,65.66,0.0,68.0,-7.200000000000003,-9.0,0.0019722222222222224,1.6023333333333332,0.0,379.4,True,2026-04-14 00:09:03
26.06,1,9,2026-04-14 00:09:24,37.08179,-121.59975,350.0,0.0,153.6,-12.6,,,,,0.0,10.7,-0.8,11.7,0.0,134.0,0.1,-0.02,1.0,99.0,-111.0,24,0.0,29.93,1235.0,,,307.0,,,,,0.0,0.0,,,,,,,,,,,,,,,,,,,0.0,19.0,0.0,0.0,30.2,2.4,,2.4,32.2,,,16.3,0.0,0.0,-0.6,10.0,8.1,,,,,20.0,20.0,20.0,20.0,20.0,20.0,20.0,20.0,,,9.0,254.4,,32.2,2.0,0.0,,,1.576,1.587,+0.0,18.7,,,,,,75.2,66.2,,,,,68.0,68.0,68.0,68.0,68.0,68.0,68.0,68.0,,,65.66,0.0,68.0,-7.200000000000003,-9.0,0.0026666666666666666,1.6023333333333332,0.0,379.4,True,2026-04-14 00:09:03
27.06,1,9,2026-04-14 00:09:25,37.08179,-121.59975,350.0,0.0,153.6,-12.6,,,,,0.0,10.7,-0.8,11.6,0.0,133.0,0.1,-0.01,1.0,99.0,-93.0,24,0.0,29.93,1235.0,,,307.0,,,,,0.0,0.0,,,,,,,,,,,,,,,,,,,0.0,19.0,0.0,0.0,30.2,2.1,,2.1,31.9,,,16.3,0.0,0.0,-0.6,10.0,8.1,,,,,20.0,20.0,20.0,20.0,20.0,20.0,20.0,20.0,,,9.0,254.4,,31.9,2.0,0.0,,,1.576,1.588,+0.0,18.7,,,,,,75.2,66.2,,,,,68.0,68.0,68.0,68.0,68.0,68.0,68.0,68.0,,,65.66,0.0,68.0,-7.200000000000003,-9.0,0.0032916666666666667,1.6023333333333332,0.0,379.4,True,2026-04-14 00:09:03
28.06,1,9,2026-04-14 00:09:26,37.08179,-121.59975,351.0,0.0,153.6,-12.6,,,,,0.0,10.7,-0.9,11.5,0.0,131.0,0.1,-0.02,1.0,99.0,-87.0,24,0.0,29.93,1235.0,,,307.0,,,,,0.0,0.0,,,,,,,,,,,,,,,,,,,0.0,19.0,0.0,0.0,30.2,1.7,,1.7,31.6,,,16.3,0.0,0.0,-0.7,10.0,8.1,,,,,20.0,21.0,20.0,21.0,20.0,21.0,20.0,20.0,,,9.0,254.4,,31.6,2.0,0.0,,,1.576,1.588,+0.0,18.7,,,,,,75.2,66.2,,,,,68.0,69.8,68.0,69.8,68.0,69.8,68.0,68.0,,,65.66,0.0,68.0,-7.200000000000003,-9.0,0.0038194444444444448,1.6023333333333332,0.0,379.4,True,2026-04-14 00:09:03
29.06,1,9,2026-04-14 00:09:27,37.08179,-121.59975,351.0,0.0,153.6,-12.6,,,,,0.0,10.7,-0.9,11.5,0.0,130.0,0.1,-0.02,1.0,99.0,-91.0,24,0.0,29.93,1232.0,,,307.0,,,,,0.0,0.0,,,,,,,,,,,,,,,,,,,0.0,19.0,0.0,0.0,30.2,1.5,,1.5,31.4,,,16.3,0.0,0.0,-0.7,10.0,8.1,,,,,20.0,21.0,20.0,21.0,20.0,21.0,20.0,20.0,,,10.0,254.4,,31.4,2.0,0.0,,,1.576,1.587,+0.0,18.7,,,,,,75.2,66.2,,,,,68.0,69.8,68.0,69.8,68.0,69.8,68.0,68.0,,,65.66,0.0,68.0,-7.200000000000003,-9.0,0.004263888888888889,1.6023333333333332,0.0,379.4,True,2026-04-14 00:09:03
30.06,1,9,2026-04-14 00:09:28,37.08179,-121.59975,351.0,0.0,153.6,-12.6,,,,,0.0,10.7,-0.9,11.5,0.0,129.0,0.1,-0.01,1.0,99.0,-97.0,24,0.0,29.93,1232.0,,,307.0,,,,,0.0,0.0,,,,,,,,,,,,,,,,,,,0.0,19.0,0.0,0.0,30.2,1.5,,1.5,31.3,,,16.3,0.0,0.0,-0.7,10.0,8.1,,,,,20.0,21.0,20.0,21.0,20.0,21.0,20.0,20.0,,,10.0,254.4,,31.3,2.0,0.0,,,1.576,1.587,+0.0,18.7,,,,,,75.2,66.2,,,,,68.0,69.8,68.0,69.8,68.0,69.8,68.0,68.0,,,65.66,0.0,68.0,-7.200000000000003,-9.0,0.004680555555555556,1.6023333333333332,0.0,379.4,True,2026-04-14 00:09:03
31.06,1,9,2026-04-14 00:09:29,37.08179,-121.59975,351.0,0.0,153.6,-12.6,,,,,0.0,10.7,-0.9,11.5,0.0,126.0,0.1,-0.02,1.0,99.0,-110.0,24,0.0,29.93,1232.0,,,307.0,,,,,0.0,0.0,,,,,,,,,,,,,,,,,,,0.0,19.0,0.0,0.0,30.2,0.0,,0.0,31.1,,,16.3,0.0,0.0,-0.7,10.0,8.1,,,,,20.0,21.0,20.0,21.0,20.0,20.0,20.0,20.0,,,10.0,254.4,,31.1,2.0,0.0,,,1.576,1.587,+0.0,18.7,,,,,,75.2,66.2,,,,,68.0,69.8,68.0,69.8,68.0,68.0,68.0,68.0,,,65.66,0.0,68.0,-7.200000000000003,-9.0,0.004888888888888889,1.6023333333333332,0.0,379.4,True,2026-04-14 00:09:03
32.06,1,9,2026-04-14 00:09:30,37.08179,-121.59975,352.0,0.0,153.6,-12.6,,,,,0.0,10.7,-0.9,11.5,0.0,125.0,0.1,-0.02,1.0,99.0,-93.0,24,0.0,29.93,1234.0,,,307.0,,,,,0.0,0.0,,,,,,,,,,,,,,,,,,,0.0,19.0,0.0,0.0,30.2,0.0,,0.0,31.0,,,16.3,0.0,0.0,-0.7,10.0,8.1,,,,,20.0,21.0,20.0,21.0,20.0,21.0,20.0,20.0,,,10.0,254.4,,31.0,2.0,0.0,,,1.576,1.587,+0.0,18.7,,,,,,75.2,66.2,,,,,68.0,69.8,68.0,69.8,68.0,69.8,68.0,68.0,,,65.66,0.0,68.0,-7.200000000000003,-9.0,0.004888888888888889,1.6023333333333332,0.0,379.4,True,2026-04-14 00:09:03
33.06,1,9,2026-04-14 00:09:31,37.08179,-121.59975,352.0,0.0,153.6,-12.6,,,,,0.0,10.7,-1.0,11.5,0.0,123.0,0.1,-0.01,1.0,99.0,-115.0,24,0.0,29.93,1234.0,,,307.0,,,,,0.0,0.0,,,,,,,,,,,,,,,,,,,0.0,19.0,0.0,0.0,30.2,0.0,,0.0,30.8,,,16.3,0.0,0.0,-0.7,10.0,8.1,,,,,20.0,21.0,20.0,21.0,20.0,21.0,20.0,20.0,,,10.0,254.4,,30.8,2.0,0.0,,,1.576,1.587,+0.0,18.7,,,,,,75.2,66.2,,,,,68.0,69.8,68.0,69.8,68.0,69.8,68.0,68.0,,,65.66,0.0,68.0,-7.200000000000003,-9.0,0.004888888888888889,1.6023333333333332,0.0,379.4,True,2026-04-14 00:09:03
34.06,1,9,2026-04-14 00:09:32,37.08179,-121.59975,353.0,0.0,153.6,-12.6,,,,,0.0,10.7,-0.9,11.4,0.0,123.0,0.1,-0.01,1.0,99.0,-69.0,24,0.0,29.93,1234.0,,,307.0,,,,,0.0,0.0,,,,,,,,,,,,,,,,,,,0.0,19.0,0.0,0.0,30.2,0.0,,0.0,30.7,,,16.3,0.0,0.0,-0.7,10.0,8.1,,,,,20.0,21.0,20.0,21.0,20.0,21.0,20.0,20.0,,,10.0,254.4,,30.7,2.0,0.0,,,1.576,1.587,+0.0,18.7,,,,,,75.2,66.2,,,,,68.0,69.8,68.0,69.8,68.0,69.8,68.0,68.0,,,65.66,0.0,68.0,-7.200000000000003,-9.0,0.004888888888888889,1.6023333333333332,0.0,379.4,True,2026-04-14 00:09:03
35.06,1,9,2026-04-14 00:09:33,37.08179,-121.59974,355.0,0.0,153.6,-12.6,,,,,0.0,10.7,-0.9,11.5,0.0,122.0,0.1,-0.02,1.0,99.0,-52.0,24,0.0,29.93,1230.0,,,307.0,,,,,0.0,0.0,,,,,,,,,,,,,,,,,,,0.0,16.0,0.0,0.0,30.2,0.0,,0.0,30.6,,,16.3,0.0,0.0,-0.7,10.0,8.1,,,,,18.0,19.0,18.0,19.0,18.0,19.0,19.0,19.0,,,10.0,254.4,,30.6,2.0,0.0,,,1.575,1.593,+0.0,16.0,,,,,,75.2,60.8,,,,,64.4,66.2,64.4,66.2,64.4,66.2,66.2,66.2,,,60.8,0.0,64.85000000000001,-10.349999999999994,-14.400000000000006,0.004888888888888889,1.6023333333333332,0.0,379.4,True,2026-04-14 00:09:03
36.06,1,9,2026-04-14 00:09:34,37.08179,-121.59974,355.0,0.0,153.6,-12.6,,,,,0.0,10.7,-0.9,11.5,0.0,121.0,0.1,-0.02,1.0,99.0,-53.0,24,0.0,29.93,1230.0,,,307.0,,,,,0.0,0.0,,,,,,,,,,,,,,,,,,,0.0,16.0,80.0,80.0,30.6,0.0,,0.0,24.5,,,16.3,0.0,0.0,-0.7,10.0,8.1,,,,,19.0,19.0,19.0,19.0,18.0,32.0,19.0,19.0,,,10.0,254.4,,24.5,2.0,0.0,,,1.576,1.614,+0.0,16.3,,,,,,75.2,60.8,,,,,66.2,66.2,66.2,66.2,64.4,89.6,66.2,66.2,,,61.34,80.0,65.75,-9.450000000000003,-14.400000000000006,0.004888888888888889,1.6023333333333332,0.0,379.4,True,2026-04-14 00:09:03
37.06,1,9,2026-04-14 00:09:35,37.08179,-121.59974,355.0,0.1,153.6,-12.6,,,,,0.0,10.7,-0.9,11.6,0.0,121.0,0.1,-0.02,1.0,99.0,-40.0,24,0.0,29.93,1230.0,,,307.0,,,,,0.0,0.0,,,,,,,,,,,,,,,,,,,1.0,18.0,1219.0,1219.0,23.7,1.2,,1.2,25.5,,,16.3,0.0,0.0,-0.6,10.0,8.1,,,,,20.0,54.0,20.0,44.0,20.0,66.0,20.0,52.0,,,12.0,254.4,,25.5,2.0,0.0,,,1.576,1.576,+1.2,18.2,,,,,,75.2,64.4,,,,,68.0,129.2,68.0,111.2,68.0,150.8,68.0,125.6,,,64.75999999999999,1219.0,68.0,-7.200000000000003,-10.799999999999997,0.005055555555555555,1.6866666666666665,0.08333333333333334,379.4,True,2026-04-14 00:09:03
38.06,1,9,2026-04-14 00:09:36,37.08179,-121.59974,355.0,0.0,153.6,-12.6,,,,,0.0,10.6,-0.8,11.5,0.0,121.0,0.1,-0.01,1.0,99.0,-11.0,24,0.0,29.93,1229.0,,,307.0,,,,,0.0,0.0,,,,,,,,,,,,,,,,,,,4.0,19.0,1262.0,1262.0,17.0,2.1,,2.1,25.7,,,16.3,0.0,0.0,-0.6,10.0,8.1,,,,,20.0,126.0,20.0,111.0,20.0,134.0,20.0,119.0,,,12.0,254.4,,25.7,2.0,0.0,,,1.486,1.471,+3.8,18.7,,,,,,75.2,66.2,,,,,68.0,258.8,68.0,231.8,68.0,273.2,68.0,246.2,,,65.66,1262.0,68.0,-7.200000000000003,-9.0,0.005513888888888889,1.7709999999999997,0.0,379.4,True,2026-04-14 00:09:03
39.06,1,9,2026-04-14 00:09:37,37.08179,-121.59974,355.0,0.0,153.6,-12.6,,,,,0.0,10.7,-0.9,11.5,0.0,121.0,0.1,-0.02,1.0,99.0,-2.0,24,0.0,29.93,1229.0,,,307.0,,,,,0.0,0.0,,,,,,,,,,,,,,,,,,,7.0,19.0,1159.0,1159.0,14.6,2.3,,2.3,25.7,,,16.3,0.0,0.0,-0.7,10.0,8.1,,,,,20.0,181.0,21.0,163.0,20.0,188.0,21.0,168.0,,,12.0,254.4,,25.7,2.0,0.0,,,1.483,1.565,+7.3,18.7,,,,,,75.2,66.2,,,,,68.0,357.8,69.8,325.4,68.0,370.4,69.8,334.4,,,65.66,1159.0,68.9,-6.299999999999997,-9.0,0.006125,1.7709999999999997,0.0,379.4,True,2026-04-14 00:09:03
40.06,1,9,2026-04-14 00:09:38,37.08179,-121.59974,356.0,0.0,153.6,-12.6,,,,,0.0,10.7,-0.9,11.5,0.0,121.0,0.1,-0.01,1.0,99.0,5.0,24,0.0,29.93,1229.0,,,307.0,,,,,0.0,0.0,,,,,,,,,,,,,,,,,,,12.0,19.0,1109.0,1109.0,14.1,2.5,,2.5,25.6,,,16.3,0.0,0.0,-0.7,10.0,8.1,,,,,21.0,223.0,21.0,205.0,21.0,231.0,22.0,209.0,,,12.0,242.3,,25.6,2.0,0.0,,,1.575,1.572,+12.0,18.7,,,,,,75.2,66.2,,,,,69.8,433.4,69.8,401.0,69.8,447.8,71.6,408.2,,,65.66,1109.0,70.25,-4.950000000000003,-9.0,0.006791666666666667,1.7709999999999997,0.0,379.4,True,2026-04-14 00:09:03
41.06,1,9,2026-04-14 00:09:39,37.08179,-121.59974,356.0,0.1,153.6,-12.6,,,,,0.0,10.7,-0.9,11.5,0.0,121.0,0.1,-0.01,1.0,99.0,8.0,24,0.0,29.93,1239.0,,,307.0,,,,,0.0,0.0,,,,,,,,,,,,,,,,,,,18.0,19.0,1087.0,1087.0,14.1,2.6,,2.6,25.6,,,16.3,0.0,0.0,-0.7,10.0,8.1,,,,,21.0,257.0,21.0,241.0,21.0,269.0,22.0,243.0,,,12.0,188.6,,25.6,2.0,0.0,,,1.576,1.577,+18.5,18.7,,,,,,75.2,66.2,,,,,69.8,494.6,69.8,465.8,69.8,516.2,71.6,469.4,,,65.66,1087.0,70.25,-4.950000000000003,-9.0,0.007500000000000001,1.855333333333333,0.038461538461538464,379.4,True,2026-04-14 00:09:03
42.06,1,9,2026-04-14 00:09:40,37.08178,-121.59974,356.0,0.0,153.6,-12.6,,,,,0.0,10.7,-0.9,11.5,0.0,121.0,0.1,-0.01,1.0,99.0,48.0,24,0.0,29.93,1239.0,,,307.0,,,,,0.0,0.0,,,,,,,,,,,,,,,,,,,27.0,19.0,1068.0,1068.0,14.0,2.7,,2.7,25.6,,,16.3,0.0,0.0,-0.7,10.0,8.1,,,,,21.0,287.0,22.0,275.0,21.0,301.0,23.0,274.0,,,12.0,146.8,,25.6,2.0,0.0,,,1.576,1.577,+27.1,18.7,,,,,,75.2,66.2,,,,,69.8,548.6,71.6,527.0,69.8,573.8,73.4,525.2,,,65.66,1068.0,71.14999999999999,-4.050000000000011,-9.0,0.00823611111111111,1.9396666666666664,0.0,379.4,True,2026-04-14 00:09:03
43.06,1,9,2026-04-14 00:09:41,37.08178,-121.59974,356.0,0.1,153.6,-12.6,,,,,0.0,10.7,-0.8,11.5,0.0,121.0,0.1,-0.01,0.9,99.0,45.0,24,0.0,29.93,1239.0,,,307.0,,,,,0.0,0.0,,,,,,,0.0,,,0.0,,,,,,,,,38.0,20.0,1040.0,1040.0,14.4,2.7,,2.7,25.6,,,16.3,0.0,0.0,20.7,10.0,8.1,,,,,22.0,312.0,23.0,304.0,22.0,327.0,23.0,302.0,,,12.0,114.3,,25.6,2.0,0.0,,,1.576,1.61,+38.1,19.7,,,,,,75.2,68.0,,,,,71.6,593.6,73.4,579.2,71.6,620.6,73.4,575.6,,,67.46,1040.0,72.5,-2.700000000000003,-7.200000000000003,0.008986111111111111,2.0239999999999996,0.037037037037037035,379.4,True,2026-04-14 00:09:03
44.06,1,9,2026-04-14 00:09:42,37.08179,-121.59975,358.0,0.0,153.6,-12.6,,,,,0.0,10.7,-0.9,11.5,0.0,121.0,0.1,-0.01,0.9,99.0,19.0,24,0.0,29.93,1239.0,,,307.0,,,,,0.0,0.0,,,,,,,1.0,,,0.0,,,,,,,,,51.0,20.0,1042.0,1042.0,14.4,2.7,,2.7,25.7,,,16.3,0.0,0.0,37.4,10.0,8.1,,,,,23.0,334.0,23.0,328.0,23.0,349.0,24.0,326.0,,,13.0,89.1,,25.7,2.0,0.0,,,1.576,1.576,+50.8,19.8,,,,,,75.2,68.0,,,,,73.4,633.2,73.4,622.4,73.4,660.2,75.2,618.8,,,67.64,1042.0,73.85000000000001,-1.3499999999999943,-7.200000000000003,0.009736111111111112,2.108333333333333,0.0,379.4,True,2026-04-14 00:09:03
45.06,1,9,2026-04-14 00:09:43,37.08179,-121.59975,358.0,0.1,153.6,-12.6,,,,,0.0,10.7,-0.9,11.4,0.0,121.0,0.1,-0.01,1.0,99.0,34.0,24,0.0,29.93,1239.0,,,307.0,,,,,0.0,0.0,,,,,,,1.0,,,0.0,,,,,,,,,62.0,20.0,1047.0,1047.0,14.5,2.7,,2.7,25.7,,,16.3,0.0,0.0,47.5,10.0,8.1,,,,,23.0,354.0,24.0,350.0,23.0,370.0,25.0,348.0,,,12.0,69.4,,25.7,2.0,0.0,,,1.576,1.588,+62.2,19.8,,,,,,75.2,68.0,,,,,73.4,669.2,75.2,662.0,73.4,698.0,77.0,658.4,,,67.64,1047.0,74.75,-0.45000000000000284,-7.200000000000003,0.010486111111111111,2.1926666666666663,0.037037037037037035,379.4,True,2026-04-14 00:09:03
46.06,1,9,2026-04-14 00:09:44,37.08179,-121.59975,358.0,0.0,153.6,-12.6,,,,,0.0,10.7,-0.9,11.4,0.0,121.0,0.1,-0.01,1.0,99.0,29.0,24,0.0,29.93,1239.0,,,307.0,,,,,0.0,0.0,,,,,,,1.0,,,0.0,,,,,3.0,0.0,0.0,1200.0,70.0,20.0,1057.0,1057.0,14.5,2.7,,2.7,25.8,,,16.3,0.0,0.0,53.6,10.0,8.1,,,,,24.0,370.0,24.0,370.0,24.0,390.0,25.0,369.0,,,13.0,54.2,,25.8,2.0,0.0,,,1.576,1.606,+70.0,19.8,,,,,,75.2,68.0,,,,,75.2,698.0,75.2,698.0,75.2,734.0,77.0,696.2,,,67.64,1057.0,75.64999999999999,0.44999999999998863,-7.200000000000003,0.011236111111111112,2.2769999999999997,0.0,379.4,True,2026-04-14 00:09:03
47.06,1,9,2026-04-14 00:09:45,37.08179,-121.59975,358.0,0.1,153.6,-12.6,,,,,0.0,10.7,-0.8,11.4,0.0,121.0,0.1,-0.02,1.0,99.0,3.0,24,0.0,29.93,1239.0,,,307.0,,,,,0.0,0.0,,,,,,,1.0,,,0.0,,,,,1.0,1.0,0.0,1200.0,74.0,20.0,1053.0,1053.0,14.3,2.7,,2.7,25.8,,,16.3,0.0,0.0,57.3,10.0,8.1,,,,,24.0,386.0,25.0,386.0,24.0,409.0,26.0,388.0,,,13.0,42.3,,25.8,2.0,0.0,,,1.576,1.6,+74.2,19.8,,,,,,75.2,68.0,,,,,75.2,726.8,77.0,726.8,75.2,768.2,78.8,730.4,,,67.64,1053.0,76.55,1.3499999999999943,-7.200000000000003,0.011986111111111112,2.361333333333333,0.037037037037037035,379.4,True,2026-04-14 00:09:03
48.06,1,9,2026-04-14 00:09:46,37.08179,-121.59975,356.0,0.0,153.6,-12.6,,,,,0.0,10.7,-0.9,11.4,0.0,121.0,0.1,-0.01,1.0,99.0,18.0,24,0.0,29.93,1249.0,,,307.0,,,,,0.0,0.0,,,,,,,1.0,,,0.0,,,,,1.0,1.0,0.0,1200.0,76.0,20.0,1065.0,1065.0,14.2,2.6,,2.6,25.8,,,16.3,0.0,0.0,56.6,10.0,8.1,,,,,25.0,400.0,25.0,402.0,24.0,430.0,26.0,405.0,,,13.0,33.1,,25.8,2.0,0.0,,,1.576,1.576,+76.3,19.6,,,,,,75.2,68.0,,,,,77.0,752.0,77.0,755.6,75.2,806.0,78.8,761.0,,,67.28,1065.0,77.0,1.7999999999999972,-7.200000000000003,0.012722222222222223,2.4456666666666664,0.0,379.4,True,2026-04-14 00:09:03
49.06,1,9,2026-04-14 00:09:47,37.08179,-121.59975,356.0,0.1,153.6,-12.6,,,,,0.0,10.7,-0.8,11.5,0.0,121.0,0.1,-0.02,1.0,99.0,25.0,24,0.0,29.93,1250.0,,,307.0,,,,,0.0,0.0,,,,,,,1.0,,,0.0,,,,,1.0,0.0,0.0,1200.0,77.0,19.0,1023.0,1023.0,14.0,2.6,,2.6,25.8,,,16.3,0.0,0.0,51.4,10.0,8.1,,,,,25.0,413.0,26.0,415.0,25.0,443.0,27.0,424.0,,,13.0,26.0,,25.8,2.0,0.0,,,1.576,1.576,+77.0,19.5,,,,,,75.2,66.2,,,,,77.0,775.4,78.8,779.0,77.0,829.4,80.6,795.2,,,67.1,1023.0,78.35,3.1499999999999915,-9.0,0.013444444444444445,2.53,0.038461538461538464,379.4,True,2026-04-14 00:09:03
50.06,1,10,2026-04-14 00:09:48,37.08177,-121.59977,362.0,0.0,153.6,-12.6,,,,,0.0,10.7,-0.8,11.5,0.0,121.0,0.1,-0.02,1.0,99.0,-4.0,24,0.0,29.93,1250.0,,,307.0,,,,,0.0,0.0,,,,,,,1.0,,,0.0,,,,,,,,,77.0,19.0,1026.0,1026.0,13.9,2.5,,2.5,25.8,,,16.3,0.0,0.0,45.3,10.0,8.1,,,,,25.0,424.0,26.0,426.0,25.0,461.0,27.0,440.0,,,13.0,20.4,,25.8,2.0,0.0,,,1.576,1.576,+77.2,19.4,,,,,,75.2,66.2,,,,,77.0,795.2,78.8,798.8,77.0,861.8,80.6,824.0,,,66.92,1026.0,78.35,3.1499999999999915,-9.0,0.014152777777777778,2.614333333333333,0.0,379.4,True,2026-04-14 00:09:03
51.06,1,10,2026-04-14 00:09:49,37.08178,-121.59975,359.0,0.1,153.6,-12.6,,,,,0.0,10.7,-0.8,11.5,0.0,121.0,0.1,-0.01,0.9,99.0,12.0,24,0.0,29.93,1250.0,,,307.0,,,,,0.0,0.0,,,,,,,1.0,,,0.0,,,,,,,,,77.0,19.0,1034.0,1034.0,13.9,2.5,,2.5,25.8,,,16.3,0.0,0.0,39.3,10.0,8.1,,,,,26.0,433.0,26.0,437.0,25.0,473.0,28.0,454.0,,,13.0,16.1,,25.8,2.0,0.0,,,1.576,1.575,+77.4,19.3,,,,,,75.2,66.2,,,,,78.8,811.4,78.8,818.6,77.0,883.4,82.4,849.2,,,66.74000000000001,1034.0,79.25,4.049999999999997,-9.0,0.014847222222222223,2.6986666666666665,0.04,379.4,True,2026-04-14 00:09:03
52.06,1,10,2026-04-14 00:09:50,37.08178,-121.59975,359.0,0.1,153.6,-12.6,0.13,37.096 1,0.9,344.6,0.0,10.7,-0.9,11.5,0.0,121.0,0.1,-0.01,1.0,99.0,8.0,24,0.0,29.93,1259.0,,,307.0,,,,324.0,0.0,0.0,5.0,3.0,,,,,1.0,,,0.0,,,,,,,,,78.0,19.0,1044.0,1044.0,13.7,2.5,,2.5,25.8,,,16.3,0.0,0.0,33.9,10.0,8.1,,,,,26.0,442.0,27.0,446.0,26.0,483.0,28.0,463.0,,,13.0,12.7,,25.8,2.0,0.0,,,1.576,1.576,+77.5,19.2,,,,,,75.2,66.2,,,,,78.8,827.6,80.6,834.8,78.8,901.4,82.4,865.4,,,66.56,1044.0,80.14999999999999,4.949999999999989,-9.0,0.015541666666666667,2.867333333333333,0.04,379.4,True,2026-04-14 00:09:03
53.06,1,10,2026-04-14 00:09:51,37.08178,-121.59975,359.0,0.1,153.6,-12.6,0.13,37.096 1,0.9,344.6,0.0,10.7,-0.8,11.5,0.0,121.0,0.1,-0.02,1.0,99.0,16.0,24,0.0,29.93,1259.0,,,307.0,,,,324.0,0.0,0.0,5.0,3.0,,,,,1.0,,,0.0,,,,,,,,,78.0,19.0,1039.0,1039.0,13.6,2.5,,2.5,25.8,,,16.3,0.0,0.0,29.5,10.0,8.1,,,,,26.0,450.0,27.0,455.0,26.0,492.0,29.0,473.0,,,13.0,10.1,,25.8,2.0,0.0,,,1.576,1.575,+77.6,19.2,,,,,,75.2,66.2,,,,,78.8,842.0,80.6,851.0,78.8,917.6,84.2,883.4,,,66.56,1039.0,80.6,5.3999999999999915,-9.0,0.01623611111111111,3.0359999999999996,0.04,379.4,True,2026-04-14 00:09:03
54.06,1,10,2026-04-14 00:09:52,37.08178,-121.59975,359.0,0.1,153.6,-12.6,0.13,37.096 1,0.9,344.6,0.0,10.7,-0.9,11.5,0.0,121.0,0.1,-0.02,1.0,99.0,-24.0,24,0.0,29.93,1260.0,,,307.0,,,,324.0,0.0,0.0,5.0,3.0,,,,,1.0,,,0.0,,,,,,,,,77.0,19.0,1019.0,1019.0,13.6,2.5,,2.5,25.8,,,16.3,0.0,0.0,25.8,10.0,8.1,,,,,27.0,457.0,28.0,464.0,27.0,507.0,29.0,484.0,,,13.0,8.1,,25.8,2.0,0.0,,,1.576,1.575,+77.4,19.2,,,,,,75.2,66.2,,,,,80.6,854.6,82.4,867.2,80.6,944.6,84.2,903.2,,,66.56,1019.0,81.95,6.75,-9.0,0.016930555555555556,3.2046666666666663,0.04,379.4,True,2026-04-14 00:09:03
55.06,1,10,2026-04-14 00:09:53,37.08178,-121.59975,359.0,0.0,153.6,-12.6,0.13,37.096 1,0.9,344.6,0.0,10.7,-0.8,11.4,0.0,121.0,0.0,-0.01,1.0,99.0,-39.0,24,0.0,29.93,1260.0,,,307.0,,,,324.0,0.0,0.0,5.0,3.0,,,,,-2.0,,,-34.0,,,,,,,,,78.0,19.0,1037.0,1037.0,13.6,2.5,,2.5,25.8,,,16.3,0.0,0.0,22.6,10.0,8.1,,,,,28.0,463.0,28.0,470.0,27.0,516.0,30.0,492.0,,,13.0,6.5,,25.8,2.0,0.0,,,1.576,1.575,+77.6,19.1,,,,,,75.2,66.2,,,,,82.4,865.4,82.4,878.0,80.6,960.8,86.0,917.6,,,66.38,1037.0,82.85,7.6499999999999915,-9.0,0.017625000000000002,3.2889999999999997,0.0,379.4,True,2026-04-14 00:09:03
56.06,1,10,2026-04-14 00:09:54,37.08178,-121.59975,359.0,0.0,153.6,-12.6,0.13,37.096 1,0.9,344.6,0.0,10.7,-0.8,11.5,0.0,121.0,0.1,-0.02,0.9,99.0,-58.0,24,0.0,29.93,1260.0,,,307.0,,,,324.0,0.0,0.0,5.0,3.0,,,,,67.0,,,-35.0,,,,,,,,,78.0,19.0,1039.0,1039.0,13.4,2.5,,2.5,25.8,,,16.3,0.0,0.0,20.0,10.0,8.1,,,,,28.0,470.0,29.0,477.0,28.0,521.0,30.0,500.0,,,13.0,5.2,,25.8,2.0,0.0,,,1.576,1.627,+77.6,19.1,,,,,,75.2,66.2,,,,,82.4,878.0,84.2,890.6,82.4,969.8,86.0,932.0,,,66.38,1039.0,83.75,8.549999999999997,-9.0,0.018319444444444444,3.2889999999999997,0.0,379.4,True,2026-04-14 00:09:03
57.06,1,10,2026-04-14 00:09:55,37.08177,-121.59975,359.0,0.1,153.6,-12.6,0.13,37.096 1,0.9,344.6,0.0,10.7,-0.8,11.4,0.0,121.0,0.1,-0.02,1.0,99.0,-28.0,24,0.0,29.93,1270.0,,,307.0,,,,324.0,0.0,0.0,5.0,3.0,,,,,11.0,,,91.0,,,,,,,,,78.0,19.0,1031.0,1031.0,13.4,2.5,,2.5,25.8,,,16.3,0.0,0.0,17.8,10.0,8.1,,,,,28.0,476.0,30.0,482.0,28.0,526.0,31.0,507.0,,,13.0,4.3,,25.8,2.0,0.0,,,1.576,1.598,+77.7,19.1,,,,,,75.2,66.2,,,,,82.4,888.8,86.0,899.6,82.4,978.8,87.8,944.6,,,66.38,1031.0,84.65,9.450000000000003,-9.0,0.01901388888888889,3.373333333333333,0.04,379.4,True,2026-04-14 00:09:03
58.06,1,10,2026-04-14 00:09:56,37.08177,-121.59975,359.0,0.1,153.6,-12.6,0.13,37.096 1,0.9,344.6,0.0,10.6,-0.8,11.5,0.0,121.0,0.1,-0.02,1.0,99.0,-35.0,24,0.0,29.93,1270.0,,,307.0,,,,324.0,0.0,0.0,5.0,3.0,,,,,-61.0,,,-65.0,,,,,,,,,78.0,19.0,1040.0,1040.0,13.4,2.5,,2.5,25.8,,,16.3,0.0,0.0,15.8,10.0,8.1,,,,,29.0,481.0,30.0,487.0,28.0,530.0,32.0,514.0,,,13.0,3.5,,25.8,2.0,0.0,,,1.576,1.576,+77.6,19.1,,,,,,75.2,66.2,,,,,84.2,897.8,86.0,908.6,82.4,986.0,89.6,957.2,,,66.38,1040.0,85.55,10.349999999999994,-9.0,0.019708333333333335,3.542,0.04,379.4,True,2026-04-14 00:09:03
59.06,1,10,2026-04-14 00:09:57,37.08177,-121.59975,358.0,0.0,153.6,-12.6,0.13,37.096 1,0.9,344.6,0.0,10.7,-0.8,11.5,0.0,121.0,0.1,-0.02,1.0,99.0,-19.0,25,0.0,29.93,1270.0,,,307.0,,,,324.0,0.0,0.0,5.0,3.0,,,,,-9.0,,,18.0,,,,,,,,,78.0,19.0,1055.0,1055.0,13.3,2.4,,2.4,25.8,,,16.3,0.0,0.0,14.1,10.0,8.1,,,,,29.0,485.0,31.0,494.0,29.0,536.0,32.0,520.0,,,13.0,3.0,,25.8,2.0,0.0,,,1.576,1.577,+77.8,19.1,,,,,,77.0,66.2,,,,,84.2,905.0,87.8,921.2,84.2,996.8,89.6,968.0,,,66.38,1055.0,86.45,9.450000000000003,-10.799999999999997,0.02038888888888889,3.626333333333333,0.0,379.4,True,2026-04-14 00:09:03
60.06,1,10,2026-04-14 00:09:58,37.08177,-121.59975,358.0,0.0,153.6,-12.6,0.13,37.096 1,0.9,344.6,0.0,10.7,-0.8,11.5,0.0,121.0,0.1,-0.02,1.0,99.0,-18.0,25,0.0,29.93,1270.0,,,307.0,,,,324.0,0.0,0.0,5.0,3.0,,,,,-7.0,,,90.0,,,,,,,,,78.0,19.0,1058.0,1058.0,13.1,2.4,,2.4,25.8,,,16.3,0.0,0.0,12.7,10.0,8.1,,,,,30.0,489.0,31.0,500.0,29.0,541.0,33.0,527.0,,,13.0,2.5,,25.8,2.0,0.0,,,1.576,1.576,+77.9,19.1,,,,,,77.0,66.2,,,,,86.0,912.2,87.8,932.0,84.2,1005.8,91.4,980.6,,,66.38,1058.0,87.35000000000001,10.350000000000009,-10.799999999999997,0.021055555555555557,3.626333333333333,0.0,379.4,True,2026-04-14 00:09:03
61.06,1,10,2026-04-14 00:09:59,37.08177,-121.59975,358.0,0.0,153.6,-12.6,0.13,37.096 1,0.9,344.6,0.0,10.7,-0.8,11.5,0.0,121.0,0.1,-0.01,1.0,99.0,-36.0,25,0.0,29.93,1270.0,,,307.0,,,,324.0,0.0,0.0,5.0,3.0,,,,,-6.0,,,90.0,,,,,,,,,78.0,19.0,1061.0,1061.0,13.0,2.3,,2.3,25.8,,,16.3,0.0,0.0,11.7,10.0,8.1,,,,,30.0,494.0,32.0,505.0,30.0,543.0,33.0,534.0,,,13.0,2.2,,25.8,2.0,0.0,,,1.576,1.577,+78.0,19.1,,,,,,77.0,66.2,,,,,86.0,921.2,89.6,941.0,86.0,1009.4,91.4,993.2,,,66.38,1061.0,88.25,11.25,-10.799999999999997,0.021708333333333333,3.626333333333333,0.0,379.4,True,2026-04-14 00:09:03
62.06,1,10,2026-04-14 00:10:00,37.08176,-121.59975,358.0,0.0,153.6,-12.6,0.13,37.096 1,0.9,344.6,0.0,10.7,-0.9,11.4,0.0,120.0,0.1,-0.02,1.0,99.0,-24.0,25,0.0,29.93,1280.0,,,307.0,,,,324.0,0.0,0.0,5.0,3.0,,,,,-2.0,,,90.0,,,,,,,,,78.0,19.0,1067.0,1067.0,13.0,2.3,,2.3,25.8,,,16.3,0.0,0.0,10.8,10.0,8.1,,,,,31.0,498.0,32.0,508.0,30.0,545.0,34.0,538.0,,,12.0,1.9,,25.8,2.0,0.0,,,1.576,1.577,+78.0,19.1,,,,,,77.0,66.2,,,,,87.8,928.4,89.6,946.4,86.0,1013.0,93.2,1000.4,,,66.38,1067.0,89.14999999999999,12.149999999999991,-10.799999999999997,0.022347222222222223,3.626333333333333,0.0,379.4,True,2026-04-14 00:09:03
63.06,1,10,2026-04-14 00:10:01,37.08176,-121.59975,358.0,0.1,153.6,-12.6,0.13,37.096 1,0.9,344.6,0.0,10.7,-0.9,11.5,0.0,120.0,0.1,-0.02,1.0,99.0,-23.0,25,0.0,29.93,1280.0,,,307.0,,,,324.0,0.0,0.0,5.0,3.0,,,,,-2.0,,,90.0,,,,,,,,,78.0,19.0,1070.0,1070.0,12.9,2.3,,2.3,25.8,,,16.3,0.0,0.0,10.1,10.0,8.1,,,,,31.0,502.0,33.0,512.0,31.0,547.0,34.0,542.0,,,12.0,1.7,,25.8,2.0,0.0,,,1.576,1.576,+78.1,19.1,,,,,,77.0,66.2,,,,,87.8,935.6,91.4,953.6,87.8,1016.6,93.2,1007.6,,,66.38,1070.0,90.05,13.049999999999997,-10.799999999999997,0.022986111111111113,3.7106666666666666,0.04347826086956522,379.4,True,2026-04-14 00:09:03
64.06,1,10,2026-04-14 00:10:02,37.08176,-121.59975,359.0,0.0,153.6,-12.6,0.13,37.096 1,0.9,344.6,0.0,10.7,-0.8,11.5,0.0,120.0,0.1,-0.02,1.0,99.0,-3.0,25,0.0,29.93,1280.0,,,307.0,,,,324.0,0.0,0.0,5.0,3.0,,,,,-2.0,,,90.0,,,,,,,,,78.0,19.0,1073.0,1073.0,12.9,2.3,,2.3,25.8,,,16.3,0.0,0.0,9.4,10.0,8.1,,,,,32.0,506.0,33.0,516.0,32.0,549.0,35.0,544.0,,,12.0,1.6,,25.8,2.0,0.0,,,1.576,1.576,+78.1,19.1,,,,,,77.0,66.2,,,,,89.6,942.8,91.4,960.8,89.6,1020.2,95.0,1011.2,,,66.38,1073.0,91.4,14.400000000000006,-10.799999999999997,0.023625,3.7949999999999995,0.0,379.4,True,2026-04-14 00:09:03
65.06,1,10,2026-04-14 00:10:03,37.08176,-121.59975,359.0,0.1,153.6,-12.6,0.13,37.096 1,0.9,344.6,0.0,10.7,-0.8,11.5,0.0,120.0,0.1,-0.02,1.0,99.0,-22.0,25,0.0,29.93,1279.0,,,307.0,,,,324.0,0.0,0.0,5.0,3.0,,,,,-2.0,,,90.0,,,,,,,,,78.0,19.0,1039.0,1039.0,12.8,2.3,,2.3,25.8,,,16.3,0.0,0.0,8.9,10.0,8.1,,,,,32.0,508.0,34.0,519.0,32.0,550.0,35.0,546.0,,,12.0,1.4,,25.8,2.0,0.0,,,1.576,1.576,+78.0,19.1,,,,,,77.0,66.2,,,,,89.6,946.4,93.2,966.2,89.6,1022.0,95.0,1014.8,,,66.38,1039.0,91.85,14.849999999999994,-10.799999999999997,0.02426388888888889,3.879333333333333,0.04347826086956522,379.4,True,2026-04-14 00:09:03
66.06,1,10,2026-04-14 00:10:04,37.08176,-121.59975,363.0,0.1,153.6,-12.6,0.13,37.096 1,0.9,344.6,0.0,10.7,-0.8,11.5,0.0,119.0,0.1,-0.02,1.0,99.0,-26.0,25,0.0,29.93,1279.0,,,307.0,,,,324.0,0.0,0.0,5.0,3.0,,,,,-2.0,,,90.0,,,,,,,,,78.0,19.0,1041.0,1041.0,13.0,2.2,,2.2,26.0,,,16.2,0.0,0.0,8.7,10.0,8.1,,,,,33.0,511.0,34.0,522.0,33.0,550.0,36.0,549.0,,,12.0,1.3,,26.0,2.0,0.0,,,1.576,1.576,+77.7,19.1,,,,,,77.0,66.2,,,,,91.4,951.8,93.2,971.6,91.4,1022.0,96.8,1020.2,,,66.38,1041.0,93.19999999999999,16.19999999999999,-10.799999999999997,0.02488888888888889,4.048,0.045454545454545456,379.4,True,2026-04-14 00:09:03
67.06,1,10,2026-04-14 00:10:05,37.08176,-121.59975,363.0,0.0,153.6,-12.6,0.13,37.096 1,0.9,344.6,0.0,10.6,-0.9,11.5,0.0,119.0,0.1,-0.01,1.0,99.0,-38.0,25,0.0,29.93,1279.0,,,307.0,,,,324.0,0.0,0.0,5.0,3.0,,,,,-2.0,,,90.0,,,,,,,,,77.0,19.0,1034.0,1034.0,12.9,2.1,,2.1,25.9,,,16.2,0.0,0.0,8.6,10.0,8.1,,,,,33.0,514.0,35.0,527.0,33.0,560.0,37.0,560.0,,,12.0,1.2,,25.9,2.0,0.0,,,1.576,1.576,+77.5,19.1,,,,,,77.0,66.2,,,,,91.4,957.2,95.0,980.6,91.4,1040.0,98.6,1040.0,,,66.38,1034.0,94.1,17.099999999999994,-10.799999999999997,0.025486111111111112,4.132333333333333,0.0,379.4,True,2026-04-14 00:09:03
68.06,1,10,2026-04-14 00:10:06,37.08176,-121.59975,363.0,0.0,153.6,-12.6,0.13,37.096 1,0.9,344.6,0.0,10.6,-0.8,11.5,0.0,119.0,0.1,-0.02,1.0,99.0,-9.0,25,0.0,29.93,1288.0,,,307.0,,,,324.0,0.0,0.0,5.0,3.0,,,,,-2.0,,,90.0,,,,,,,,,77.0,19.0,1044.0,1044.0,12.8,2.0,,2.0,26.0,,,16.2,0.0,0.0,8.5,10.0,8.1,,,,,34.0,516.0,35.0,530.0,34.0,566.0,37.0,567.0,,,12.0,1.2,,26.0,2.0,0.0,,,1.576,1.576,+77.4,19.1,,,,,,77.0,66.2,,,,,93.2,960.8,95.0,986.0,93.2,1050.8,98.6,1052.6,,,66.38,1044.0,95.0,18.0,-10.799999999999997,0.026055555555555557,4.132333333333333,0.0,379.4,True,2026-04-14 00:09:03
69.06,1,10,2026-04-14 00:10:07,37.08175,-121.59975,363.0,0.1,153.6,-12.6,0.13,37.096 1,0.9,344.6,0.0,10.6,-0.8,11.5,0.0,119.0,0.1,-0.02,1.0,99.0,12.0,25,0.0,29.93,1288.0,,,307.0,,,,324.0,0.0,0.0,5.0,3.0,,,,,-2.0,,,90.0,,,,,,,,,77.0,19.0,1039.0,1039.0,12.7,1.9,,1.9,25.9,,,16.2,0.0,0.0,8.3,10.0,8.1,,,,,34.0,517.0,36.0,532.0,34.0,573.0,38.0,573.0,,,12.0,1.1,,25.9,2.0,0.0,,,1.576,1.576,+77.3,19.1,,,,,,77.0,66.2,,,,,93.2,962.6,96.8,989.6,93.2,1063.4,100.4,1063.4,,,66.38,1039.0,95.9,18.900000000000006,-10.799999999999997,0.026597222222222223,4.216666666666667,0.052631578947368425,379.4,True,2026-04-14 00:09:03
70.06,1,10,2026-04-14 00:10:08,37.08175,-121.59975,363.0,0.0,153.6,-12.6,0.13,37.096 1,0.9,344.6,0.0,10.6,-0.8,11.6,0.0,119.0,0.1,-0.02,0.9,99.0,-4.0,25,0.0,29.93,1288.0,,,307.0,,,,324.0,0.0,0.0,5.0,3.0,,,,,-2.0,,,87.0,,,,,,,,,77.0,19.0,1029.0,1029.0,12.7,1.9,,1.9,25.9,,,16.2,0.0,0.0,8.1,10.0,8.1,,,,,35.0,519.0,36.0,535.0,34.0,575.0,38.0,576.0,,,12.0,1.1,,25.9,2.0,0.0,,,1.576,1.576,+77.5,19.1,,,,,,77.0,66.2,,,,,95.0,966.2,96.8,995.0,93.2,1067.0,100.4,1068.8,,,66.38,1029.0,96.35000000000001,19.35000000000001,-10.799999999999997,0.027125,4.300999999999999,0.0,379.4,True,2026-04-14 00:09:03
71.06,1,10,2026-04-14 00:10:09,37.08175,-121.59974,363.0,0.0,153.6,-12.6,0.13,37.096 1,0.9,344.6,0.0,10.7,-0.8,11.5,0.0,119.0,0.1,-0.01,1.0,99.0,14.0,25,0.0,29.93,1288.0,,,307.0,,,,324.0,0.0,0.0,5.0,3.0,,,,,-2.0,,,86.0,,,,,1.0,1.0,0.0,1200.0,77.0,19.0,1035.0,1035.0,12.8,1.8,,1.8,25.9,,,16.2,0.0,0.0,7.9,10.0,8.1,,,,,35.0,521.0,37.0,539.0,35.0,582.0,39.0,582.0,,,10.0,1.1,,25.9,2.0,0.0,,,1.576,1.576,+77.3,19.2,,,,,,77.0,66.2,,,,,95.0,969.8,98.6,1002.2,95.0,1079.6,102.2,1079.6,,,66.56,1035.0,97.69999999999999,20.69999999999999,-10.799999999999997,0.02763888888888889,4.300999999999999,0.0,379.4,True,2026-04-14 00:09:03
72.06,1,10,2026-04-14 00:10:10,37.08175,-121.59974,363.0,0.1,153.6,-12.6,0.13,37.096 1,0.9,344.6,0.0,10.7,-0.9,11.5,0.0,119.0,0.1,-0.02,1.0,99.0,1.0,25,0.0,29.93,1288.0,,,307.0,,,,324.0,0.0,0.0,5.0,3.0,,,,,-2.0,,,86.0,,,,,1.0,0.0,0.0,1200.0,77.0,19.0,1043.0,1043.0,12.7,1.8,,1.8,25.9,,,16.2,0.0,0.0,7.8,10.0,8.1,,,,,36.0,523.0,38.0,540.0,35.0,584.0,40.0,586.0,,,1.0,1.0,,25.9,2.0,0.0,,,1.576,1.576,+77.3,19.2,,,,,,77.0,66.2,,,,,96.8,973.4,100.4,1004.0,95.0,1083.2,104.0,1086.8,,,66.56,1043.0,99.05,22.049999999999997,-10.799999999999997,0.02813888888888889,4.385333333333333,0.05555555555555556,379.4,True,2026-04-14 00:09:03
73.06,1,10,2026-04-14 00:10:11,37.08175,-121.59974,364.0,0.0,153.6,-12.6,0.13,37.096 1,0.9,344.6,0.0,10.7,-1.0,11.5,0.0,119.0,0.1,-0.02,1.0,99.0,-2.0,25,0.0,29.93,1288.0,,,307.0,,,,324.0,0.0,0.0,5.0,3.0,,,,,-1.0,,,86.0,,,,,1.0,0.0,0.0,1200.0,77.0,19.0,1041.0,1041.0,12.6,1.8,,1.8,25.9,,,16.2,0.0,0.0,7.7,10.0,8.1,,,,,36.0,525.0,38.0,544.0,36.0,587.0,40.0,589.0,,,-11.0,1.0,,25.9,2.0,0.0,,,1.576,1.576,+77.3,19.2,,,,,,77.0,66.2,,,,,96.8,977.0,100.4,1011.2,96.8,1088.6,104.0,1092.2,,,66.56,1041.0,99.50000000000001,22.500000000000014,-10.799999999999997,0.02863888888888889,4.469666666666666,0.0,379.4,True,2026-04-14 00:09:03
74.06,1,10,2026-04-14 00:10:12,37.08172,-121.59972,364.0,0.0,153.6,-12.6,0.13,37.096 1,0.9,344.6,0.0,10.7,-1.0,11.4,0.0,119.0,0.1,-0.02,1.0,99.0,2.0,25,0.0,29.93,1288.0,,,307.0,,,,324.0,0.0,0.0,5.0,3.0,,,,,-1.0,,,86.0,,,,,1.0,0.0,0.0,1200.0,77.0,19.0,1042.0,1042.0,12.6,1.7,,1.7,25.9,,,16.2,0.0,0.0,7.6,10.0,8.1,,,,,37.0,527.0,39.0,546.0,37.0,589.0,41.0,592.0,,,-22.0,1.0,,25.9,2.0,0.0,,,1.576,1.576,+77.3,19.2,,,,,,77.0,66.2,,,,,98.6,980.6,102.2,1014.8,98.6,1092.2,105.8,1097.6,,,66.56,1042.0,101.29999999999998,24.299999999999983,-10.799999999999997,0.029125,4.469666666666666,0.0,379.4,True,2026-04-14 00:09:03
75.06,1,10,2026-04-14 00:10:13,37.08171,-121.59972,360.0,0.0,153.6,-12.6,0.13,37.096 1,0.9,344.5,0.0,10.7,-0.9,11.4,0.0,119.0,0.1,-0.01,1.0,99.0,34.0,25,0.0,29.93,1289.0,,,307.0,,,,324.0,0.0,0.0,5.0,3.0,,,,,-1.0,,,86.0,,,,,1.0,0.0,0.0,1200.0,77.0,19.0,1029.0,1029.0,12.6,1.7,,1.7,25.8,,,16.2,0.0,0.0,7.5,10.0,8.1,,,,,37.0,529.0,39.0,547.0,37.0,590.0,41.0,595.0,,,-25.0,1.0,,25.8,2.0,0.0,,,1.576,1.576,+77.2,19.2,,,,,,77.0,66.2,,,,,98.6,984.2,102.2,1016.6,98.6,1094.0,105.8,1103.0,,,66.56,1029.0,101.29999999999998,24.299999999999983,-10.799999999999997,0.029597222222222223,4.469666666666666,0.0,379.4,True,2026-04-14 00:09:03
76.06,1,10,2026-04-14 00:10:14,37.08171,-121.59972,360.0,0.0,153.6,-12.6,0.13,37.096 1,0.9,344.5,0.0,10.7,-0.9,11.4,0.0,119.0,0.1,-0.01,1.0,99.0,35.0,25,0.0,29.93,1289.0,,,307.0,,,,324.0,0.0,0.0,5.0,3.0,,,,,-1.0,,,84.0,,,,,1.0,0.0,0.0,1200.0,77.0,19.0,1055.0,1055.0,12.7,1.8,,1.8,25.9,,,16.2,0.0,0.0,7.3,10.0,8.1,,,,,38.0,531.0,40.0,549.0,37.0,595.0,42.0,599.0,,,-25.0,1.0,,25.9,2.0,0.0,,,1.576,1.576,+77.2,19.2,,,,,,77.0,66.2,,,,,100.4,987.8,104.0,1020.2,98.6,1103.0,107.6,1110.2,,,66.56,1055.0,102.65,25.650000000000006,-10.799999999999997,0.030083333333333333,4.469666666666666,0.0,379.4,True,2026-04-14 00:09:03
77.06,1,10,2026-04-14 00:10:15,37.08171,-121.59972,360.0,0.1,153.6,-12.6,0.13,37.096 1,0.9,344.5,0.0,10.7,-0.9,11.4,0.0,119.0,0.1,-0.01,1.0,99.0,10.0,25,0.0,29.93,1289.0,,,307.0,,,,324.0,0.0,0.0,5.0,3.0,,,,,-1.0,,,83.0,,,,,1.0,0.0,0.0,1200.0,77.0,19.0,1046.0,1046.0,12.6,1.7,,1.7,25.9,,,16.2,0.0,0.0,7.2,10.0,8.1,,,,,39.0,532.0,41.0,550.0,38.0,597.0,43.0,602.0,,,-25.0,1.0,,25.9,2.0,0.0,,,1.576,1.576,+77.4,19.3,,,,,,77.0,66.2,,,,,102.2,989.6,105.8,1022.0,100.4,1106.6,109.4,1115.6,,,66.74000000000001,1046.0,104.45,27.450000000000003,-10.799999999999997,0.030569444444444444,4.553999999999999,0.05882352941176471,379.4,True,2026-04-14 00:09:03
78.06,1,10,2026-04-14 00:10:16,37.08171,-121.59972,361.0,0.1,153.6,-12.6,0.13,37.096 1,0.9,344.5,0.0,10.7,-0.9,11.4,0.0,119.0,0.1,-0.01,1.0,99.0,25.0,25,0.0,29.93,1298.0,,,307.0,,,,324.0,0.0,0.0,5.0,3.0,,,,,-1.0,,,82.0,,,,,1.0,0.0,0.0,1200.0,77.0,19.0,1037.0,1037.0,12.5,1.7,,1.7,25.8,,,16.2,0.0,0.0,7.0,10.0,8.1,,,,,39.0,535.0,41.0,554.0,39.0,599.0,44.0,605.0,,,-25.0,1.0,,25.8,2.0,0.0,,,1.576,1.576,+77.3,19.3,,,,,,77.0,66.2,,,,,102.2,995.0,105.8,1029.2,102.2,1110.2,111.2,1121.0,,,66.74000000000001,1037.0,105.35,28.349999999999994,-10.799999999999997,0.03104166666666667,4.722666666666666,0.05882352941176471,379.4,True,2026-04-14 00:09:03
79.06,1,10,2026-04-14 00:10:17,37.08171,-121.59972,361.0,0.1,153.6,-12.6,0.13,37.096 1,0.9,344.5,0.0,10.8,-0.9,11.4,0.0,119.0,0.1,-0.01,1.0,99.0,42.0,25,0.0,29.93,1298.0,,,307.0,,,,324.0,0.0,0.0,5.0,3.0,,,,,-1.0,,,81.0,,,,,1.0,0.0,0.0,1200.0,77.0,19.0,1044.0,1044.0,12.5,1.8,,1.8,25.9,,,16.2,0.0,0.0,6.9,10.0,8.1,,,,,40.0,537.0,42.0,559.0,39.0,600.0,44.0,611.0,,,-25.0,1.0,,25.9,2.0,0.0,,,1.576,1.576,+77.0,19.3,,,,,,77.0,66.2,,,,,104.0,998.6,107.6,1038.2,102.2,1112.0,111.2,1131.8,,,66.74000000000001,1044.0,106.25,29.25,-10.799999999999997,0.03152777777777778,4.891333333333333,0.05555555555555556,379.4,True,2026-04-14 00:09:03
80.06,1,10,2026-04-14 00:10:18,37.08171,-121.59972,360.0,0.0,153.6,-12.6,0.13,37.096 1,0.9,344.5,0.0,10.7,-0.8,11.4,0.0,119.0,0.1,-0.02,0.9,99.0,39.0,25,0.0,29.93,1298.0,,,307.0,,,,324.0,0.0,0.0,5.0,3.0,,,,,-1.0,,,79.0,,,,,1.0,0.0,0.0,1200.0,77.0,19.0,1032.0,1032.0,12.5,1.8,,1.8,25.8,,,16.2,0.0,0.0,6.7,10.0,8.1,,,,,40.0,538.0,42.0,560.0,40.0,601.0,44.0,614.0,,,-25.0,1.0,,25.8,2.0,0.0,,,1.576,1.576,+77.2,19.3,,,,,,77.0,66.2,,,,,104.0,1000.4,107.6,1040.0,104.0,1113.8,111.2,1137.2,,,66.74000000000001,1032.0,106.69999999999999,29.69999999999999,-10.799999999999997,0.03202777777777778,4.975666666666666,0.0,379.4,True,2026-04-14 00:09:03
81.06,1,10,2026-04-14 00:10:19,37.08171,-121.59972,360.0,0.1,153.6,-12.6,0.13,37.096 1,0.9,344.5,0.0,10.8,-0.9,11.3,0.0,119.0,0.1,-0.02,1.0,99.0,11.0,25,0.0,29.93,1299.0,,,307.0,,,,324.0,0.0,0.0,5.0,3.0,,,,,-1.0,,,78.0,,,,,1.0,0.0,0.0,1200.0,77.0,19.0,1045.0,1045.0,12.6,1.8,,1.8,25.8,,,16.2,0.0,0.0,6.7,10.0,8.1,,,,,41.0,540.0,43.0,561.0,40.0,602.0,45.0,616.0,,,-25.0,1.0,,25.8,2.0,0.0,,,1.576,1.576,+77.1,19.3,,,,,,77.0,66.2,,,,,105.8,1004.0,109.4,1041.8,104.0,1115.6,113.0,1140.8,,,66.74000000000001,1045.0,108.05,31.049999999999997,-10.799999999999997,0.03252777777777778,5.06,0.05555555555555556,379.4,True,2026-04-14 00:09:03
82.06,1,10,2026-04-14 00:10:20,37.08171,-121.59972,360.0,0.1,153.6,-12.6,0.13,37.096 1,0.9,344.5,0.0,10.8,-0.9,11.4,0.0,119.0,0.1,-0.02,0.9,99.0,19.0,25,0.0,29.93,1299.0,,,307.0,,,,324.0,0.0,0.0,5.0,3.0,,,,,-1.0,,,78.0,,,,,1.0,0.0,0.0,1200.0,77.0,19.0,1033.0,1033.0,12.5,1.8,,1.8,25.8,,,16.2,0.0,0.0,6.6,10.0,8.1,,,,,41.0,542.0,43.0,562.0,41.0,604.0,46.0,620.0,,,-25.0,1.0,,25.8,2.0,0.0,,,1.576,1.576,+77.0,19.3,,,,,,77.0,66.2,,,,,105.8,1007.6,109.4,1043.6,105.8,1119.2,114.8,1148.0,,,66.74000000000001,1033.0,108.95,31.950000000000003,-10.799999999999997,0.03302777777777778,5.228666666666666,0.05555555555555556,379.4,True,2026-04-14 00:09:03
83.06,1,10,2026-04-14 00:10:21,37.0817,-121.59972,360.0,0.0,153.6,-12.6,0.13,37.096 1,0.9,344.5,0.0,10.8,-0.9,11.4,0.0,119.0,0.1,-0.01,1.0,99.0,48.0,25,0.0,29.93,1299.0,,,307.0,,,,324.0,0.0,0.0,5.0,3.0,,,,,-1.0,,,76.0,,,,,1.0,0.0,0.0,1200.0,77.0,19.0,1036.0,1036.0,12.5,1.8,,1.8,25.8,,,16.2,0.0,0.0,6.5,10.0,8.1,,,,,42.0,544.0,44.0,563.0,41.0,604.0,47.0,621.0,,,-25.0,1.0,,25.8,2.0,0.0,,,1.576,1.576,+77.0,19.4,,,,,,77.0,66.2,,,,,107.6,1011.2,111.2,1045.4,105.8,1119.2,116.6,1149.8,,,66.92,1036.0,110.29999999999998,33.29999999999998,-10.799999999999997,0.03352777777777778,5.313,0.0,379.4,True,2026-04-14 00:09:03
84.06,1,10,2026-04-14 00:10:22,37.0817,-121.59971,359.0,0.1,153.6,-12.6,0.13,37.096 1,0.9,344.5,0.0,10.8,-0.9,11.4,0.0,119.0,0.1,-0.01,1.0,99.0,25.0,25,0.0,29.93,1299.0,,,307.0,,,,324.0,0.0,0.0,5.0,3.0,,,,,-1.0,,,76.0,,,,,1.0,0.0,0.0,1200.0,77.0,19.0,1047.0,1047.0,12.5,1.8,,1.8,25.8,,,16.2,0.0,0.0,6.4,10.0,8.1,,,,,42.0,545.0,45.0,564.0,42.0,606.0,47.0,621.0,,,-25.0,1.0,,25.8,2.0,0.0,,,1.576,1.576,+77.1,19.4,,,,,,77.0,66.2,,,,,107.6,1013.0,113.0,1047.2,107.6,1122.8,116.6,1149.8,,,66.92,1047.0,111.19999999999999,34.19999999999999,-10.799999999999997,0.034027777777777775,5.397333333333333,0.05555555555555556,379.4,True,2026-04-14 00:09:03
85.06,1,10,2026-04-14 00:10:23,37.0817,-121.59971,359.0,0.0,153.6,-12.6,0.13,37.096 1,0.9,344.5,0.0,10.7,-0.8,11.4,0.0,119.0,0.1,-0.02,1.0,99.0,-31.0,25,0.0,29.93,1299.0,,,307.0,,,,324.0,0.0,0.0,5.0,3.0,,,,,-1.0,,,75.0,,,,,1.0,0.0,0.0,1200.0,77.0,19.0,1042.0,1042.0,12.5,1.8,,1.8,25.8,,,16.2,0.0,0.0,6.3,10.0,8.1,,,,,43.0,547.0,45.0,566.0,42.0,609.0,48.0,622.0,,,-25.0,0.0,,25.8,2.0,0.0,,,1.576,1.577,+77.0,19.4,,,,,,77.0,66.2,,,,,109.4,1016.6,113.0,1050.8,107.6,1128.2,118.4,1151.6,,,66.92,1042.0,112.1,35.099999999999994,-10.799999999999997,0.034527777777777775,5.4816666666666665,0.0,379.4,True,2026-04-14 00:09:03
86.06,1,10,2026-04-14 00:10:24,37.0817,-121.59971,359.0,0.0,153.6,-12.6,0.13,37.096 1,0.9,344.5,0.0,10.7,-0.9,11.4,0.0,119.0,0.1,-0.01,1.0,99.0,-22.0,25,0.0,29.93,1299.0,,,307.0,,,,324.0,0.0,0.0,5.0,3.0,,,,,-1.0,,,75.0,,,,,1.0,0.0,0.0,1200.0,77.0,19.0,1057.0,1057.0,12.4,1.8,,1.8,25.8,,,16.2,0.0,0.0,6.2,10.0,8.1,,,,,43.0,548.0,46.0,565.0,43.0,610.0,49.0,624.0,,,-25.0,0.0,,25.8,2.0,0.0,,,1.576,1.577,+77.2,19.4,,,,,,77.0,66.2,,,,,109.4,1018.4,114.8,1049.0,109.4,1130.0,120.2,1155.2,,,66.92,1057.0,113.45000000000002,36.45000000000002,-10.799999999999997,0.035027777777777776,5.4816666666666665,0.0,379.4,True,2026-04-14 00:09:03
87.06,1,10,2026-04-14 00:10:25,37.0817,-121.59971,358.0,0.1,153.6,-12.6,0.13,37.096 1,0.9,344.5,0.0,10.8,-0.9,11.4,0.0,119.0,0.1,-0.01,1.0,99.0,-24.0,25,0.0,29.93,1299.0,,,307.0,,,,324.0,0.0,0.0,5.0,3.0,,,,,-1.0,,,59.0,,,,,1.0,0.0,0.0,1200.0,77.0,19.0,1040.0,1040.0,12.4,1.8,,1.8,25.8,,,16.2,0.0,0.0,6.2,10.0,8.1,,,,,44.0,549.0,47.0,566.0,44.0,610.0,49.0,625.0,,,-25.0,0.0,,25.8,2.0,0.0,,,1.576,1.576,+77.2,19.4,,,,,,77.0,66.2,,,,,111.2,1020.2,116.6,1050.8,111.2,1130.0,120.2,1157.0,,,66.92,1040.0,114.8,37.8,-10.799999999999997,0.035527777777777776,5.566,0.05555555555555556,379.4,True,2026-04-14 00:09:03
88.06,1,10,2026-04-14 00:10:26,37.08169,-121.5997,359.0,1.6,183.9,-12.6,0.13,37.096 1,0.9,344.5,0.0,10.9,-0.9,12.2,0.0,119.0,0.4,0.01,1.0,99.0,-23.0,25,0.0,29.93,1299.0,,,307.0,,,,324.0,0.0,0.0,5.0,3.0,,,,,2.0,,,90.0,,,,,1.0,0.0,0.0,1200.0,77.0,19.0,1044.0,1044.0,12.4,1.8,,1.8,25.8,,,16.2,0.0,0.0,6.1,10.0,8.1,,,,,45.0,550.0,47.0,566.0,44.0,610.0,50.0,626.0,,,-25.0,0.0,,25.8,2.0,0.0,,,1.477,1.527,+77.1,19.5,,,,,,77.0,66.2,,,,,113.0,1022.0,116.6,1050.8,111.2,1130.0,122.0,1158.8,,,67.1,1044.0,115.69999999999999,38.69999999999999,-10.799999999999997,0.03602777777777778,6.999666666666666,0.888888888888889,379.4,True,2026-04-14 00:09:03
89.06,1,10,2026-04-14 00:10:27,37.08169,-121.5997,358.0,1.0,249.3,-12.6,0.13,37.096 1,0.9,344.5,0.0,11.0,-0.9,16.2,0.0,119.0,2.4,-0.01,0.9,99.0,-58.0,25,0.0,29.93,1299.0,,,307.0,,,,324.0,0.0,0.0,5.0,3.0,,,,,2.0,,,86.0,,,,,1.0,0.0,0.0,1200.0,77.0,19.0,1047.0,1047.0,12.5,1.9,,1.9,25.8,,,16.2,0.0,0.0,6.0,10.0,8.1,,,,,45.0,552.0,48.0,567.0,45.0,612.0,51.0,627.0,,,-25.0,0.0,,25.8,2.0,0.0,,,1.489,1.371,+76.9,19.5,,,,,,77.0,66.2,,,,,113.0,1025.6,118.4,1052.6,113.0,1133.6,123.8,1160.6,,,67.1,1047.0,117.05000000000001,40.05000000000001,-10.799999999999997,0.03654166666666667,9.192333333333332,0.5263157894736842,379.4,True,2026-04-14 00:09:03
90.06,1,10,2026-04-14 00:10:28,37.0817,-121.59971,358.0,0.8,262.6,-12.6,0.13,37.096 1,0.9,344.5,0.0,11.1,-1.0,21.7,0.0,119.0,4.3,-0.02,0.9,99.0,-66.0,25,0.0,29.93,1299.0,,,307.0,,,,324.0,0.0,0.0,5.0,3.0,,,,,2.0,,,84.0,,,,,1.0,0.0,0.0,1200.0,77.0,20.0,1052.0,1052.0,12.6,1.9,,1.9,25.8,,,16.2,0.0,0.0,6.0,10.0,8.1,,,,,46.0,553.0,48.0,568.0,45.0,613.0,51.0,629.0,,,-25.0,0.0,,25.8,2.0,0.0,,,1.473,1.44,+76.9,19.5,,,,,,77.0,68.0,,,,,114.8,1027.4,118.4,1054.4,113.0,1135.4,123.8,1164.2,,,67.1,1052.0,117.50000000000001,40.500000000000014,-9.0,0.037069444444444447,10.710333333333333,0.4210526315789474,379.4,True,2026-04-14 00:09:03
91.06,1,10,2026-04-14 00:10:29,37.0817,-121.5997,359.0,1.2,80.7,-12.6,0.13,37.096 1,0.9,344.5,0.0,11.2,-1.1,27.5,0.0,119.0,5.4,-0.05,1.0,99.0,-34.0,25,0.0,29.93,1299.0,,,307.0,,,,324.0,0.0,0.0,5.0,3.0,,,,,0.0,,,30.0,,,,,1.0,0.0,0.0,1200.0,77.0,20.0,1068.0,1068.0,12.5,1.9,,1.9,25.8,,,16.2,0.0,0.0,5.9,10.0,8.1,,,,,46.0,554.0,49.0,569.0,46.0,614.0,52.0,629.0,,,-25.0,0.0,,25.8,2.0,0.0,,,1.676,1.638,+77.2,19.5,,,,,,77.0,68.0,,,,,114.8,1029.2,120.2,1056.2,114.8,1137.2,125.6,1164.2,,,67.1,1068.0,118.85,41.849999999999994,-9.0,0.03759722222222222,12.396999999999998,0.631578947368421,379.4,True,2026-04-14 00:09:03
92.06,1,10,2026-04-14 00:10:30,37.0817,-121.5997,360.0,0.8,74.0,-12.6,0.13,37.096 1,0.9,344.5,0.0,11.2,-1.0,29.3,0.0,119.0,3.5,-0.02,1.1,99.0,-8.0,25,0.0,29.93,1299.0,,,307.0,,,,324.0,0.0,0.0,5.0,3.0,,,,,1.0,,,30.0,,,,,1.0,0.0,0.0,1200.0,77.0,20.0,1040.0,1040.0,12.5,1.9,,1.9,25.8,,,16.2,0.0,0.0,5.8,10.0,8.1,,,,,47.0,555.0,50.0,570.0,46.0,613.0,52.0,631.0,,,-25.0,0.0,,25.8,2.0,0.0,,,1.432,1.469,+77.1,19.5,,,,,,77.0,68.0,,,,,116.6,1031.0,122.0,1058.0,114.8,1135.4,125.6,1167.8,,,67.1,1040.0,119.75,42.75,-9.0,0.038125,14.083666666666666,0.4210526315789474,379.4,True,2026-04-14 00:09:03
93.06,1,10,2026-04-14 00:10:31,37.08171,-121.59969,361.0,0.4,63.4,-12.6,0.13,37.096 1,0.9,344.5,0.0,11.1,-1.1,30.6,0.0,119.0,2.3,-0.03,1.0,99.0,-12.0,25,0.0,29.93,1299.0,,,307.0,,,,324.0,0.0,0.0,5.0,3.0,,,,,1.0,,,29.0,,,,,1.0,0.0,0.0,1200.0,77.0,20.0,1054.0,1054.0,12.5,1.9,,1.9,25.8,,,16.2,0.0,0.0,5.7,10.0,8.1,,,,,47.0,557.0,50.0,570.0,47.0,616.0,53.0,633.0,,,-25.0,0.0,,25.8,2.0,0.0,,,1.691,1.708,+77.0,19.6,,,,,,77.0,68.0,,,,,116.6,1034.6,122.0,1058.0,116.6,1140.8,127.4,1171.4,,,67.28,1054.0,120.65,43.650000000000006,-9.0,0.03865277777777778,15.095666666666666,0.2105263157894737,379.4,True,2026-04-14 00:09:03
94.06,1,10,2026-04-14 00:10:32,37.08171,-121.59969,361.0,0.5,63.4,-12.6,0.13,37.096 1,0.9,344.5,0.0,11.0,-1.4,31.4,0.0,118.0,1.4,-0.03,1.0,99.0,-35.0,25,0.0,29.93,1308.0,,,307.0,,,,324.0,0.0,0.0,5.0,3.0,,,,,0.0,,,28.0,,,,,1.0,0.0,0.0,1200.0,77.0,20.0,1052.0,1052.0,12.5,1.9,,1.9,25.8,,,16.2,0.0,0.0,5.7,10.0,8.1,,,,,48.0,557.0,51.0,570.0,48.0,618.0,54.0,629.0,,,-25.0,0.0,,25.8,2.0,0.0,,,1.575,1.593,+76.7,19.6,,,,,,77.0,68.0,,,,,118.4,1034.6,123.8,1058.0,118.4,1144.4,129.2,1164.2,,,67.28,1052.0,122.44999999999999,45.44999999999999,-9.0,0.03918055555555556,15.854666666666665,0.2631578947368421,379.4,True,2026-04-14 00:09:03
95.06,1,10,2026-04-14 00:10:33,37.0817,-121.59969,362.0,0.4,63.4,-12.6,0.13,37.096 1,0.9,344.5,0.0,10.9,-1.6,32.1,0.0,118.0,1.0,-0.03,1.0,99.0,-55.0,25,0.0,29.93,1308.0,,,307.0,,,,324.0,0.0,0.0,5.0,3.0,,,,,0.0,,,27.0,,,,,1.0,0.0,0.0,1200.0,77.0,20.0,1049.0,1049.0,12.5,1.9,,1.9,25.7,,,16.2,0.0,0.0,5.6,10.0,8.1,,,,,49.0,559.0,51.0,570.0,48.0,620.0,54.0,630.0,,,-25.0,0.0,,25.7,2.0,0.0,,,1.689,1.71,+76.8,19.6,,,,,,77.0,68.0,,,,,120.2,1038.2,123.8,1058.0,118.4,1148.0,129.2,1166.0,,,67.28,1049.0,122.89999999999999,45.89999999999999,-9.0,0.03970833333333333,16.613666666666667,0.2105263157894737,379.4,True,2026-04-14 00:09:03
96.06,1,10,2026-04-14 00:10:34,37.0817,-121.59969,363.0,0.1,63.4,-12.6,0.13,37.096 1,0.9,344.4,0.0,10.7,-1.5,32.0,0.0,116.0,0.5,-0.03,1.0,99.0,-57.0,25,0.0,29.93,1308.0,,,307.0,,,,324.0,0.0,0.0,5.0,3.0,,,,,0.0,,,26.0,,,,,1.0,0.0,0.0,1200.0,77.0,20.0,1057.0,1057.0,12.6,1.9,,1.9,25.8,,,16.2,0.0,0.0,5.6,10.0,8.1,,,,,49.0,567.0,52.0,570.0,49.0,623.0,55.0,631.0,,,-25.0,0.0,,25.8,2.0,0.0,,,1.628,1.659,+76.7,19.6,,,,,,77.0,68.0,,,,,120.2,1052.6,125.6,1058.0,120.2,1153.4,131.0,1167.8,,,67.28,1057.0,124.24999999999999,47.249999999999986,-9.0,0.04023611111111111,17.03533333333333,0.052631578947368425,379.4,True,2026-04-14 00:09:03
97.06,1,10,2026-04-14 00:10:35,37.0817,-121.59969,365.0,0.1,63.4,-12.6,0.13,37.096 1,0.9,344.5,0.0,10.6,-1.5,32.0,0.0,116.0,0.2,-0.02,1.0,99.0,-48.0,25,0.0,29.93,1305.0,,,307.0,,,,324.0,0.0,0.0,5.0,3.0,,,,,0.0,,,26.0,,,,,1.0,0.0,0.0,1200.0,77.0,20.0,1064.0,1064.0,12.4,1.9,,1.9,25.8,,,16.2,0.0,0.0,5.6,10.0,8.1,,,,,50.0,568.0,53.0,570.0,49.0,622.0,56.0,632.0,,,-25.0,0.0,,25.8,2.0,0.0,,,1.6,1.658,+76.9,19.6,,,,,,77.0,68.0,,,,,122.0,1054.4,127.4,1058.0,120.2,1151.6,132.8,1169.6,,,67.28,1064.0,125.6,48.599999999999994,-9.0,0.04076388888888889,17.203999999999997,0.052631578947368425,379.4,True,2026-04-14 00:09:03
98.06,1,10,2026-04-14 00:10:36,37.0817,-121.59969,364.0,0.0,63.4,-12.6,0.13,37.096 1,0.9,344.5,0.0,10.5,-1.5,32.0,0.0,116.0,0.1,-0.03,1.0,99.0,-28.0,25,0.0,29.93,1305.0,,,307.0,,,,324.0,0.0,0.0,5.0,3.0,,,,,0.0,,,26.0,,,,,1.0,0.0,0.0,1200.0,77.0,20.0,1058.0,1058.0,12.4,1.9,,1.9,25.8,,,16.2,0.0,0.0,5.5,10.0,8.1,,,,,50.0,568.0,53.0,571.0,50.0,625.0,57.0,631.0,,,-25.0,0.0,,25.8,2.0,0.0,,,1.625,1.581,+76.9,19.7,,,,,,77.0,68.0,,,,,122.0,1054.4,127.4,1059.8,122.0,1157.0,134.6,1167.8,,,67.46,1058.0,126.5,49.5,-9.0,0.041291666666666664,17.28833333333333,0.0,379.4,True,2026-04-14 00:09:03
99.06,1,10,2026-04-14 00:10:37,37.0817,-121.59969,363.0,0.0,63.4,-12.6,0.13,37.096 1,0.9,344.5,0.0,10.5,-1.5,32.1,0.0,116.0,0.1,-0.03,0.9,99.0,16.0,25,0.0,29.93,1305.0,,,307.0,,,,324.0,0.0,0.0,5.0,3.0,,,,,0.0,,,26.0,,,,,1.0,0.0,0.0,1200.0,77.0,20.0,1064.0,1064.0,12.4,1.9,,1.9,25.8,,,16.2,0.0,0.0,5.5,10.0,8.1,,,,,51.0,567.0,54.0,572.0,51.0,623.0,57.0,632.0,,,-25.0,0.0,,25.8,2.0,0.0,,,1.625,1.575,+77.0,19.7,,,,,,77.0,68.0,,,,,123.8,1052.6,129.2,1061.6,123.8,1153.4,134.6,1169.6,,,67.46,1064.0,127.85,50.849999999999994,-9.0,0.041819444444444444,17.28833333333333,0.0,379.4,True,2026-04-14 00:09:03
100.06,1,10,2026-04-14 00:10:38,37.0817,-121.59968,363.0,0.0,63.4,-12.6,0.12,37.096 1,0.9,344.4,0.0,10.5,-1.5,32.0,0.0,116.0,0.1,-0.02,1.0,99.0,28.0,25,0.0,29.93,1305.0,,,307.0,,,,324.0,0.0,0.0,5.0,2.0,,,,,0.0,,,26.0,,,,,1.0,0.0,0.0,1200.0,77.0,20.0,1057.0,1057.0,12.3,1.9,,1.9,25.7,,,16.2,0.0,0.0,5.4,10.0,8.1,,,,,51.0,568.0,54.0,572.0,51.0,623.0,58.0,634.0,,,-25.0,0.0,,25.7,2.0,0.0,,,1.625,1.575,+77.1,19.7,,,,,,77.0,68.0,,,,,123.8,1054.4,129.2,1061.6,123.8,1153.4,136.4,1173.2,,,67.46,1057.0,128.29999999999998,51.29999999999998,-9.0,0.042347222222222224,17.28833333333333,0.0,379.4,True,2026-04-14 00:09:03
101.06,1,10,2026-04-14 00:10:39,37.0817,-121.59968,362.0,0.0,63.4,-12.6,0.12,37.096 1,0.9,344.4,0.0,10.6,-1.5,32.0,0.0,116.0,0.1,-0.03,1.0,99.0,31.0,25,0.0,29.93,1305.0,,,307.0,,,,324.0,0.0,0.0,5.0,2.0,,,,,1.0,,,26.0,,,,,1.0,0.0,0.0,1200.0,77.0,20.0,1064.0,1064.0,12.3,1.9,,1.9,25.7,,,16.2,0.0,0.0,5.4,10.0,8.1,,,,,52.0,567.0,55.0,572.0,52.0,622.0,58.0,635.0,,,-25.0,0.0,,25.7,2.0,0.0,,,1.625,1.575,+77.0,19.7,,,,,,77.0,68.0,,,,,125.6,1052.6,131.0,1061.6,125.6,1151.6,136.4,1175.0,,,67.46,1064.0,129.65,52.650000000000006,-9.0,0.042874999999999996,17.28833333333333,0.0,379.4,True,2026-04-14 00:09:03
102.06,1,10,2026-04-14 00:10:40,37.0817,-121.59968,362.0,0.0,63.4,-12.6,0.12,37.096 1,0.9,344.4,0.0,10.6,-1.5,32.0,0.0,116.0,0.1,-0.03,1.0,99.0,25.0,25,0.0,29.93,1305.0,,,307.0,,,,324.0,0.0,0.0,5.0,2.0,,,,,1.0,,,25.0,,,,,1.0,0.0,0.0,1200.0,77.0,20.0,1066.0,1066.0,12.3,1.9,,1.9,25.7,,,16.2,0.0,0.0,5.4,10.0,8.1,,,,,52.0,568.0,55.0,573.0,52.0,620.0,59.0,635.0,,,-25.0,0.0,,25.7,2.0,0.0,,,1.625,1.575,+77.0,19.8,,,,,,77.0,68.0,,,,,125.6,1054.4,131.0,1063.4,125.6,1148.0,138.2,1175.0,,,67.64,1066.0,130.1,53.099999999999994,-9.0,0.043402777777777776,17.28833333333333,0.0,379.4,True,2026-04-14 00:09:03
103.06,1,10,2026-04-14 00:10:41,37.0817,-121.59968,361.0,0.2,63.4,-12.6,0.12,37.096 1,0.9,344.4,0.0,10.7,-1.4,32.2,0.0,116.0,0.2,-0.02,1.0,99.0,33.0,25,0.0,29.93,1305.0,,,307.0,,,,324.0,0.0,0.0,5.0,2.0,,,,,-7.0,,,90.0,,,,,1.0,0.0,0.0,1200.0,77.0,20.0,1065.0,1065.0,12.3,1.9,,1.9,25.7,,,16.2,0.0,0.0,5.4,10.0,8.1,,,,,53.0,568.0,56.0,573.0,53.0,620.0,60.0,635.0,,,-25.0,0.0,,25.7,2.0,0.0,,,1.504,1.377,+77.1,19.8,,,,,,77.0,68.0,,,,,127.4,1054.4,132.8,1063.4,127.4,1148.0,140.0,1175.0,,,67.64,1065.0,131.9,54.900000000000006,-9.0,0.043930555555555556,17.456999999999997,0.10526315789473685,379.4,True,2026-04-14 00:09:03
104.06,1,10,2026-04-14 00:10:42,37.08166,-121.59965,357.0,1.3,61.5,-12.6,0.13,37.096 1,0.9,344.4,0.0,11.1,-1.6,33.2,0.0,116.0,0.8,-0.02,1.0,99.0,-17.0,25,0.0,29.93,1305.0,,,307.0,,,,324.0,0.0,0.0,5.0,3.0,,,,,-7.0,,,90.0,,,,,1.0,0.0,0.0,1200.0,77.0,20.0,1069.0,1069.0,12.3,2.0,,2.0,25.7,,,16.2,0.0,0.0,5.3,10.0,8.1,,,,,53.0,568.0,57.0,574.0,54.0,619.0,60.0,635.0,,,-25.0,0.0,,25.7,2.0,0.0,,,1.576,1.339,+77.0,19.8,,,,,,77.0,68.0,,,,,127.4,1054.4,134.6,1065.2,129.2,1146.2,140.0,1175.0,,,67.64,1069.0,132.79999999999998,55.79999999999998,-9.0,0.04447222222222222,18.721999999999998,0.65,379.4,True,2026-04-14 00:09:03
