Session Time,GPS Fix Quality,Number of Satellites,GPS Date & Time,Latitude (deg),Longitude (deg),GPS Altitude (feet),Ground Speed (knots),Ground Track (deg),Mag Var (deg),Cross Track Error (NM),Destination Waypoint ID,Range to Destination (NM),Bearing to Destination (deg),System Time,Pitch (deg),Roll (deg),Magnetic Heading (deg),Indicated Airspeed (knots),Pressure Altitude (ft),Turn Rate (deg/s),Lateral Accel (g),Vertical Accel(g),Angle of Attack (%),Vertical Speed (ft/min),OAT (deg C),True Airspeed (knots),Barometer Setting (inHg),Density Altitude (ft),Wind Direction (deg),Wind Speed (knots),Heading Bug (deg),Altitude Bug (ft),Airspeed Bug (knots),Vertical Speed Bug (ft/min),Course (deg),CDI Source Type,CDI Source Port,CDI Scale (NM),CDI Deflection (%),Glideslope (%),AP Engaged,AP Roll Mode,AP Roll Force,AP Roll Position (steps),AP Roll Slip (bool),AP Pitch Force,AP Pitch Position (steps),AP Pitch Slip (bool),AP Yaw Force,AP Yaw Position,AP Yaw Slip (bool),Transponder Status,Transponder Reply (bool),Transponder Identing (bool),Transponder Code (octal),Oil Pressure (PSI),Oil Temp (deg C),RPM L,RPM R,Manifold Pressure (inHg),Fuel Flow 1 (gal/hr),Fuel Flow 2 (gal/hr),Total Fuel Flow (gal/hr),Fuel Pressure (PSI),Fuel Level L (gal),Fuel Level R (gal),Fuel Remaining (gal),Volts 1,Volts 2,Amps,Hobbs Time,Tach Time,Thermocouple 1 (deg C),Thermocouple 2 (deg C),Thermocouple 3 (deg C),Thermocouple 4 (deg C),CHT 4 (deg C),EGT 4 (deg C),CHT 3 (deg C),EGT 3 (deg C),CHT 2 (deg C),EGT 2 (deg C),CHT 1 (deg C),EGT 1 (deg C),Thermocouple 13 (deg C),Thermocouple 14 (deg C),ELEV POSITION (%),CO PPM PRESSURE (PSI),GP Input 3,FUEL PRESSURE (PSI),AILERN POSITION (%),CANOPY CONTACT (V),GP Input 7,GP Input 8,LEFT LEVEL (Sensor V),RIGHT LEVEL (Sensor V),OIL PRESSURE (PSI),OIL TEMPERATURE (deg C),GP Input 13,Contacts,Percent Power,EGT Leaning State,Unnamed: 103,OAT (deg F),Oil Temp (deg F),Thermocouple 1 (deg F),Thermocouple 2 (deg F),Thermocouple 3 (deg F),Thermocouple 4 (deg F),CHT 4 (deg F),EGT 4 (deg F),CHT 3 (deg F),EGT 3 (deg F),CHT 2 (deg F),EGT 2 (deg F),CHT 1 (deg F),EGT 1 (deg F),Thermocouple 13 (deg F),Thermocouple 14 (deg F),OIL TEMPERATURE (deg F),RPM,AVG_CHT,CHT_Delta_T,OIL_Delta_T,Fuel Flow Integral,Distance Traveled,MPG,Max CHT,Engine Run,Flight ID
6.06,1,8,2026-04-18 15:46:35,37.0816,-121.59956,330.0,0.0,61.1,-12.6,,,,,0.0,10.8,-0.5,5.9,0.0,208.0,0.1,-0.01,1.0,99.0,-71.0,14,0.0,30.08,100.0,,,317.0,,,,,0.0,0.0,,,,,,,,,,,,,,,,,,,0.0,12.0,0.0,0.0,30.1,0.0,,0.0,0.0,,,36.1,0.0,0.0,-0.3,11.1,9.1,,,,,12.0,12.0,12.0,13.0,12.0,12.0,12.0,13.0,,,-2.0,254.6,,0.0,5.0,0.0,,,0.656,0.841,+0.0,11.9,,,,,,57.2,53.6,,,,,53.6,53.6,53.6,55.4,53.6,53.6,53.6,55.4,,,53.42,0.0,53.6,-3.6000000000000014,-3.780000000000001,0.0,0.0,0.0,401.0,True,2026-04-18 15:46:35
7.06,1,9,2026-04-18 15:46:36,37.08162,-121.59959,286.0,0.0,61.1,-12.6,,,,,0.0,10.8,-0.5,5.9,0.0,208.0,0.1,-0.01,1.0,99.0,-74.0,14,0.0,30.08,107.0,,,317.0,,,,,0.0,0.0,,,,,,,,,,,,,,,,,,,0.0,12.0,0.0,0.0,30.1,0.0,,0.0,0.0,,,36.1,0.0,0.0,-0.3,11.1,9.1,,,,,12.0,12.0,12.0,13.0,12.0,12.0,12.0,13.0,,,-2.0,254.6,,0.0,5.0,0.0,,,0.656,0.841,+0.0,11.9,,,,,,57.2,53.6,,,,,53.6,53.6,53.6,55.4,53.6,53.6,53.6,55.4,,,53.42,0.0,53.6,-3.6000000000000014,-3.780000000000001,0.0,0.0,0.0,401.0,True,2026-04-18 15:46:35
8.06,1,9,2026-04-18 15:46:37,37.08159,-121.59959,287.0,0.0,61.1,-12.6,,,,,0.0,10.8,-0.5,5.9,0.0,207.0,0.1,-0.01,1.0,99.0,-77.0,14,0.0,30.08,104.0,,,317.0,,,,,0.0,0.0,,,,,,,,,,,,,,,,,,,0.0,12.0,0.0,0.0,30.1,0.0,,0.0,0.0,,,36.1,0.0,0.0,-0.3,11.1,9.1,,,,,12.0,12.0,12.0,13.0,12.0,12.0,12.0,13.0,,,-2.0,254.6,,0.0,5.0,0.0,,,0.654,0.841,+0.0,11.9,,,,,,57.2,53.6,,,,,53.6,53.6,53.6,55.4,53.6,53.6,53.6,55.4,,,53.42,0.0,53.6,-3.6000000000000014,-3.780000000000001,0.0,0.0,0.0,401.0,True,2026-04-18 15:46:35
9.06,1,9,2026-04-18 15:46:38,37.0816,-121.59959,285.0,0.0,61.1,-12.6,,,,,0.0,10.8,-0.5,6.0,0.0,205.0,0.1,-0.01,1.0,99.0,-57.0,14,0.0,30.08,104.0,,,317.0,,,,,0.0,0.0,,,,,,,,,,,,,,,,,,,0.0,12.0,0.0,0.0,30.1,0.0,,0.0,0.0,,,36.1,0.0,0.0,-0.3,11.1,9.1,,,,,12.0,12.0,12.0,13.0,12.0,12.0,12.0,13.0,,,-1.0,254.6,,0.0,5.0,0.0,,,0.654,0.841,+0.0,11.9,,,,,,57.2,53.6,,,,,53.6,53.6,53.6,55.4,53.6,53.6,53.6,55.4,,,53.42,0.0,53.6,-3.6000000000000014,-3.780000000000001,0.0,0.0,0.0,401.0,True,2026-04-18 15:46:35
10.06,1,9,2026-04-18 15:46:39,37.0816,-121.59959,284.0,0.0,61.1,-12.6,,,,,0.0,10.8,-0.5,6.0,0.0,205.0,0.1,-0.01,1.0,99.0,-61.0,14,0.0,30.08,104.0,,,317.0,,,,,0.0,0.0,,,,,,,,,,,,,,,,,,,0.0,12.0,0.0,0.0,30.1,0.0,,0.0,0.0,,,36.1,0.0,0.0,-0.3,11.1,9.1,,,,,12.0,12.0,12.0,13.0,12.0,12.0,12.0,13.0,,,-2.0,254.6,,0.0,5.0,0.0,,,0.654,0.841,+0.0,11.9,,,,,,57.2,53.6,,,,,53.6,53.6,53.6,55.4,53.6,53.6,53.6,55.4,,,53.42,0.0,53.6,-3.6000000000000014,-3.780000000000001,0.0,0.0,0.0,401.0,True,2026-04-18 15:46:35
11.06,1,9,2026-04-18 15:46:40,37.0816,-121.59959,282.0,0.0,61.1,-12.6,,,,,0.0,10.8,-0.5,6.0,0.0,204.0,0.1,-0.01,1.0,99.0,-62.0,14,0.0,30.08,103.0,,,317.0,,,,,0.0,0.0,,,,,,,,,,,,,,,,,,,0.0,12.0,0.0,0.0,30.1,0.0,,0.0,0.0,,,36.1,0.0,0.0,-0.3,11.1,9.1,,,,,12.0,12.0,12.0,13.0,12.0,12.0,12.0,13.0,,,-1.0,254.6,,0.0,5.0,0.0,,,0.654,0.841,+0.0,11.9,,,,,,57.2,53.6,,,,,53.6,53.6,53.6,55.4,53.6,53.6,53.6,55.4,,,53.42,0.0,53.6,-3.6000000000000014,-3.780000000000001,0.0,0.0,0.0,401.0,True,2026-04-18 15:46:35
12.06,1,9,2026-04-18 15:46:41,37.0816,-121.59959,281.0,0.0,61.1,-12.6,,,,,0.0,10.9,-0.5,6.0,0.0,203.0,0.1,-0.01,1.0,99.0,-59.0,14,0.0,30.08,103.0,,,317.0,,,,,0.0,0.0,,,,,,,,,,,,,,,,,,,0.0,12.0,0.0,0.0,30.1,0.0,,0.0,0.0,,,36.1,0.0,0.0,-0.3,11.1,9.1,,,,,12.0,12.0,12.0,13.0,12.0,12.0,12.0,13.0,,,-1.0,254.6,,0.0,5.0,0.0,,,0.656,0.841,+0.0,11.9,,,,,,57.2,53.6,,,,,53.6,53.6,53.6,55.4,53.6,53.6,53.6,55.4,,,53.42,0.0,53.6,-3.6000000000000014,-3.780000000000001,0.0,0.0,0.0,401.0,True,2026-04-18 15:46:35
13.06,1,9,2026-04-18 15:46:42,37.0816,-121.59959,279.0,0.0,61.1,-12.6,,,,,0.0,10.9,-0.5,5.9,0.0,202.0,0.1,-0.01,1.0,99.0,-43.0,14,0.0,30.08,103.0,,,317.0,,,,,0.0,0.0,,,,,,,,,,,,,,,,,,,0.0,12.0,0.0,0.0,30.1,0.0,,0.0,0.0,,,36.1,0.0,0.0,-0.3,11.1,9.1,,,,,12.0,12.0,12.0,13.0,12.0,12.0,12.0,13.0,,,-1.0,254.6,,0.0,5.0,0.0,,,0.654,0.841,+0.0,11.8,,,,,,57.2,53.6,,,,,53.6,53.6,53.6,55.4,53.6,53.6,53.6,55.4,,,53.24,0.0,53.6,-3.6000000000000014,-3.960000000000001,0.0,0.0,0.0,401.0,True,2026-04-18 15:46:35
14.06,1,9,2026-04-18 15:46:43,37.08161,-121.59959,278.0,0.0,61.1,-12.6,,,,,0.0,10.9,-0.5,6.0,0.0,202.0,0.1,-0.01,1.0,99.0,-24.0,14,0.0,30.08,100.0,,,317.0,,,,,0.0,0.0,,,,,,,,,,,,,,,,,,,0.0,12.0,0.0,0.0,30.1,0.0,,0.0,0.0,,,36.1,0.0,0.0,-0.3,11.1,9.1,,,,,12.0,12.0,12.0,13.0,12.0,12.0,12.0,13.0,,,-1.0,254.6,,0.0,5.0,0.0,,,0.654,0.84,+0.0,11.8,,,,,,57.2,53.6,,,,,53.6,53.6,53.6,55.4,53.6,53.6,53.6,55.4,,,53.24,0.0,53.6,-3.6000000000000014,-3.960000000000001,0.0,0.0,0.0,401.0,True,2026-04-18 15:46:35
15.06,1,9,2026-04-18 15:46:44,37.08161,-121.59959,276.0,0.0,61.1,-12.6,,,,,0.0,10.9,-0.6,5.9,0.0,202.0,0.1,-0.01,1.0,99.0,-38.0,14,0.0,30.08,100.0,,,317.0,,,,,0.0,0.0,,,,,,,,,,,,,,,,,,,0.0,12.0,0.0,0.0,30.1,0.0,,0.0,0.0,,,36.1,0.0,0.0,-0.3,11.1,9.1,,,,,12.0,12.0,12.0,13.0,12.0,12.0,12.0,13.0,,,-1.0,254.6,,0.0,5.0,0.0,,,0.654,0.841,+0.0,11.8,,,,,,57.2,53.6,,,,,53.6,53.6,53.6,55.4,53.6,53.6,53.6,55.4,,,53.24,0.0,53.6,-3.6000000000000014,-3.960000000000001,0.0,0.0,0.0,401.0,True,2026-04-18 15:46:35
16.06,1,9,2026-04-18 15:46:45,37.08161,-121.59959,275.0,0.0,61.1,-12.6,,,,,0.0,10.8,-0.6,5.8,0.0,199.0,0.1,-0.01,1.0,99.0,-77.0,14,0.0,30.08,100.0,,,317.0,,,,,0.0,0.0,,,,,,,,,,,,,,,,,,,0.0,12.0,0.0,0.0,30.1,0.0,,0.0,0.0,,,36.1,0.0,0.0,-0.3,11.1,9.1,,,,,12.0,12.0,12.0,13.0,12.0,12.0,12.0,13.0,,,-1.0,254.6,,0.0,5.0,0.0,,,0.654,0.841,+0.0,11.8,,,,,,57.2,53.6,,,,,53.6,53.6,53.6,55.4,53.6,53.6,53.6,55.4,,,53.24,0.0,53.6,-3.6000000000000014,-3.960000000000001,0.0,0.0,0.0,401.0,True,2026-04-18 15:46:35
17.06,1,9,2026-04-18 15:46:46,37.08162,-121.59959,274.0,0.0,61.1,-12.6,,,,,0.0,10.8,-0.6,5.8,0.0,198.0,0.1,-0.01,1.0,99.0,-73.0,14,0.0,30.08,97.0,,,317.0,,,,,0.0,0.0,,,,,,,,,,,,,,,,,,,0.0,12.0,0.0,0.0,30.1,0.0,,0.0,0.0,,,36.1,0.0,0.0,-0.3,11.1,9.1,,,,,12.0,12.0,12.0,13.0,12.0,12.0,12.0,13.0,,,-1.0,254.6,,0.0,5.0,0.0,,,0.654,0.841,+0.0,11.8,,,,,,57.2,53.6,,,,,53.6,53.6,53.6,55.4,53.6,53.6,53.6,55.4,,,53.24,0.0,53.6,-3.6000000000000014,-3.960000000000001,0.0,0.0,0.0,401.0,True,2026-04-18 15:46:35
18.06,1,9,2026-04-18 15:46:47,37.08162,-121.59959,273.0,0.0,61.1,-12.6,,,,,0.0,10.8,-0.6,5.8,0.0,197.0,0.1,-0.01,1.0,99.0,-98.0,14,0.0,30.08,97.0,,,317.0,,,,,0.0,0.0,,,,,,,,,,,,,,,,,,,0.0,12.0,0.0,0.0,30.1,0.0,,0.0,0.0,,,36.1,0.0,0.0,-0.3,11.1,9.1,,,,,12.0,12.0,12.0,13.0,12.0,12.0,12.0,13.0,,,-1.0,254.6,,0.0,5.0,0.0,,,0.654,0.841,+0.0,11.8,,,,,,57.2,53.6,,,,,53.6,53.6,53.6,55.4,53.6,53.6,53.6,55.4,,,53.24,0.0,53.6,-3.6000000000000014,-3.960000000000001,0.0,0.0,0.0,401.0,True,2026-04-18 15:46:35
19.06,1,9,2026-04-18 15:46:48,37.08162,-121.59959,272.0,0.0,61.1,-12.6,,,,,0.0,10.8,-0.6,5.8,0.0,196.0,0.1,-0.01,1.0,99.0,-72.0,14,0.0,30.08,97.0,,,317.0,,,,,0.0,0.0,,,,,,,,,,,,,,,,,,,0.0,12.0,0.0,0.0,30.1,0.0,,0.0,0.0,,,36.1,0.0,0.0,-0.3,11.1,9.1,,,,,12.0,12.0,12.0,13.0,12.0,12.0,12.0,13.0,,,-2.0,254.6,,0.0,5.0,0.0,,,0.656,0.841,+0.0,11.8,,,,,,57.2,53.6,,,,,53.6,53.6,53.6,55.4,53.6,53.6,53.6,55.4,,,53.24,0.0,53.6,-3.6000000000000014,-3.960000000000001,0.0,0.0,0.0,401.0,True,2026-04-18 15:46:35
20.06,1,9,2026-04-18 15:46:49,37.08162,-121.59959,272.0,0.0,61.1,-12.6,,,,,0.0,10.8,-0.6,5.8,0.0,194.0,0.1,-0.01,1.0,99.0,-75.0,14,0.0,30.08,93.0,,,317.0,,,,,0.0,0.0,,,,,,,,,,,,,,,,,,,0.0,12.0,0.0,0.0,30.1,0.0,,0.0,0.0,,,36.1,0.0,0.0,-0.3,11.1,9.1,,,,,12.0,12.0,12.0,13.0,12.0,12.0,12.0,13.0,,,-1.0,254.6,,0.0,5.0,0.0,,,0.654,0.841,+0.0,11.8,,,,,,57.2,53.6,,,,,53.6,53.6,53.6,55.4,53.6,53.6,53.6,55.4,,,53.24,0.0,53.6,-3.6000000000000014,-3.960000000000001,0.0,0.0,0.0,401.0,True,2026-04-18 15:46:35
21.06,1,9,2026-04-18 15:46:50,37.08162,-121.59959,272.0,0.0,61.1,-12.6,,,,,0.0,10.8,-0.5,5.8,0.0,193.0,0.1,-0.01,1.0,99.0,-98.0,14,0.0,30.08,93.0,,,317.0,,,,,0.0,0.0,,,,,,,,,,,,,,,,,,,0.0,12.0,0.0,0.0,30.1,0.0,,0.0,0.0,,,36.1,0.0,0.0,-0.3,11.1,9.1,,,,,12.0,12.0,12.0,13.0,12.0,12.0,12.0,13.0,,,-1.0,254.6,,0.0,5.0,0.0,,,0.656,0.841,+0.0,11.8,,,,,,57.2,53.6,,,,,53.6,53.6,53.6,55.4,53.6,53.6,53.6,55.4,,,53.24,0.0,53.6,-3.6000000000000014,-3.960000000000001,0.0,0.0,0.0,401.0,True,2026-04-18 15:46:35
22.06,1,9,2026-04-18 15:46:51,37.08162,-121.59959,272.0,0.0,61.1,-12.6,,,,,0.0,10.8,-0.5,5.8,0.0,189.0,0.1,-0.01,1.0,99.0,-118.0,14,0.0,30.08,93.0,,,317.0,,,,,0.0,0.0,,,,,,,,,,,,,,,,,,,0.0,12.0,0.0,0.0,30.1,0.0,,0.0,0.0,,,36.1,0.0,0.0,-0.3,11.1,9.1,,,,,12.0,12.0,12.0,13.0,12.0,12.0,12.0,13.0,,,-1.0,254.6,,0.0,5.0,0.0,,,0.656,0.841,+0.0,11.8,,,,,,57.2,53.6,,,,,53.6,53.6,53.6,55.4,53.6,53.6,53.6,55.4,,,53.24,0.0,53.6,-3.6000000000000014,-3.960000000000001,0.0,0.0,0.0,401.0,True,2026-04-18 15:46:35
23.06,1,9,2026-04-18 15:46:52,37.08162,-121.59959,271.0,0.0,61.1,-12.6,,,,,0.0,10.9,-0.5,5.8,0.0,189.0,0.1,-0.01,1.0,99.0,-88.0,14,0.0,30.08,96.0,,,317.0,,,,,0.0,0.0,,,,,,,,,,,,,,,,,,,0.0,12.0,0.0,0.0,30.1,0.0,,0.0,0.0,,,36.1,0.0,0.0,-0.3,11.1,9.1,,,,,12.0,12.0,12.0,13.0,12.0,12.0,12.0,13.0,,,-1.0,254.6,,0.0,5.0,0.0,,,0.654,0.841,+0.0,11.8,,,,,,57.2,53.6,,,,,53.6,53.6,53.6,55.4,53.6,53.6,53.6,55.4,,,53.24,0.0,53.6,-3.6000000000000014,-3.960000000000001,0.0,0.0,0.0,401.0,True,2026-04-18 15:46:35
24.06,1,9,2026-04-18 15:46:53,37.08162,-121.59959,271.0,0.0,61.1,-12.6,,,,,0.0,10.9,-0.5,5.8,0.0,188.0,0.1,-0.01,1.0,99.0,-90.0,14,0.0,30.08,96.0,,,317.0,,,,,0.0,0.0,,,,,,,,,,,,,,,,,,,0.0,12.0,0.0,0.0,30.1,0.0,,0.0,0.0,,,36.1,0.0,0.0,-0.3,11.1,9.1,,,,,12.0,12.0,12.0,13.0,12.0,12.0,12.0,13.0,,,-1.0,254.6,,0.0,5.0,0.0,,,0.656,0.841,+0.0,11.8,,,,,,57.2,53.6,,,,,53.6,53.6,53.6,55.4,53.6,53.6,53.6,55.4,,,53.24,0.0,53.6,-3.6000000000000014,-3.960000000000001,0.0,0.0,0.0,401.0,True,2026-04-18 15:46:35
25.06,1,9,2026-04-18 15:46:54,37.08162,-121.59959,271.0,0.0,61.1,-12.6,,,,,0.0,10.8,-0.6,5.8,0.0,186.0,0.1,-0.01,1.0,99.0,-98.0,14,0.0,30.08,96.0,,,317.0,,,,,0.0,0.0,,,,,,,,,,,,,,,,,,,0.0,12.0,0.0,0.0,30.1,0.0,,0.0,0.0,,,36.1,0.0,0.0,-0.3,11.1,9.1,,,,,12.0,12.0,12.0,13.0,12.0,12.0,12.0,13.0,,,-1.0,254.6,,0.0,5.0,0.0,,,0.656,0.841,+0.0,11.8,,,,,,57.2,53.6,,,,,53.6,53.6,53.6,55.4,53.6,53.6,53.6,55.4,,,53.24,0.0,53.6,-3.6000000000000014,-3.960000000000001,0.0,0.0,0.0,401.0,True,2026-04-18 15:46:35
26.06,1,9,2026-04-18 15:46:55,37.08162,-121.59959,271.0,0.0,61.1,-12.6,,,,,0.0,10.8,-0.6,5.8,0.0,185.0,0.1,-0.01,1.0,99.0,-98.0,14,0.0,30.08,90.0,,,317.0,,,,,0.0,0.0,,,,,,,,,,,,,,,,,,,0.0,12.0,0.0,0.0,30.1,0.0,,0.0,0.0,,,36.1,0.0,0.0,-0.3,11.1,9.1,,,,,12.0,12.0,12.0,13.0,12.0,12.0,12.0,13.0,,,-1.0,254.6,,0.0,5.0,0.0,,,0.654,0.841,+0.0,11.8,,,,,,57.2,53.6,,,,,53.6,53.6,53.6,55.4,53.6,53.6,53.6,55.4,,,53.24,0.0,53.6,-3.6000000000000014,-3.960000000000001,0.0,0.0,0.0,401.0,True,2026-04-18 15:46:35
27.06,1,9,2026-04-18 15:46:56,37.08162,-121.59959,271.0,0.0,61.1,-12.6,,,,,0.0,10.8,-0.6,5.8,0.0,183.0,0.1,-0.01,1.0,99.0,-92.0,14,0.0,30.08,90.0,,,317.0,,,,,0.0,0.0,,,,,,,,,,,,,,,,,,,0.0,12.0,0.0,0.0,30.1,0.0,,0.0,0.0,,,36.1,0.0,0.0,-0.3,11.1,9.1,,,,,12.0,12.0,12.0,13.0,12.0,12.0,12.0,13.0,,,-1.0,254.6,,0.0,5.0,0.0,,,0.654,0.841,+0.0,11.8,,,,,,57.2,53.6,,,,,53.6,53.6,53.6,55.4,53.6,53.6,53.6,55.4,,,53.24,0.0,53.6,-3.6000000000000014,-3.960000000000001,0.0,0.0,0.0,401.0,True,2026-04-18 15:46:35
28.06,1,9,2026-04-18 15:46:57,37.08162,-121.59959,271.0,0.0,61.1,-12.6,,,,,0.0,10.8,-0.6,5.8,0.0,182.0,0.1,-0.01,1.0,99.0,-89.0,14,0.0,30.08,90.0,,,317.0,,,,,0.0,0.0,,,,,,,,,,,,,,,,,,,0.0,12.0,0.0,0.0,30.1,0.0,,0.0,0.0,,,36.1,0.0,0.0,-0.3,11.1,9.1,,,,,12.0,12.0,12.0,13.0,12.0,12.0,12.0,13.0,,,-2.0,254.6,,0.0,5.0,0.0,,,0.654,0.841,+0.0,11.8,,,,,,57.2,53.6,,,,,53.6,53.6,53.6,55.4,53.6,53.6,53.6,55.4,,,53.24,0.0,53.6,-3.6000000000000014,-3.960000000000001,0.0,0.0,0.0,401.0,True,2026-04-18 15:46:35
29.06,1,9,2026-04-18 15:46:58,37.08162,-121.59958,270.0,0.0,61.1,-12.6,,,,,0.0,10.8,-0.6,5.8,0.0,180.0,0.1,-0.01,1.0,99.0,-75.0,14,0.0,30.08,84.0,,,317.0,,,,,0.0,0.0,,,,,,,,,,,,,,,,,,,0.0,12.0,0.0,0.0,30.1,0.0,,0.0,0.0,,,36.1,0.0,0.0,-0.3,11.1,9.1,,,,,12.0,12.0,12.0,13.0,12.0,12.0,12.0,13.0,,,-1.0,254.6,,0.0,5.0,0.0,,,0.656,0.841,+0.0,11.8,,,,,,57.2,53.6,,,,,53.6,53.6,53.6,55.4,53.6,53.6,53.6,55.4,,,53.24,0.0,53.6,-3.6000000000000014,-3.960000000000001,0.0,0.0,0.0,401.0,True,2026-04-18 15:46:35
30.06,1,9,2026-04-18 15:46:59,37.08162,-121.59958,270.0,0.0,61.1,-12.6,,,,,0.0,10.8,-0.6,5.8,0.0,180.0,0.1,-0.01,1.0,99.0,-61.0,14,0.0,30.08,84.0,,,317.0,,,,,0.0,0.0,,,,,,,,,,,,,,,,,,,0.0,12.0,0.0,0.0,30.1,0.0,,0.0,0.0,,,36.1,0.0,0.0,-0.3,11.1,9.1,,,,,12.0,12.0,12.0,13.0,12.0,12.0,12.0,13.0,,,-1.0,254.6,,0.0,5.0,0.0,,,0.656,0.841,+0.0,11.8,,,,,,57.2,53.6,,,,,53.6,53.6,53.6,55.4,53.6,53.6,53.6,55.4,,,53.24,0.0,53.6,-3.6000000000000014,-3.960000000000001,0.0,0.0,0.0,401.0,True,2026-04-18 15:46:35
31.06,1,9,2026-04-18 15:47:00,37.08162,-121.59958,271.0,0.0,61.1,-12.6,,,,,0.0,10.8,-0.6,5.8,0.0,179.0,0.1,-0.01,1.0,99.0,-74.0,14,0.0,30.08,84.0,,,317.0,,,,,0.0,0.0,,,,,,,,,,,,,,,,,,,0.0,12.0,0.0,0.0,30.1,0.0,,0.0,0.0,,,36.1,0.0,0.0,-0.3,11.1,9.1,,,,,12.0,12.0,12.0,13.0,12.0,12.0,12.0,13.0,,,-1.0,254.6,,0.0,5.0,0.0,,,0.654,0.841,+0.0,11.8,,,,,,57.2,53.6,,,,,53.6,53.6,53.6,55.4,53.6,53.6,53.6,55.4,,,53.24,0.0,53.6,-3.6000000000000014,-3.960000000000001,0.0,0.0,0.0,401.0,True,2026-04-18 15:46:35
32.06,1,9,2026-04-18 15:47:01,37.08162,-121.59958,271.0,0.0,61.1,-12.6,,,,,0.0,10.8,-0.6,5.7,0.0,179.0,0.1,-0.01,1.0,99.0,-25.0,14,0.0,30.08,92.0,,,317.0,,,,,0.0,0.0,,,,,,,,,,,,,,,,,,,0.0,12.0,0.0,0.0,30.1,0.0,,0.0,0.0,,,36.1,0.0,0.0,-0.3,11.1,9.1,,,,,12.0,12.0,12.0,13.0,12.0,12.0,12.0,13.0,,,-1.0,254.6,,0.0,5.0,0.0,,,0.654,0.841,+0.0,11.8,,,,,,57.2,53.6,,,,,53.6,53.6,53.6,55.4,53.6,53.6,53.6,55.4,,,53.24,0.0,53.6,-3.6000000000000014,-3.960000000000001,0.0,0.0,0.0,401.0,True,2026-04-18 15:46:35
33.06,1,9,2026-04-18 15:47:02,37.08162,-121.59958,271.0,0.0,61.1,-12.6,,,,,0.0,10.8,-0.6,5.7,0.0,179.0,0.1,-0.01,1.0,99.0,-43.0,14,0.0,30.08,92.0,,,317.0,,,,,0.0,0.0,,,,,,,,,,,,,,,,,,,0.0,12.0,0.0,0.0,30.1,0.0,,0.0,0.0,,,36.1,0.0,0.0,-0.3,11.1,9.1,,,,,12.0,13.0,12.0,13.0,12.0,13.0,12.0,13.0,,,-1.0,254.6,,0.0,5.0,0.0,,,0.656,0.841,+0.0,11.8,,,,,,57.2,53.6,,,,,53.6,55.4,53.6,55.4,53.6,55.4,53.6,55.4,,,53.24,0.0,53.6,-3.6000000000000014,-3.960000000000001,0.0,0.0,0.0,401.0,True,2026-04-18 15:46:35
34.06,1,9,2026-04-18 15:47:03,37.08162,-121.59958,271.0,0.0,61.1,-12.6,,,,,0.0,10.8,-0.6,5.7,0.0,178.0,0.1,-0.01,1.0,99.0,-25.0,14,0.0,30.08,91.0,,,317.0,,,,,0.0,0.0,,,,,,,,,,,,,,,,,,,0.0,12.0,0.0,0.0,30.1,0.0,,0.0,0.0,,,36.1,0.0,0.0,-0.3,11.1,9.1,,,,,12.0,13.0,12.0,13.0,12.0,13.0,12.0,13.0,,,-1.0,254.6,,0.0,5.0,0.0,,,0.656,0.841,+0.0,11.8,,,,,,57.2,53.6,,,,,53.6,55.4,53.6,55.4,53.6,55.4,53.6,55.4,,,53.24,0.0,53.6,-3.6000000000000014,-3.960000000000001,0.0,0.0,0.0,401.0,True,2026-04-18 15:46:35
35.06,1,9,2026-04-18 15:47:04,37.08162,-121.59958,271.0,0.0,61.1,-12.6,,,,,0.0,10.9,-0.6,5.7,0.0,177.0,0.1,-0.01,1.0,99.0,-54.0,14,0.0,30.08,91.0,,,317.0,,,,,0.0,0.0,,,,,,,,,,,,,,,,,,,0.0,12.0,0.0,0.0,30.1,0.0,,0.0,0.0,,,36.1,0.0,0.0,-0.3,11.1,9.1,,,,,12.0,12.0,12.0,13.0,12.0,13.0,12.0,13.0,,,0.0,254.6,,0.0,5.0,0.0,,,0.654,0.841,+0.0,11.8,,,,,,57.2,53.6,,,,,53.6,53.6,53.6,55.4,53.6,55.4,53.6,55.4,,,53.24,0.0,53.6,-3.6000000000000014,-3.960000000000001,0.0,0.0,0.0,401.0,True,2026-04-18 15:46:35
36.06,1,9,2026-04-18 15:47:05,37.08162,-121.59958,271.0,0.0,61.1,-12.6,,,,,0.0,10.9,-0.6,5.7,0.0,176.0,0.1,-0.01,1.0,99.0,-53.0,14,0.0,30.08,90.0,,,317.0,,,,,0.0,0.0,,,,,,,,,,,,,,,,,,,0.0,12.0,0.0,0.0,30.1,0.0,,0.0,0.0,,,36.1,0.0,0.0,-0.3,11.1,9.1,,,,,12.0,13.0,12.0,13.0,12.0,13.0,12.0,13.0,,,0.0,254.6,,0.0,5.0,0.0,,,0.656,0.841,+0.0,11.8,,,,,,57.2,53.6,,,,,53.6,55.4,53.6,55.4,53.6,55.4,53.6,55.4,,,53.24,0.0,53.6,-3.6000000000000014,-3.960000000000001,0.0,0.0,0.0,401.0,True,2026-04-18 15:46:35
37.06,1,9,2026-04-18 15:47:06,37.08162,-121.59958,271.0,0.0,61.1,-12.6,,,,,0.0,10.8,-0.5,5.8,0.0,176.0,0.1,-0.01,1.0,99.0,-41.0,14,0.0,30.08,90.0,,,317.0,,,,,0.0,0.0,,,,,,,,,,,,,,,,,,,0.0,12.0,0.0,0.0,30.1,0.0,,0.0,0.0,,,36.1,0.0,0.0,-0.3,11.1,9.1,,,,,12.0,12.0,12.0,13.0,12.0,13.0,12.0,13.0,,,0.0,254.6,,0.0,5.0,0.0,,,0.656,0.841,+0.0,11.8,,,,,,57.2,53.6,,,,,53.6,53.6,53.6,55.4,53.6,55.4,53.6,55.4,,,53.24,0.0,53.6,-3.6000000000000014,-3.960000000000001,0.0,0.0,0.0,401.0,True,2026-04-18 15:46:35
38.06,1,9,2026-04-18 15:47:07,37.08162,-121.59958,271.0,0.0,61.1,-12.6,,,,,0.0,10.8,-0.6,5.8,0.0,176.0,0.1,-0.01,1.0,99.0,-46.0,14,0.0,30.08,90.0,,,317.0,,,,,0.0,0.0,,,,,,,,,,,,,,,,,,,0.0,12.0,0.0,0.0,30.1,0.0,,0.0,0.0,,,36.1,0.0,0.0,-0.3,11.1,9.1,,,,,12.0,12.0,12.0,13.0,12.0,13.0,12.0,13.0,,,0.0,254.6,,0.0,5.0,0.0,,,0.656,0.84,+0.0,11.8,,,,,,57.2,53.6,,,,,53.6,53.6,53.6,55.4,53.6,55.4,53.6,55.4,,,53.24,0.0,53.6,-3.6000000000000014,-3.960000000000001,0.0,0.0,0.0,401.0,True,2026-04-18 15:46:35
39.06,1,9,2026-04-18 15:47:08,37.08162,-121.59958,271.0,0.0,61.1,-12.6,,,,,0.0,10.8,-0.6,5.8,0.0,175.0,0.1,-0.01,1.0,99.0,-47.0,14,0.0,30.08,89.0,,,317.0,,,,,0.0,0.0,,,,,,,,,,,,,,,,,,,0.0,12.0,0.0,0.0,30.1,0.0,,0.0,0.0,,,36.1,0.0,0.0,-0.3,11.1,9.1,,,,,12.0,12.0,12.0,13.0,12.0,13.0,12.0,13.0,,,1.0,254.6,,0.0,5.0,0.0,,,0.654,0.841,+0.0,11.8,,,,,,57.2,53.6,,,,,53.6,53.6,53.6,55.4,53.6,55.4,53.6,55.4,,,53.24,0.0,53.6,-3.6000000000000014,-3.960000000000001,0.0,0.0,0.0,401.0,True,2026-04-18 15:46:35
40.06,1,9,2026-04-18 15:47:09,37.08162,-121.59958,271.0,0.0,61.1,-12.6,,,,,0.0,10.8,-0.6,5.7,0.0,175.0,0.1,-0.01,1.0,99.0,-15.0,14,0.0,30.08,89.0,,,317.0,,,,,0.0,0.0,,,,,,,,,,,,,,,,,,,0.0,12.0,0.0,0.0,30.1,0.0,,0.0,0.0,,,36.1,0.0,0.0,-0.3,11.1,9.1,,,,,12.0,12.0,12.0,13.0,12.0,13.0,12.0,13.0,,,1.0,254.6,,0.0,5.0,0.0,,,0.656,0.841,+0.0,11.8,,,,,,57.2,53.6,,,,,53.6,53.6,53.6,55.4,53.6,55.4,53.6,55.4,,,53.24,0.0,53.6,-3.6000000000000014,-3.960000000000001,0.0,0.0,0.0,401.0,True,2026-04-18 15:46:35
41.06,1,9,2026-04-18 15:47:10,37.08162,-121.59958,271.0,0.0,61.1,-12.6,,,,,0.0,10.8,-0.6,5.7,0.0,175.0,0.1,-0.01,1.0,99.0,5.0,14,0.0,30.08,90.0,,,317.0,,,,,0.0,0.0,,,,,,,,,,,,,,,,,,,0.0,12.0,0.0,0.0,30.1,0.0,,0.0,0.0,,,36.1,0.0,0.0,-0.3,11.1,9.1,,,,,12.0,12.0,12.0,13.0,12.0,13.0,13.0,13.0,,,1.0,254.6,,0.0,5.0,0.0,,,0.654,0.841,+0.0,11.8,,,,,,57.2,53.6,,,,,53.6,53.6,53.6,55.4,53.6,55.4,55.4,55.4,,,53.24,0.0,54.05,-3.1500000000000057,-3.960000000000001,0.0,0.0,0.0,401.0,True,2026-04-18 15:46:35
42.06,1,9,2026-04-18 15:47:11,37.08162,-121.59958,271.0,0.0,61.1,-12.6,,,,,0.0,10.8,-0.6,5.7,0.0,175.0,0.1,-0.01,1.0,99.0,22.0,14,0.0,30.08,90.0,,,317.0,,,,,0.0,0.0,,,,,,,,,,,,,,,,,,,0.0,12.0,0.0,0.0,30.1,0.0,,0.0,0.0,,,36.1,0.0,0.0,-0.3,11.1,9.1,,,,,12.0,12.0,12.0,13.0,12.0,13.0,13.0,13.0,,,0.0,248.1,,0.0,5.0,0.0,,,0.654,0.84,+0.0,11.8,,,,,,57.2,53.6,,,,,53.6,53.6,53.6,55.4,53.6,55.4,55.4,55.4,,,53.24,0.0,54.05,-3.1500000000000057,-3.960000000000001,0.0,0.0,0.0,401.0,True,2026-04-18 15:46:35
43.06,1,9,2026-04-18 15:47:12,37.08162,-121.59958,271.0,0.0,61.1,-12.6,,,,,0.0,10.9,-0.7,5.6,0.0,175.0,0.1,-0.01,1.0,99.0,5.0,14,0.0,30.08,90.0,,,317.0,,,,,0.0,0.0,,,,,,,,,,,,,,,,,,,0.0,12.0,0.0,0.0,30.1,0.0,,0.0,0.0,,,36.1,0.0,0.0,-0.3,11.1,9.1,,,,,12.0,12.0,12.0,13.0,12.0,13.0,12.0,13.0,,,0.0,193.2,,0.0,5.0,0.0,,,0.654,0.84,+0.0,11.8,,,,,,57.2,53.6,,,,,53.6,53.6,53.6,55.4,53.6,55.4,53.6,55.4,,,53.24,0.0,53.6,-3.6000000000000014,-3.960000000000001,0.0,0.0,0.0,401.0,True,2026-04-18 15:46:35
44.06,1,9,2026-04-18 15:47:13,37.08162,-121.59958,271.0,0.1,61.1,-12.6,,,,,0.0,10.9,-0.6,5.6,0.0,175.0,0.1,-0.01,1.0,99.0,-12.0,14,0.0,30.08,99.0,,,317.0,,,,,0.0,0.0,,,,,,,,,,,,,,,,,,,0.0,12.0,0.0,0.0,30.1,0.0,,0.0,0.0,,,36.1,0.0,0.0,-0.3,11.1,9.1,,,,,12.0,12.0,12.0,13.0,12.0,13.0,13.0,13.0,,,1.0,150.4,,0.0,5.0,0.0,,,0.654,0.841,+0.0,11.8,,,,,,57.2,53.6,,,,,53.6,53.6,53.6,55.4,53.6,55.4,55.4,55.4,,,53.24,0.0,54.05,-3.1500000000000057,-3.960000000000001,0.0,0.08433333333333333,0.0,401.0,True,2026-04-18 15:46:35
45.06,1,9,2026-04-18 15:47:14,37.08162,-121.59958,271.0,0.0,61.1,-12.6,,,,,0.0,10.9,-0.6,5.6,0.0,175.0,0.1,-0.01,1.0,99.0,-3.0,14,0.0,30.08,99.0,,,317.0,,,,,0.0,0.0,,,,,,,,,,,,,,,,,,,0.0,12.0,0.0,0.0,30.1,0.0,,0.0,0.0,,,36.1,0.0,0.0,-0.3,11.1,9.1,,,,,12.0,12.0,12.0,13.0,12.0,13.0,13.0,13.0,,,1.0,117.1,,0.0,5.0,0.0,,,0.656,0.841,+0.0,11.8,,,,,,57.2,53.6,,,,,53.6,53.6,53.6,55.4,53.6,55.4,55.4,55.4,,,53.24,0.0,54.05,-3.1500000000000057,-3.960000000000001,0.0,0.16866666666666666,0.0,401.0,True,2026-04-18 15:46:35
46.06,1,9,2026-04-18 15:47:15,37.08162,-121.59958,271.0,0.0,61.1,-12.6,,,,,0.0,10.9,-0.6,5.6,0.0,175.0,0.1,-0.01,1.0,99.0,-21.0,14,0.0,30.08,99.0,,,317.0,,,,,0.0,0.0,,,,,,,,,,,,,,,,,,,0.0,12.0,0.0,0.0,30.1,0.0,,0.0,0.0,,,36.1,0.0,0.0,-0.3,11.1,9.1,,,,,12.0,12.0,12.0,13.0,12.0,13.0,13.0,13.0,,,1.0,91.2,,0.0,5.0,0.0,,,0.654,0.841,+0.0,11.8,,,,,,57.2,53.6,,,,,53.6,53.6,53.6,55.4,53.6,55.4,55.4,55.4,,,53.24,0.0,54.05,-3.1500000000000057,-3.960000000000001,0.0,0.16866666666666666,0.0,401.0,True,2026-04-18 15:46:35
47.06,1,9,2026-04-18 15:47:16,37.08162,-121.59958,272.0,0.0,61.1,-12.6,,,,,0.0,10.8,-0.6,5.7,0.0,175.0,0.1,-0.01,1.0,99.0,-10.0,14,0.0,30.08,99.0,,,317.0,,,,,0.0,0.0,,,,,,,,,,,,,,,,,,,0.0,12.0,0.0,0.0,30.1,0.0,,0.0,0.0,,,36.1,0.0,0.0,-0.3,11.1,9.1,,,,,12.0,12.0,12.0,13.0,12.0,13.0,13.0,13.0,,,1.0,71.1,,0.0,5.0,0.0,,,0.656,0.841,+0.0,11.8,,,,,,57.2,53.6,,,,,53.6,53.6,53.6,55.4,53.6,55.4,55.4,55.4,,,53.24,0.0,54.05,-3.1500000000000057,-3.960000000000001,0.0,0.16866666666666666,0.0,401.0,True,2026-04-18 15:46:35
48.06,1,9,2026-04-18 15:47:17,37.08162,-121.59958,272.0,0.0,61.1,-12.6,,,,,0.0,10.9,-0.6,5.7,0.0,175.0,0.1,-0.01,1.0,99.0,7.0,14,0.0,30.08,99.0,,,317.0,,,,,0.0,0.0,,,,,,,,,,,,,,,,,,,0.0,12.0,0.0,0.0,30.1,0.0,,0.0,0.0,,,36.1,0.0,0.0,-0.3,11.1,9.1,,,,,12.0,12.0,12.0,13.0,12.0,13.0,13.0,13.0,,,2.0,55.5,,0.0,5.0,0.0,,,0.654,0.841,+0.0,11.8,,,,,,57.2,53.6,,,,,53.6,53.6,53.6,55.4,53.6,55.4,55.4,55.4,,,53.24,0.0,54.05,-3.1500000000000057,-3.960000000000001,0.0,0.16866666666666666,0.0,401.0,True,2026-04-18 15:46:35
49.06,1,10,2026-04-18 15:47:18,37.08165,-121.59956,294.0,0.0,61.1,-12.6,,,,,0.0,10.8,-0.6,5.7,0.0,175.0,0.1,-0.01,1.0,99.0,-8.0,14,0.0,30.08,99.0,,,317.0,,,,,0.0,0.0,,,,,,,,,,,,,,,,,,,0.0,12.0,0.0,0.0,30.1,0.0,,0.0,0.0,,,36.1,0.0,0.0,-0.4,11.1,9.1,,,,,12.0,12.0,12.0,13.0,12.0,13.0,13.0,13.0,,,2.0,43.4,,0.0,5.0,0.0,,,0.654,0.84,+0.0,11.8,,,,,,57.2,53.6,,,,,53.6,53.6,53.6,55.4,53.6,55.4,55.4,55.4,,,53.24,0.0,54.05,-3.1500000000000057,-3.960000000000001,0.0,0.16866666666666666,0.0,401.0,True,2026-04-18 15:46:35
50.06,1,10,2026-04-18 15:47:19,37.08163,-121.59957,280.0,0.0,61.1,-12.6,,,,,0.0,10.9,-0.6,5.7,0.0,175.0,0.0,-0.01,1.0,99.0,-22.0,14,0.0,30.08,99.0,,,317.0,,,,,0.0,0.0,,,,,,,,,,,,,,,,,,,0.0,12.0,0.0,0.0,30.1,0.0,,0.0,0.0,,,36.1,0.0,0.0,-0.4,11.1,9.1,,,,,12.0,12.0,12.0,13.0,12.0,13.0,13.0,13.0,,,1.0,33.9,,0.0,5.0,0.0,,,0.654,0.84,+0.0,11.8,,,,,,57.2,53.6,,,,,53.6,53.6,53.6,55.4,53.6,55.4,55.4,55.4,,,53.24,0.0,54.05,-3.1500000000000057,-3.960000000000001,0.0,0.16866666666666666,0.0,401.0,True,2026-04-18 15:46:35
51.06,1,10,2026-04-18 15:47:20,37.08163,-121.59957,281.0,0.0,61.1,-12.6,,,,,0.0,10.8,-0.6,5.7,0.0,175.0,0.1,-0.01,1.0,99.0,-15.0,14,0.0,30.08,99.0,,,317.0,,,,,0.0,0.0,,,,,,,,,,,,,,,,,,,0.0,12.0,0.0,0.0,30.1,0.0,,0.0,0.0,,,36.1,0.0,0.0,-0.4,11.1,9.1,,,,,12.0,12.0,12.0,13.0,12.0,13.0,13.0,13.0,,,1.0,26.6,,0.0,5.0,0.0,,,0.656,0.84,+0.0,11.8,,,,,,57.2,53.6,,,,,53.6,53.6,53.6,55.4,53.6,55.4,55.4,55.4,,,53.24,0.0,54.05,-3.1500000000000057,-3.960000000000001,0.0,0.16866666666666666,0.0,401.0,True,2026-04-18 15:46:35
52.06,1,10,2026-04-18 15:47:21,37.08163,-121.59957,281.0,0.0,61.1,-12.6,,,,,0.0,10.9,-0.6,5.7,0.0,175.0,0.1,-0.01,1.0,99.0,-15.0,14,0.0,30.08,99.0,,,317.0,,,,,0.0,0.0,,,,,,,,,,,,,,,,,,,0.0,12.0,0.0,0.0,30.1,0.0,,0.0,0.0,,,36.1,0.0,0.0,-0.4,11.1,9.1,,,,,12.0,12.0,12.0,13.0,12.0,13.0,13.0,13.0,,,1.0,20.9,,0.0,5.0,0.0,,,0.654,0.841,+0.0,11.8,,,,,,57.2,53.6,,,,,53.6,53.6,53.6,55.4,53.6,55.4,55.4,55.4,,,53.24,0.0,54.05,-3.1500000000000057,-3.960000000000001,0.0,0.16866666666666666,0.0,401.0,True,2026-04-18 15:46:35
53.06,1,10,2026-04-18 15:47:22,37.08163,-121.59957,282.0,0.0,61.1,-12.6,,,,,0.0,10.9,-0.6,5.7,0.0,173.0,0.1,-0.01,1.0,99.0,-35.0,14,0.0,30.08,98.0,,,317.0,,,,,0.0,0.0,,,,,,,,,,,,,,,,,,,0.0,12.0,0.0,0.0,30.1,0.0,,0.0,0.0,,,36.1,0.0,0.0,-0.4,11.1,9.1,,,,,12.0,12.0,12.0,13.0,12.0,13.0,13.0,13.0,,,0.0,16.4,,0.0,5.0,0.0,,,0.656,0.841,+0.0,11.8,,,,,,57.2,53.6,,,,,53.6,53.6,53.6,55.4,53.6,55.4,55.4,55.4,,,53.24,0.0,54.05,-3.1500000000000057,-3.960000000000001,0.0,0.16866666666666666,0.0,401.0,True,2026-04-18 15:46:35
54.06,1,10,2026-04-18 15:47:23,37.08163,-121.59957,283.0,0.0,61.1,-12.6,,,,,0.0,10.9,-0.6,5.7,0.0,173.0,0.1,-0.01,1.0,99.0,-42.0,14,0.0,30.08,99.0,,,317.0,,,,,0.0,0.0,,,,,,,,,,,,,,,,,,,0.0,12.0,0.0,0.0,30.1,0.0,,0.0,0.0,,,36.1,0.0,0.0,-0.4,11.1,9.1,,,,,12.0,12.0,12.0,13.0,12.0,13.0,13.0,13.0,,,0.0,13.0,,0.0,5.0,0.0,,,0.654,0.841,+0.0,11.8,,,,,,57.2,53.6,,,,,53.6,53.6,53.6,55.4,53.6,55.4,55.4,55.4,,,53.24,0.0,54.05,-3.1500000000000057,-3.960000000000001,0.0,0.16866666666666666,0.0,401.0,True,2026-04-18 15:46:35
55.06,1,10,2026-04-18 15:47:24,37.08163,-121.59957,284.0,0.0,61.1,-12.6,,,,,0.0,10.8,-0.6,5.7,0.0,172.0,0.1,-0.01,1.0,99.0,-47.0,14,0.0,30.08,99.0,,,317.0,,,,,0.0,0.0,,,,,,,,,,,,,,,,,,,0.0,12.0,0.0,0.0,30.1,0.0,,0.0,0.0,,,36.1,0.0,0.0,-0.4,11.1,9.1,,,,,12.0,12.0,12.0,13.0,12.0,13.0,13.0,13.0,,,0.0,10.3,,0.0,5.0,0.0,,,0.654,0.84,+0.0,11.8,,,,,,57.2,53.6,,,,,53.6,53.6,53.6,55.4,53.6,55.4,55.4,55.4,,,53.24,0.0,54.05,-3.1500000000000057,-3.960000000000001,0.0,0.16866666666666666,0.0,401.0,True,2026-04-18 15:46:35
56.06,1,10,2026-04-18 15:47:25,37.08163,-121.59957,284.0,0.0,61.1,-12.6,,,,,0.0,10.9,-0.6,5.7,0.0,172.0,0.1,-0.01,1.0,99.0,-42.0,14,0.0,30.08,99.0,,,317.0,,,,,0.0,0.0,,,,,,,,,,,,,,,,,,,0.0,12.0,0.0,0.0,30.1,0.0,,0.0,0.0,,,36.1,0.0,0.0,-0.4,11.1,9.1,,,,,12.0,12.0,12.0,13.0,12.0,13.0,13.0,13.0,,,0.0,8.2,,0.0,5.0,0.0,,,0.654,0.841,+0.0,11.8,,,,,,57.2,53.6,,,,,53.6,53.6,53.6,55.4,53.6,55.4,55.4,55.4,,,53.24,0.0,54.05,-3.1500000000000057,-3.960000000000001,0.0,0.16866666666666666,0.0,401.0,True,2026-04-18 15:46:35
57.06,1,10,2026-04-18 15:47:26,37.08163,-121.59957,285.0,0.0,61.1,-12.6,,,,,0.0,10.8,-0.7,5.6,0.0,171.0,0.1,-0.01,1.0,99.0,-40.0,14,0.0,30.08,106.0,,,317.0,,,,,0.0,0.0,,,,,,,,,,,,,,,,,,,0.0,12.0,0.0,0.0,30.1,0.0,,0.0,0.0,,,36.1,0.0,0.0,-0.4,11.1,9.1,,,,,12.0,12.0,12.0,13.0,12.0,13.0,13.0,13.0,,,0.0,6.6,,0.0,5.0,0.0,,,0.654,0.841,+0.0,11.8,,,,,,57.2,53.6,,,,,53.6,53.6,53.6,55.4,53.6,55.4,55.4,55.4,,,53.24,0.0,54.05,-3.1500000000000057,-3.960000000000001,0.0,0.16866666666666666,0.0,401.0,True,2026-04-18 15:46:35
58.06,1,10,2026-04-18 15:47:27,37.08163,-121.59957,285.0,0.0,61.1,-12.6,,,,,0.0,10.9,-0.7,5.6,0.0,171.0,0.1,-0.01,1.0,99.0,-20.0,14,0.0,30.08,106.0,,,317.0,,,,,0.0,0.0,,,,,,,,,,,,,,,,,,,0.0,12.0,0.0,0.0,30.1,0.0,,0.0,0.0,,,36.1,0.0,0.0,-0.4,11.1,9.1,,,,,12.0,12.0,12.0,13.0,12.0,13.0,13.0,13.0,,,0.0,5.3,,0.0,5.0,0.0,,,0.656,0.84,+0.0,11.8,,,,,,57.2,53.6,,,,,53.6,53.6,53.6,55.4,53.6,55.4,55.4,55.4,,,53.24,0.0,54.05,-3.1500000000000057,-3.960000000000001,0.0,0.16866666666666666,0.0,401.0,True,2026-04-18 15:46:35
59.06,1,10,2026-04-18 15:47:28,37.08163,-121.59957,286.0,0.0,61.1,-12.6,,,,,0.0,10.9,-0.7,5.6,0.0,171.0,0.1,-0.01,1.0,99.0,-51.0,14,0.0,30.08,106.0,,,317.0,,,,,0.0,0.0,,,,,,,,,,,,,,,,,,,0.0,12.0,0.0,0.0,30.1,0.0,,0.0,0.0,,,36.1,0.0,0.0,-0.4,11.1,9.1,,,,,12.0,12.0,12.0,13.0,12.0,13.0,13.0,13.0,,,1.0,4.4,,0.0,5.0,0.0,,,0.654,0.841,+0.0,11.8,,,,,,57.2,53.6,,,,,53.6,53.6,53.6,55.4,53.6,55.4,55.4,55.4,,,53.24,0.0,54.05,-3.1500000000000057,-3.960000000000001,0.0,0.16866666666666666,0.0,401.0,True,2026-04-18 15:46:35
60.06,1,10,2026-04-18 15:47:29,37.08163,-121.59957,287.0,0.0,61.1,-12.6,,,,,0.0,10.8,-0.7,5.6,0.0,169.0,0.1,-0.01,1.0,99.0,-61.0,14,0.0,30.08,104.0,,,317.0,,,,,0.0,0.0,,,,,,,,,,,,,,,,,,,0.0,12.0,0.0,0.0,30.1,0.0,,0.0,0.0,,,36.1,0.0,0.0,-0.4,11.1,9.1,,,,,12.0,13.0,13.0,13.0,13.0,13.0,13.0,13.0,,,1.0,3.6,,0.0,5.0,0.0,,,0.654,0.841,+0.0,11.8,,,,,,57.2,53.6,,,,,53.6,55.4,55.4,55.4,55.4,55.4,55.4,55.4,,,53.24,0.0,54.949999999999996,-2.250000000000007,-3.960000000000001,0.0,0.16866666666666666,0.0,401.0,True,2026-04-18 15:46:35
61.06,1,10,2026-04-18 15:47:30,37.08163,-121.59957,288.0,0.0,61.1,-12.6,,,,,0.0,10.9,-0.7,5.5,0.0,169.0,0.1,-0.01,1.0,99.0,-30.0,14,0.0,30.08,104.0,,,317.0,,,,,0.0,0.0,,,,,,,,,,,,,,,,,,,0.0,12.0,0.0,0.0,30.1,0.0,,0.0,0.0,,,36.1,0.0,0.0,-0.4,11.1,9.1,,,,,12.0,13.0,13.0,13.0,13.0,13.0,13.0,13.0,,,1.0,3.1,,0.0,5.0,0.0,,,0.656,0.841,+0.0,11.8,,,,,,57.2,53.6,,,,,53.6,55.4,55.4,55.4,55.4,55.4,55.4,55.4,,,53.24,0.0,54.949999999999996,-2.250000000000007,-3.960000000000001,0.0,0.16866666666666666,0.0,401.0,True,2026-04-18 15:46:35
62.06,1,10,2026-04-18 15:47:31,37.08163,-121.59957,289.0,0.0,61.1,-12.6,,,,,0.0,10.9,-0.7,5.5,0.0,169.0,0.1,-0.01,1.0,99.0,-48.0,14,0.0,30.08,104.0,,,317.0,,,,,0.0,0.0,,,,,,,,,,,,,,,,,,,0.0,12.0,0.0,0.0,30.1,0.0,,0.0,0.0,,,36.1,0.0,0.0,-0.4,11.1,9.1,,,,,12.0,13.0,13.0,13.0,13.0,13.0,13.0,13.0,,,0.0,2.6,,0.0,5.0,0.0,,,0.656,0.841,+0.0,11.8,,,,,,57.2,53.6,,,,,53.6,55.4,55.4,55.4,55.4,55.4,55.4,55.4,,,53.24,0.0,54.949999999999996,-2.250000000000007,-3.960000000000001,0.0,0.16866666666666666,0.0,401.0,True,2026-04-18 15:46:35
63.06,1,10,2026-04-18 15:47:32,37.08163,-121.59957,290.0,0.0,61.1,-12.6,,,,,0.0,10.9,-0.7,5.5,0.0,168.0,0.1,-0.01,1.0,99.0,-45.0,14,0.0,30.08,102.0,,,317.0,,,,,0.0,0.0,,,,,,,,,,,,,,,,,,,0.0,12.0,0.0,0.0,30.1,0.0,,0.0,0.0,,,36.1,0.0,0.0,-0.4,11.1,9.1,,,,,12.0,13.0,13.0,13.0,13.0,13.0,13.0,13.0,,,0.0,2.2,,0.0,5.0,0.0,,,0.654,0.841,+0.0,11.8,,,,,,57.2,53.6,,,,,53.6,55.4,55.4,55.4,55.4,55.4,55.4,55.4,,,53.24,0.0,54.949999999999996,-2.250000000000007,-3.960000000000001,0.0,0.16866666666666666,0.0,401.0,True,2026-04-18 15:46:35
64.06,1,10,2026-04-18 15:47:33,37.08163,-121.59957,291.0,0.0,61.1,-12.6,,,,,0.0,10.9,-0.7,5.5,0.0,167.0,0.1,-0.01,1.0,99.0,-46.0,14,0.0,30.08,102.0,,,317.0,,,,,0.0,0.0,,,,,,,,,,,,,,,,,,,0.0,12.0,0.0,0.0,30.1,0.0,,0.0,0.0,,,36.1,0.0,0.0,-0.4,11.1,9.1,,,,,12.0,13.0,13.0,13.0,13.0,13.0,13.0,13.0,,,1.0,2.0,,0.0,5.0,0.0,,,0.654,0.841,+0.0,11.8,,,,,,57.2,53.6,,,,,53.6,55.4,55.4,55.4,55.4,55.4,55.4,55.4,,,53.24,0.0,54.949999999999996,-2.250000000000007,-3.960000000000001,0.0,0.16866666666666666,0.0,401.0,True,2026-04-18 15:46:35
65.06,1,10,2026-04-18 15:47:34,37.08163,-121.59957,292.0,0.0,61.1,-12.6,,,,,0.0,10.9,-0.7,5.5,0.0,167.0,0.1,-0.01,1.0,99.0,-24.0,14,0.0,30.08,102.0,,,317.0,,,,,0.0,0.0,,,,,,,,,,,,,,,,,,,0.0,12.0,0.0,0.0,30.1,0.0,,0.0,0.0,,,36.1,0.0,0.0,-0.4,11.1,9.1,,,,,12.0,13.0,13.0,13.0,13.0,13.0,13.0,13.0,,,1.0,1.7,,0.0,5.0,0.0,,,0.656,0.84,+0.0,11.8,,,,,,57.2,53.6,,,,,53.6,55.4,55.4,55.4,55.4,55.4,55.4,55.4,,,53.24,0.0,54.949999999999996,-2.250000000000007,-3.960000000000001,0.0,0.16866666666666666,0.0,401.0,True,2026-04-18 15:46:35
66.06,1,10,2026-04-18 15:47:35,37.08162,-121.59957,299.0,0.0,61.1,-12.6,,,,,0.0,10.9,-0.7,5.5,0.0,167.0,0.1,-0.01,1.0,99.0,11.0,14,0.0,30.08,102.0,,,317.0,,,,,0.0,0.0,,,,,,,,,,,,,,,,,,,0.0,12.0,0.0,0.0,30.1,0.0,,0.0,0.0,,,36.1,0.0,0.0,-0.4,11.1,9.1,,,,,12.0,13.0,13.0,13.0,12.0,13.0,13.0,13.0,,,0.0,1.6,,0.0,5.0,0.0,,,0.656,0.84,+0.0,11.8,,,,,,57.2,53.6,,,,,53.6,55.4,55.4,55.4,53.6,55.4,55.4,55.4,,,53.24,0.0,54.5,-2.700000000000003,-3.960000000000001,0.0,0.16866666666666666,0.0,401.0,True,2026-04-18 15:46:35
67.06,1,10,2026-04-18 15:47:36,37.08162,-121.59957,302.0,0.0,61.1,-12.6,,,,,0.0,10.9,-0.7,5.5,0.0,167.0,0.1,-0.01,1.0,99.0,25.0,14,0.0,30.08,102.0,,,317.0,,,,,0.0,0.0,,,,,,,,,,,,,,,,,,,0.0,12.0,0.0,0.0,30.1,0.0,,0.0,0.0,,,36.1,0.0,0.0,-0.4,11.1,9.1,,,,,12.0,13.0,13.0,13.0,12.0,13.0,13.0,13.0,,,1.0,1.4,,0.0,5.0,0.0,,,0.656,0.84,+0.0,11.8,,,,,,57.2,53.6,,,,,53.6,55.4,55.4,55.4,53.6,55.4,55.4,55.4,,,53.24,0.0,54.5,-2.700000000000003,-3.960000000000001,0.0,0.16866666666666666,0.0,401.0,True,2026-04-18 15:46:35
68.06,1,10,2026-04-18 15:47:37,37.08162,-121.59957,304.0,0.0,61.1,-12.6,,,,,0.0,10.9,-0.6,5.6,0.0,167.0,0.1,-0.01,1.0,99.0,54.0,14,0.0,30.08,102.0,,,317.0,,,,,0.0,0.0,,,,,,,,,,,,,,,,,,,0.0,12.0,0.0,0.0,30.1,0.0,,0.0,0.0,,,36.1,0.0,0.0,-0.4,11.1,9.1,,,,,12.0,13.0,13.0,13.0,12.0,13.0,13.0,13.0,,,1.0,1.3,,0.0,5.0,0.0,,,0.654,0.84,+0.0,11.8,,,,,,57.2,53.6,,,,,53.6,55.4,55.4,55.4,53.6,55.4,55.4,55.4,,,53.24,0.0,54.5,-2.700000000000003,-3.960000000000001,0.0,0.16866666666666666,0.0,401.0,True,2026-04-18 15:46:35
69.06,1,10,2026-04-18 15:47:38,37.08161,-121.59957,305.0,0.0,61.1,-12.6,,,,,0.0,10.9,-0.6,5.6,0.0,167.0,0.1,-0.01,1.0,99.0,0.0,14,0.0,30.08,111.0,,,317.0,,,,,0.0,0.0,,,,,,,,,,,,,,,,,,,0.0,12.0,0.0,0.0,30.1,0.0,,0.0,0.0,,,36.1,0.0,0.0,-0.4,11.1,9.1,,,,,12.0,13.0,13.0,13.0,12.0,13.0,13.0,13.0,,,1.0,1.2,,0.0,5.0,0.0,,,0.654,0.841,+0.0,11.8,,,,,,57.2,53.6,,,,,53.6,55.4,55.4,55.4,53.6,55.4,55.4,55.4,,,53.24,0.0,54.5,-2.700000000000003,-3.960000000000001,0.0,0.16866666666666666,0.0,401.0,True,2026-04-18 15:46:35
70.06,1,10,2026-04-18 15:47:39,37.08161,-121.59958,306.0,0.0,61.1,-12.6,,,,,0.0,10.9,-0.6,5.6,0.0,167.0,0.1,-0.01,1.0,99.0,-30.0,14,0.0,30.08,110.0,,,317.0,,,,,0.0,0.0,,,,,,,,,,,,,,,,,,,0.0,12.0,0.0,0.0,30.1,0.0,,0.0,0.0,,,36.1,0.0,0.0,-0.4,11.1,9.1,,,,,12.0,13.0,13.0,13.0,12.0,13.0,13.0,13.0,,,1.0,1.2,,0.0,5.0,0.0,,,0.654,0.841,+0.0,11.8,,,,,,57.2,53.6,,,,,53.6,55.4,55.4,55.4,53.6,55.4,55.4,55.4,,,53.24,0.0,54.5,-2.700000000000003,-3.960000000000001,0.0,0.16866666666666666,0.0,401.0,True,2026-04-18 15:46:35
71.06,1,10,2026-04-18 15:47:40,37.08161,-121.59958,307.0,0.0,61.1,-12.6,,,,,0.0,10.9,-0.6,5.7,0.0,167.0,0.1,-0.01,1.0,99.0,-18.0,14,0.0,30.08,110.0,,,317.0,,,,,0.0,0.0,,,,,,,,,,,,,,,,,,,0.0,12.0,0.0,0.0,30.1,0.5,,0.5,23.4,,,36.1,0.0,0.0,-0.3,11.1,9.1,,,,,12.0,13.0,13.0,13.0,12.0,13.0,13.0,13.0,,,2.0,1.2,,23.4,5.0,0.0,,,0.654,0.841,+0.0,11.8,,,,,,57.2,53.6,,,,,53.6,55.4,55.4,55.4,53.6,55.4,55.4,55.4,,,53.24,0.0,54.5,-2.700000000000003,-3.960000000000001,6.944444444444444e-05,0.16866666666666666,0.0,401.0,True,2026-04-18 15:46:35
72.06,1,10,2026-04-18 15:47:41,37.08161,-121.59958,309.0,0.0,61.1,-12.6,,,,,0.0,10.9,-0.6,5.7,0.0,167.0,0.1,-0.01,1.0,99.0,5.0,14,0.0,30.08,110.0,,,317.0,,,,,0.0,0.0,,,,,,,,,,,,,,,,,,,0.0,12.0,0.0,0.0,30.1,1.4,,1.4,31.1,,,36.1,0.0,0.0,-0.3,11.1,9.1,,,,,12.0,13.0,13.0,13.0,12.0,13.0,13.0,13.0,,,1.0,1.1,,31.1,5.0,0.0,,,0.654,0.841,+0.0,11.8,,,,,,57.2,53.6,,,,,53.6,55.4,55.4,55.4,53.6,55.4,55.4,55.4,,,53.24,0.0,54.5,-2.700000000000003,-3.960000000000001,0.0003333333333333333,0.16866666666666666,0.0,401.0,True,2026-04-18 15:46:35
73.06,1,10,2026-04-18 15:47:42,37.08161,-121.59958,310.0,0.0,61.1,-12.6,,,,,0.0,10.9,-0.6,5.7,0.0,167.0,0.1,-0.01,1.0,99.0,38.0,14,0.0,30.08,113.0,,,317.0,,,,,0.0,0.0,,,,,,,,,,,,,,,,,,,0.0,12.0,0.0,0.0,30.1,2.1,,2.1,32.0,,,36.1,0.0,0.0,-0.3,11.1,9.1,,,,,12.0,13.0,13.0,13.0,12.0,13.0,13.0,13.0,,,1.0,1.1,,32.0,5.0,0.0,,,0.654,0.841,+0.0,11.8,,,,,,57.2,53.6,,,,,53.6,55.4,55.4,55.4,53.6,55.4,55.4,55.4,,,53.24,0.0,54.5,-2.700000000000003,-3.960000000000001,0.0008194444444444445,0.16866666666666666,0.0,401.0,True,2026-04-18 15:46:35
74.06,1,10,2026-04-18 15:47:43,37.08161,-121.59958,311.0,0.0,61.1,-12.6,,,,,0.0,10.9,-0.6,5.7,0.0,167.0,0.1,-0.01,1.0,99.0,18.0,14,0.0,30.08,113.0,,,317.0,,,,,0.0,0.0,,,,,,,,,,,,,,,,,,,0.0,12.0,0.0,0.0,30.1,2.6,,2.6,32.2,,,36.1,0.0,0.0,-0.3,11.1,9.1,,,,,12.0,13.0,13.0,13.0,12.0,13.0,13.0,13.0,,,2.0,1.0,,32.2,5.0,0.0,,,0.654,0.841,+0.0,11.8,,,,,,57.2,53.6,,,,,53.6,55.4,55.4,55.4,53.6,55.4,55.4,55.4,,,53.24,0.0,54.5,-2.700000000000003,-3.960000000000001,0.0014722222222222222,0.16866666666666666,0.0,401.0,True,2026-04-18 15:46:35
75.06,1,10,2026-04-18 15:47:44,37.08161,-121.59958,312.0,0.0,61.1,-12.6,,,,,0.0,10.9,-0.6,5.6,0.0,167.0,0.1,-0.01,1.0,99.0,20.0,14,0.0,30.08,113.0,,,317.0,,,,,0.0,0.0,,,,,,,,,,,,,,,,,,,0.0,12.0,0.0,0.0,30.1,2.8,,2.8,33.4,,,36.1,0.0,0.0,-0.3,11.1,9.1,,,,,12.0,13.0,13.0,13.0,12.0,13.0,13.0,13.0,,,2.0,1.0,,33.4,5.0,0.0,,,0.656,0.841,+0.0,11.8,,,,,,57.2,53.6,,,,,53.6,55.4,55.4,55.4,53.6,55.4,55.4,55.4,,,53.24,0.0,54.5,-2.700000000000003,-3.960000000000001,0.0022222222222222222,0.16866666666666666,0.0,401.0,True,2026-04-18 15:46:35
76.06,1,10,2026-04-18 15:47:45,37.08161,-121.59958,313.0,0.0,61.1,-12.6,,,,,0.0,10.9,-0.6,5.6,0.0,167.0,0.1,-0.01,1.0,99.0,-1.0,14,0.0,30.08,122.0,,,317.0,,,,,0.0,0.0,,,,,,,,,,,,,,,,,,,0.0,12.0,0.0,0.0,30.1,2.5,,2.5,34.1,,,36.1,0.0,0.0,-0.3,11.1,9.1,,,,,12.0,13.0,13.0,13.0,12.0,13.0,13.0,13.0,,,2.0,1.0,,34.1,5.0,0.0,,,0.656,0.841,+0.0,11.8,,,,,,57.2,53.6,,,,,53.6,55.4,55.4,55.4,53.6,55.4,55.4,55.4,,,53.24,0.0,54.5,-2.700000000000003,-3.960000000000001,0.002958333333333333,0.16866666666666666,0.0,401.0,True,2026-04-18 15:46:35
77.06,1,10,2026-04-18 15:47:46,37.08162,-121.59958,314.0,0.0,61.1,-12.6,,,,,0.0,10.9,-0.6,5.6,0.0,167.0,0.0,-0.01,1.0,99.0,0.0,14,0.0,30.08,121.0,,,317.0,,,,,0.0,0.0,,,,,,,,,,,,,,,,,,,0.0,12.0,0.0,0.0,30.1,2.5,,2.5,32.5,,,36.1,0.0,0.0,-0.3,11.1,9.1,,,,,12.0,13.0,13.0,13.0,12.0,13.0,13.0,13.0,,,2.0,1.0,,32.5,5.0,0.0,,,0.654,0.841,+0.0,11.8,,,,,,57.2,53.6,,,,,53.6,55.4,55.4,55.4,53.6,55.4,55.4,55.4,,,53.24,0.0,54.5,-2.700000000000003,-3.960000000000001,0.003652777777777778,0.16866666666666666,0.0,401.0,True,2026-04-18 15:46:35
78.06,1,10,2026-04-18 15:47:47,37.0816,-121.59957,327.0,0.0,61.1,-12.6,,,,,0.0,10.9,-0.6,5.6,0.0,167.0,0.1,-0.01,1.0,99.0,25.0,14,0.0,30.08,121.0,,,317.0,,,,,0.0,0.0,,,,,,,,,,,,,,,,,,,0.0,12.0,0.0,0.0,30.1,0.0,,0.0,32.2,,,36.1,0.0,0.0,-0.3,11.1,9.1,,,,,12.0,13.0,12.0,13.0,12.0,13.0,13.0,13.0,,,2.0,1.0,,32.2,5.0,0.0,,,0.654,0.841,+0.0,11.8,,,,,,57.2,53.6,,,,,53.6,55.4,53.6,55.4,53.6,55.4,55.4,55.4,,,53.24,0.0,54.05,-3.1500000000000057,-3.960000000000001,0.004,0.16866666666666666,0.0,401.0,True,2026-04-18 15:46:35
79.06,1,10,2026-04-18 15:47:48,37.0816,-121.59957,328.0,0.0,61.1,-12.6,,,,,0.0,10.9,-0.6,5.6,0.0,167.0,0.1,-0.01,1.0,99.0,-5.0,14,0.0,30.08,121.0,,,317.0,,,,,0.0,0.0,,,,,,,,,,,,,,,,,,,0.0,12.0,0.0,0.0,30.1,0.0,,0.0,32.0,,,36.1,0.0,0.0,-0.4,11.1,9.1,,,,,12.0,13.0,12.0,13.0,12.0,13.0,13.0,13.0,,,2.0,1.0,,32.0,5.0,0.0,,,0.654,0.841,+0.0,11.8,,,,,,57.2,53.6,,,,,53.6,55.4,53.6,55.4,53.6,55.4,55.4,55.4,,,53.24,0.0,54.05,-3.1500000000000057,-3.960000000000001,0.004,0.16866666666666666,0.0,401.0,True,2026-04-18 15:46:35
80.06,1,10,2026-04-18 15:47:49,37.0816,-121.59957,330.0,0.0,61.1,-12.6,,,,,0.0,10.9,-0.6,5.6,0.0,167.0,0.1,-0.01,1.0,99.0,17.0,14,0.0,30.08,122.0,,,317.0,,,,,0.0,0.0,,,,,,,,,,,,,,,,,,,0.0,12.0,0.0,0.0,30.1,0.0,,0.0,31.8,,,36.1,0.0,0.0,-0.4,11.1,9.1,,,,,12.0,13.0,12.0,13.0,12.0,13.0,13.0,13.0,,,2.0,1.0,,31.8,5.0,0.0,,,0.656,0.841,+0.0,11.8,,,,,,57.2,53.6,,,,,53.6,55.4,53.6,55.4,53.6,55.4,55.4,55.4,,,53.24,0.0,54.05,-3.1500000000000057,-3.960000000000001,0.004,0.16866666666666666,0.0,401.0,True,2026-04-18 15:46:35
81.06,1,10,2026-04-18 15:47:50,37.0816,-121.59957,332.0,0.0,61.1,-12.6,,,,,0.0,10.9,-0.6,5.6,0.0,167.0,0.1,-0.01,1.0,99.0,42.0,14,0.0,30.08,122.0,,,317.0,,,,,0.0,0.0,,,,,,,,,,,,,,,,,,,0.0,12.0,0.0,0.0,30.1,0.0,,0.0,31.6,,,36.1,0.0,0.0,-0.4,11.1,9.1,,,,,12.0,13.0,12.0,13.0,12.0,13.0,13.0,13.0,,,1.0,1.0,,31.6,5.0,0.0,,,0.654,0.841,+0.0,11.8,,,,,,57.2,53.6,,,,,53.6,55.4,53.6,55.4,53.6,55.4,55.4,55.4,,,53.24,0.0,54.05,-3.1500000000000057,-3.960000000000001,0.004,0.16866666666666666,0.0,401.0,True,2026-04-18 15:46:35
82.06,1,10,2026-04-18 15:47:51,37.0816,-121.59957,334.0,0.1,61.1,-12.6,,,,,0.0,11.0,-0.6,5.6,0.0,167.0,0.1,-0.01,1.0,99.0,32.0,14,0.0,30.08,122.0,,,317.0,,,,,0.0,0.0,,,,,,,,,,,,,,,,,,,0.0,12.0,0.0,0.0,30.1,0.0,,0.0,31.4,,,36.1,0.0,0.0,-0.4,11.1,9.1,,,,,12.0,13.0,12.0,13.0,12.0,13.0,13.0,13.0,,,2.0,1.0,,31.4,5.0,0.0,,,0.656,0.841,+0.0,11.8,,,,,,57.2,53.6,,,,,53.6,55.4,53.6,55.4,53.6,55.4,55.4,55.4,,,53.24,0.0,54.05,-3.1500000000000057,-3.960000000000001,0.004,0.253,0.0,401.0,True,2026-04-18 15:46:35
83.06,1,10,2026-04-18 15:47:52,37.0816,-121.59957,335.0,0.1,61.1,-12.6,,,,,0.0,10.9,-0.6,5.6,0.0,167.0,0.1,-0.01,1.0,99.0,17.0,14,0.0,30.08,122.0,,,317.0,,,,,0.0,0.0,,,,,,,,,,,,,,,,,,,0.0,12.0,0.0,0.0,30.1,0.0,,0.0,31.2,,,36.1,0.0,0.0,-0.4,11.1,9.1,,,,,12.0,13.0,12.0,13.0,12.0,13.0,13.0,13.0,,,2.0,1.0,,31.2,5.0,0.0,,,0.656,0.841,+0.0,11.8,,,,,,57.2,53.6,,,,,53.6,55.4,53.6,55.4,53.6,55.4,55.4,55.4,,,53.24,0.0,54.05,-3.1500000000000057,-3.960000000000001,0.004,0.42166666666666663,0.0,401.0,True,2026-04-18 15:46:35
84.06,1,10,2026-04-18 15:47:53,37.0816,-121.59957,336.0,0.0,61.1,-12.6,,,,,0.0,10.9,-0.6,5.7,0.0,167.0,0.1,-0.01,1.0,99.0,29.0,14,0.0,30.08,122.0,,,317.0,,,,,0.0,0.0,,,,,,,,,,,,,,,,,,,0.0,12.0,0.0,0.0,30.1,0.0,,0.0,31.1,,,36.1,0.0,0.0,-0.4,11.1,9.1,,,,,12.0,13.0,12.0,13.0,12.0,13.0,13.0,13.0,,,2.0,1.0,,31.1,5.0,0.0,,,0.654,0.841,+0.0,11.8,,,,,,57.2,53.6,,,,,53.6,55.4,53.6,55.4,53.6,55.4,55.4,55.4,,,53.24,0.0,54.05,-3.1500000000000057,-3.960000000000001,0.004,0.506,0.0,401.0,True,2026-04-18 15:46:35
85.06,1,10,2026-04-18 15:47:54,37.08162,-121.59956,355.0,0.1,61.1,-12.6,,,,,0.0,10.9,-0.6,5.7,0.0,167.0,0.1,-0.01,1.0,99.0,49.0,14,0.0,30.08,122.0,,,317.0,,,,,0.0,0.0,,,,,,,,,,,,,,,,,,,0.0,12.0,0.0,0.0,30.1,0.0,,0.0,30.9,,,36.1,0.0,0.0,-0.4,11.1,9.1,,,,,12.0,13.0,12.0,13.0,12.0,13.0,13.0,13.0,,,2.0,1.0,,30.9,5.0,0.0,,,0.654,0.84,+0.0,11.8,,,,,,57.2,53.6,,,,,53.6,55.4,53.6,55.4,53.6,55.4,55.4,55.4,,,53.24,0.0,54.05,-3.1500000000000057,-3.960000000000001,0.004,0.5903333333333333,0.0,401.0,True,2026-04-18 15:46:35
86.06,1,10,2026-04-18 15:47:55,37.08162,-121.59956,356.0,0.0,61.1,-12.6,,,,,0.0,10.9,-0.6,5.7,0.0,167.0,0.1,-0.01,1.0,99.0,19.0,14,0.0,30.08,123.0,,,317.0,,,,,0.0,0.0,,,,,,,,,,,,,,,,,,,0.0,12.0,0.0,0.0,30.1,0.0,,0.0,30.8,,,36.1,0.0,0.0,-0.4,11.1,9.1,,,,,12.0,13.0,13.0,14.0,13.0,13.0,13.0,14.0,,,3.0,1.0,,30.8,5.0,0.0,,,0.656,0.841,+0.0,11.8,,,,,,57.2,53.6,,,,,53.6,55.4,55.4,57.2,55.4,55.4,55.4,57.2,,,53.24,0.0,54.949999999999996,-2.250000000000007,-3.960000000000001,0.004,0.6746666666666666,0.0,401.0,True,2026-04-18 15:46:35
87.06,1,10,2026-04-18 15:47:56,37.08163,-121.59956,356.0,0.1,61.1,-12.6,,,,,0.0,10.9,-0.6,5.6,0.0,167.0,0.1,-0.01,1.0,99.0,9.0,14,0.0,30.08,125.0,,,317.0,,,,,0.0,0.0,,,,,,,,,,,,,,,,,,,0.0,12.0,0.0,0.0,30.1,0.0,,0.0,30.7,,,36.1,0.0,0.0,-0.4,11.1,9.1,,,,,12.0,13.0,13.0,14.0,13.0,13.0,13.0,14.0,,,2.0,0.0,,30.7,5.0,0.0,,,0.654,0.841,+0.0,11.8,,,,,,57.2,53.6,,,,,53.6,55.4,55.4,57.2,55.4,55.4,55.4,57.2,,,53.24,0.0,54.949999999999996,-2.250000000000007,-3.960000000000001,0.004,0.7589999999999999,0.0,401.0,True,2026-04-18 15:46:35
88.06,1,10,2026-04-18 15:47:57,37.08163,-121.59956,358.0,0.0,61.1,-12.6,,,,,0.0,10.9,-0.6,5.6,0.0,167.0,0.1,-0.01,1.0,99.0,-15.0,14,0.0,30.08,125.0,,,317.0,,,,,0.0,0.0,,,,,,,,,,,,,,,,,,,0.0,12.0,0.0,0.0,30.1,0.0,,0.0,30.6,,,36.1,0.0,0.0,-0.4,11.1,9.1,,,,,12.0,13.0,13.0,14.0,13.0,13.0,13.0,14.0,,,3.0,0.0,,30.6,5.0,0.0,,,0.654,0.841,+0.0,11.8,,,,,,57.2,53.6,,,,,53.6,55.4,55.4,57.2,55.4,55.4,55.4,57.2,,,53.24,0.0,54.949999999999996,-2.250000000000007,-3.960000000000001,0.004,0.8433333333333333,0.0,401.0,True,2026-04-18 15:46:35
89.06,1,10,2026-04-18 15:47:58,37.08165,-121.59956,353.0,0.0,61.1,-12.6,,,,,0.0,10.9,-0.6,5.6,0.0,167.0,0.1,-0.01,1.0,99.0,-27.0,14,0.0,30.08,125.0,,,317.0,,,,,0.0,0.0,,,,,,,,,,,,,,,,,,,0.0,12.0,0.0,0.0,30.1,0.0,,0.0,30.4,,,36.1,0.0,0.0,-0.4,11.1,9.1,,,,,12.0,13.0,13.0,14.0,13.0,13.0,13.0,14.0,,,2.0,0.0,,30.4,5.0,0.0,,,0.654,0.84,+0.0,11.8,,,,,,57.2,53.6,,,,,53.6,55.4,55.4,57.2,55.4,55.4,55.4,57.2,,,53.24,0.0,54.949999999999996,-2.250000000000007,-3.960000000000001,0.004,0.8433333333333333,0.0,401.0,True,2026-04-18 15:46:35
90.06,1,10,2026-04-18 15:47:59,37.08166,-121.59956,353.0,0.0,61.1,-12.6,,,,,0.0,10.9,-0.6,5.6,0.0,167.0,0.1,-0.01,1.0,99.0,2.0,14,0.0,30.08,134.0,,,317.0,,,,,0.0,0.0,,,,,,,,,,,,,,,,,,,0.0,12.0,0.0,0.0,30.1,0.0,,0.0,30.3,,,36.1,0.0,0.0,-0.4,11.1,9.1,,,,,12.0,13.0,13.0,14.0,13.0,13.0,13.0,14.0,,,2.0,0.0,,30.3,5.0,0.0,,,0.654,0.841,+0.0,11.8,,,,,,57.2,53.6,,,,,53.6,55.4,55.4,57.2,55.4,55.4,55.4,57.2,,,53.24,0.0,54.949999999999996,-2.250000000000007,-3.960000000000001,0.004,0.8433333333333333,0.0,401.0,True,2026-04-18 15:46:35
91.06,1,10,2026-04-18 15:48:00,37.08166,-121.59956,354.0,0.0,61.1,-12.6,,,,,0.0,10.9,-0.6,5.7,0.0,167.0,0.1,-0.01,1.0,99.0,-12.0,14,0.0,30.08,134.0,,,317.0,,,,,0.0,0.0,,,,,,,,,,,,,,,,,,,0.0,9.0,0.0,0.0,30.1,0.0,,0.0,30.2,,,36.1,0.0,0.0,-0.4,11.1,9.1,,,,,10.0,10.0,10.0,10.0,10.0,10.0,10.0,10.0,,,2.0,0.0,,30.2,5.0,0.0,,,0.654,0.842,+0.0,8.5,,,,,,57.2,48.2,,,,,50.0,50.0,50.0,50.0,50.0,50.0,50.0,50.0,,,47.3,0.0,50.0,-7.200000000000003,-9.900000000000006,0.004,0.8433333333333333,0.0,401.0,True,2026-04-18 15:46:35
92.06,1,10,2026-04-18 15:48:01,37.08166,-121.59956,354.0,0.1,61.1,-12.6,,,,,0.0,10.9,-0.7,5.7,0.0,167.0,0.1,-0.02,1.0,99.0,-17.0,14,0.0,30.08,134.0,,,317.0,,,,,0.0,0.0,,,,,,,,,,,,,,,,,,,0.0,10.0,207.0,207.0,29.6,0.0,,0.0,24.5,,,36.1,0.0,0.0,-0.4,11.1,9.1,,,,,11.0,12.0,11.0,25.0,11.0,30.0,11.0,12.0,,,15.0,0.0,,24.5,5.0,0.0,,,0.656,0.846,+0.0,10.4,,,,,,57.2,50.0,,,,,51.8,53.6,51.8,77.0,51.8,86.0,51.8,53.6,,,50.72,207.0,51.8,-5.400000000000006,-6.480000000000004,0.004,0.9276666666666666,0.0,401.0,True,2026-04-18 15:46:35
93.06,1,10,2026-04-18 15:48:02,37.08166,-121.59956,355.0,0.1,61.1,-12.6,,,,,0.0,10.9,-0.7,5.8,0.0,167.0,0.1,-0.01,1.0,99.0,-54.0,14,0.0,30.08,134.0,,,317.0,,,,,0.0,0.0,,,,,,,,,,,,,,,,,,,1.0,12.0,975.0,975.0,26.3,1.1,,1.1,24.4,,,36.1,0.0,0.0,-0.4,11.1,9.1,,,,,12.0,31.0,13.0,42.0,13.0,56.0,13.0,31.0,,,15.0,0.0,,24.4,5.0,0.001,,,0.665,0.844,+1.3,11.8,,,,,,57.2,53.6,,,,,53.6,87.8,55.4,107.6,55.4,132.8,55.4,87.8,,,53.24,975.0,54.949999999999996,-2.250000000000007,-3.960000000000001,0.004152777777777778,1.0963333333333334,0.09090909090909091,401.0,True,2026-04-18 15:46:35
94.06,1,10,2026-04-18 15:48:03,37.08166,-121.59956,355.0,0.0,61.1,-12.6,,,,,0.0,10.9,-0.5,5.8,0.0,167.0,0.1,-0.01,1.0,99.0,-24.0,14,0.0,30.08,134.0,,,317.0,,,,,0.0,0.0,,,,,,,,,,,,,,,,,,,3.0,12.0,1075.0,1075.0,18.0,1.9,,1.9,25.1,,,36.1,0.0,0.0,-0.4,11.1,9.1,,,,,13.0,93.0,13.0,100.0,13.0,117.0,13.0,93.0,,,15.0,0.0,,25.1,5.0,0.001,,,0.656,0.842,+2.7,11.9,,,,,,57.2,53.6,,,,,55.4,199.4,55.4,212.0,55.4,242.6,55.4,199.4,,,53.42,1075.0,55.4,-1.8000000000000043,-3.780000000000001,0.0045694444444444446,1.1806666666666665,0.0,401.0,True,2026-04-18 15:46:35
95.06,1,10,2026-04-18 15:48:04,37.08166,-121.59956,354.0,0.1,61.1,-12.6,,,,,0.0,10.9,-0.6,5.7,0.0,167.0,0.0,-0.01,1.0,99.0,-34.0,14,0.0,30.08,134.0,,,317.0,,,,,0.0,0.0,,,,,,,,,,,,,,,,,,,5.0,12.0,1100.0,1100.0,16.7,2.4,,2.4,25.3,,,36.1,0.0,0.0,-0.4,11.1,9.1,,,,,13.0,146.0,13.0,155.0,13.0,168.0,13.0,147.0,,,15.0,0.0,,25.3,5.0,0.001,,,0.654,0.841,+4.6,11.9,,,,,,57.2,53.6,,,,,55.4,294.8,55.4,311.0,55.4,334.4,55.4,296.6,,,53.42,1100.0,55.4,-1.8000000000000043,-3.780000000000001,0.005166666666666667,1.265,0.04166666666666667,401.0,True,2026-04-18 15:46:35
96.06,1,10,2026-04-18 15:48:05,37.08165,-121.59958,369.0,0.0,61.1,-12.6,,,,,0.0,10.9,-0.5,5.7,0.0,167.0,0.0,-0.01,1.0,99.0,-10.0,14,0.0,30.08,134.0,,,317.0,,,,,0.0,0.0,,,,,,,,,,,,,,,,,,,7.0,12.0,1199.0,1199.0,16.0,2.6,,2.6,26.0,,,36.1,0.0,0.0,-0.4,11.1,9.1,,,,,13.0,192.0,14.0,199.0,13.0,212.0,14.0,192.0,,,15.0,0.0,,26.0,5.0,0.001,,,0.656,0.841,+6.8,11.9,,,,,,57.2,53.6,,,,,55.4,377.6,57.2,390.2,55.4,413.6,57.2,377.6,,,53.42,1199.0,56.300000000000004,-0.8999999999999986,-3.780000000000001,0.005861111111111111,1.3493333333333333,0.0,401.0,True,2026-04-18 15:46:35
97.06,1,10,2026-04-18 15:48:06,37.08165,-121.59958,370.0,0.0,61.1,-12.6,,,,,0.0,10.9,-0.5,5.8,0.0,167.0,0.1,-0.01,1.0,99.0,-25.0,14,0.0,30.08,136.0,,,317.0,,,,,0.0,0.0,,,,,,,,,,,,,,,,,,,9.0,12.0,1227.0,1227.0,15.5,2.8,,2.8,25.9,,,36.1,0.0,0.0,-0.4,11.1,9.1,,,,,14.0,236.0,14.0,238.0,14.0,251.0,14.0,232.0,,,15.0,0.0,,25.9,5.0,0.001,,,0.656,0.841,+9.5,11.9,,,,,,57.2,53.6,,,,,57.2,456.8,57.2,460.4,57.2,483.8,57.2,449.6,,,53.42,1227.0,57.2,0.0,-3.780000000000001,0.006611111111111111,1.3493333333333333,0.0,401.0,True,2026-04-18 15:46:35
98.06,1,10,2026-04-18 15:48:07,37.08165,-121.59958,369.0,0.0,61.1,-12.6,,,,,0.0,10.9,-0.6,5.7,0.0,167.0,0.1,-0.01,1.0,99.0,-48.0,14,0.0,30.08,136.0,,,317.0,,,,,0.0,0.0,,,,,,,,,,,,,,,,,,,13.0,12.0,1247.0,1247.0,15.3,3.0,,3.0,25.9,,,36.1,0.0,0.0,-0.4,11.1,9.1,,,,,14.0,274.0,15.0,273.0,14.0,289.0,15.0,269.0,,,15.0,0.0,,25.9,5.0,0.001,,,0.654,0.841,+12.7,12.0,,,,,,57.2,53.6,,,,,57.2,525.2,59.0,523.4,57.2,552.2,59.0,516.2,,,53.6,1247.0,58.099999999999994,0.8999999999999915,-3.6000000000000014,0.007416666666666667,1.3493333333333333,0.0,401.0,True,2026-04-18 15:46:35
99.06,1,10,2026-04-18 15:48:08,37.08165,-121.59958,367.0,0.0,61.1,-12.6,,,,,0.0,10.9,-0.6,5.7,0.0,167.0,0.0,-0.01,1.0,99.0,-8.0,14,0.0,30.08,136.0,,,317.0,,,,,0.0,0.0,,,,,,,,,,,,,,,,,,,16.0,12.0,1227.0,1227.0,14.9,3.1,,3.1,26.0,,,36.1,0.0,0.0,-0.4,11.1,9.1,,,,,15.0,305.0,15.0,303.0,15.0,321.0,16.0,301.0,,,15.0,0.0,,26.0,5.0,0.001,,,0.654,0.841,+16.4,12.0,,,,,,57.2,53.6,,,,,59.0,581.0,59.0,577.4,59.0,609.8,60.8,573.8,,,53.6,1227.0,59.45,2.25,-3.6000000000000014,0.008263888888888888,1.3493333333333333,0.0,401.0,True,2026-04-18 15:46:35
100.06,1,10,2026-04-18 15:48:09,37.08165,-121.59959,366.0,0.1,61.1,-12.6,,,,,0.0,10.9,-0.5,5.8,0.0,167.0,0.1,-0.01,1.0,99.0,-12.0,14,0.0,30.08,145.0,,,317.0,,,,,0.0,0.0,,,,,,,,,,,,,,,,,,,21.0,12.0,1180.0,1180.0,14.4,3.1,,3.1,26.0,,,36.1,0.0,0.0,-0.4,11.1,9.1,,,,,15.0,337.0,16.0,333.0,15.0,353.0,16.0,333.0,,,15.0,0.0,,26.0,5.0,0.001,,,0.654,0.841,+21.4,12.0,,,,,,57.2,53.6,,,,,59.0,638.6,60.8,631.4,59.0,667.4,60.8,631.4,,,53.6,1180.0,59.9,2.6999999999999957,-3.6000000000000014,0.009125,1.4336666666666666,0.03225806451612903,401.0,True,2026-04-18 15:46:35
101.06,1,10,2026-04-18 15:48:10,37.08165,-121.59959,365.0,0.0,61.1,-12.6,,,,,0.0,10.9,-0.5,5.8,0.0,167.0,0.1,-0.01,1.0,99.0,-4.0,14,0.0,30.08,145.0,,,317.0,,,,,0.0,0.0,,,,,,,0.0,,,0.0,,,,,,,,,27.0,12.0,1062.0,1062.0,13.6,3.1,,3.1,26.1,,,36.1,0.0,0.0,-0.4,11.1,9.1,,,,,16.0,358.0,16.0,354.0,16.0,376.0,17.0,356.0,,,15.0,0.0,,26.1,5.0,0.001,,,0.654,0.84,+27.1,12.1,,,,,,57.2,53.6,,,,,60.8,676.4,60.8,669.2,60.8,708.8,62.6,672.8,,,53.78,1062.0,61.25,4.049999999999997,-3.4200000000000017,0.00998611111111111,1.518,0.0,401.0,True,2026-04-18 15:46:35
102.06,1,10,2026-04-18 15:48:11,37.08165,-121.59958,363.0,0.1,61.1,-12.6,,,,,0.0,10.9,-0.5,5.8,0.0,167.0,0.1,-0.01,1.0,99.0,-13.0,15,0.0,30.08,147.0,,,317.0,,,,,0.0,0.0,,,,,,,0.0,,,0.0,,,,,,,,,34.0,12.0,1056.0,1056.0,13.5,3.0,,3.0,26.1,,,36.1,0.0,0.0,-0.4,11.1,9.1,,,,,16.0,375.0,17.0,372.0,16.0,395.0,17.0,376.0,,,15.0,0.0,,26.1,5.0,0.0,,,0.654,0.84,+33.7,12.1,,,,,,59.0,53.6,,,,,60.8,707.0,62.6,701.6,60.8,743.0,62.6,708.8,,,53.78,1056.0,61.7,2.700000000000003,-5.219999999999999,0.010833333333333334,1.6023333333333332,0.03333333333333333,401.0,True,2026-04-18 15:46:35
103.06,1,10,2026-04-18 15:48:12,37.08165,-121.59958,364.0,0.1,61.1,-12.6,,,,,0.0,10.9,-0.6,5.7,0.0,167.0,0.0,-0.01,1.0,99.0,21.0,15,0.0,30.08,147.0,,,317.0,,,,,0.0,0.0,,,,,,,0.0,,,0.0,,,,,,,,,41.0,12.0,1043.0,1043.0,13.4,3.0,,3.0,26.1,,,36.1,0.0,0.0,-0.4,11.1,9.1,,,,,17.0,389.0,17.0,387.0,16.0,412.0,18.0,395.0,,,15.0,0.0,,26.1,5.0,0.0,,,0.654,0.84,+41.1,12.1,,,,,,59.0,53.6,,,,,62.6,732.2,62.6,728.6,60.8,773.6,64.4,743.0,,,53.78,1043.0,62.6,3.6000000000000014,-5.219999999999999,0.011666666666666667,1.771,0.03333333333333333,401.0,True,2026-04-18 15:46:35
104.06,1,10,2026-04-18 15:48:13,37.08165,-121.59958,363.0,0.0,61.1,-12.6,,,,,0.0,10.9,-0.6,5.7,0.0,167.0,0.1,-0.01,1.0,99.0,12.0,15,0.0,30.08,147.0,,,317.0,,,,,0.0,0.0,,,,,,,0.0,,,0.0,,,,,3.0,0.0,0.0,1200.0,49.0,12.0,1039.0,1039.0,13.5,3.0,,3.0,26.1,,,36.1,0.0,0.0,-0.4,11.1,9.1,,,,,17.0,402.0,18.0,401.0,17.0,426.0,18.0,411.0,,,15.0,0.0,,26.1,5.0,0.0,,,0.654,0.844,+48.7,12.2,,,,,,59.0,53.6,,,,,62.6,755.6,64.4,753.8,62.6,798.8,64.4,771.8,,,53.96,1039.0,63.5,4.5,-5.039999999999999,0.0125,1.8553333333333333,0.0,401.0,True,2026-04-18 15:46:35
105.06,1,10,2026-04-18 15:48:14,37.08165,-121.59958,362.0,0.0,61.1,-12.6,,,,,0.0,10.9,-0.5,5.8,0.0,167.0,0.1,-0.01,1.0,99.0,21.0,15,0.0,30.08,156.0,,,317.0,,,,,0.0,0.0,,,,,,,0.0,,,0.0,,,,,1.0,0.0,0.0,1200.0,56.0,12.0,1041.0,1041.0,13.6,2.9,,2.9,26.1,,,36.1,0.0,0.0,-0.4,11.1,9.1,,,,,17.0,413.0,18.0,412.0,17.0,439.0,19.0,426.0,,,15.0,0.0,,26.1,5.0,0.0,,,0.654,0.842,+56.0,12.2,,,,,,59.0,53.6,,,,,62.6,775.4,64.4,773.6,62.6,822.2,66.2,798.8,,,53.96,1041.0,63.95,4.950000000000003,-5.039999999999999,0.013319444444444445,1.8553333333333333,0.0,401.0,True,2026-04-18 15:46:35
106.06,1,10,2026-04-18 15:48:15,37.08165,-121.59958,360.0,0.0,61.1,-12.6,,,,,0.0,10.9,-0.5,5.7,0.0,167.0,0.1,-0.01,1.0,99.0,43.0,15,0.0,30.08,156.0,,,317.0,,,,,0.0,0.0,,,,,,,0.0,,,0.0,,,,,1.0,0.0,0.0,1200.0,62.0,12.0,1027.0,1027.0,13.6,2.9,,2.9,26.1,,,36.1,0.0,0.0,-0.4,11.1,9.1,,,,,18.0,423.0,19.0,424.0,18.0,449.0,19.0,438.0,,,15.0,0.0,,26.1,5.0,0.0,,,0.654,0.845,+62.0,12.2,,,,,,59.0,53.6,,,,,64.4,793.4,66.2,795.2,64.4,840.2,66.2,820.4,,,53.96,1027.0,65.30000000000001,6.300000000000011,-5.039999999999999,0.014125,1.8553333333333333,0.0,401.0,True,2026-04-18 15:46:35
107.06,1,10,2026-04-18 15:48:16,37.08165,-121.59958,359.0,0.0,61.1,-12.6,,,,,0.0,10.9,-0.5,5.8,0.0,167.0,0.1,-0.01,1.0,99.0,47.0,15,0.0,30.08,156.0,,,317.0,,,,,0.0,0.0,,,,,,,0.0,,,-1.0,,,,,1.0,0.0,0.0,1200.0,67.0,12.0,1027.0,1027.0,13.7,2.8,,2.8,26.2,,,36.1,0.0,0.0,-0.4,11.1,9.1,,,,,19.0,431.0,19.0,433.0,18.0,458.0,20.0,451.0,,,15.0,0.0,,26.2,5.0,0.0,,,0.654,0.842,+66.5,12.2,,,,,,59.0,53.6,,,,,66.2,807.8,66.2,811.4,64.4,856.4,68.0,843.8,,,53.96,1027.0,66.2,7.200000000000003,-5.039999999999999,0.014916666666666667,1.8553333333333333,0.0,401.0,True,2026-04-18 15:46:35
108.06,1,10,2026-04-18 15:48:17,37.08165,-121.59958,357.0,0.0,61.1,-12.6,,,,,0.0,10.9,-0.5,5.8,0.0,167.0,0.1,-0.01,1.0,99.0,21.0,15,0.0,30.08,158.0,,,317.0,,,,,0.0,0.0,,,,,,,0.0,,,-1.0,,,,,,,,,70.0,12.0,1023.0,1023.0,13.8,2.8,,2.8,26.1,,,36.1,0.0,0.0,-0.4,11.1,9.1,,,,,19.0,439.0,20.0,442.0,19.0,466.0,20.0,462.0,,,15.0,0.0,,26.1,5.0,0.0,,,0.654,0.842,+69.6,12.2,,,,,,59.0,53.6,,,,,66.2,822.2,68.0,827.6,66.2,870.8,68.0,863.6,,,53.96,1023.0,67.1,8.099999999999994,-5.039999999999999,0.015694444444444445,1.8553333333333333,0.0,401.0,True,2026-04-18 15:46:35
109.06,1,10,2026-04-18 15:48:18,37.08166,-121.59959,352.0,0.0,61.1,-12.6,,,,,0.0,10.9,-0.5,5.8,0.0,167.0,0.1,-0.01,1.0,99.0,-7.0,15,0.0,30.08,158.0,,,317.0,,,,,0.0,0.0,,,,,,,0.0,,,-1.0,,,,,,,,,72.0,12.0,1022.0,1022.0,13.7,2.8,,2.8,26.2,,,36.1,0.0,0.0,-0.4,11.1,9.1,,,,,19.0,445.0,20.0,451.0,19.0,472.0,21.0,471.0,,,15.0,0.0,,26.2,5.0,0.0,,,0.654,0.846,+71.6,12.3,,,,,,59.0,53.6,,,,,66.2,833.0,68.0,843.8,66.2,881.6,69.8,879.8,,,54.14,1022.0,67.55,8.549999999999997,-4.859999999999999,0.01647222222222222,1.8553333333333333,0.0,401.0,True,2026-04-18 15:46:35
110.06,1,10,2026-04-18 15:48:19,37.08166,-121.59959,350.0,0.1,61.1,-12.6,,,,,0.0,10.9,-0.5,5.8,0.0,167.0,0.1,-0.01,0.9,99.0,15.0,15,0.0,30.08,158.0,,,317.0,,,,,0.0,0.0,,,,,,,0.0,,,-1.0,,,,,,,,,73.0,12.0,1015.0,1015.0,13.7,2.8,,2.8,26.2,,,36.1,0.0,0.0,-0.4,11.1,9.1,,,,,20.0,453.0,21.0,458.0,19.0,478.0,22.0,478.0,,,15.0,0.0,,26.2,5.0,0.0,,,0.654,0.845,+72.9,12.3,,,,,,59.0,53.6,,,,,68.0,847.4,69.8,856.4,66.2,892.4,71.6,892.4,,,54.14,1015.0,68.9,9.900000000000006,-4.859999999999999,0.01725,1.9396666666666667,0.03571428571428572,401.0,True,2026-04-18 15:46:35
111.06,1,10,2026-04-18 15:48:20,37.08166,-121.59959,349.0,0.1,61.1,-12.6,,,,,0.0,10.8,-0.5,5.8,0.0,167.0,0.1,-0.01,1.0,99.0,27.0,15,0.0,30.08,167.0,,,317.0,,,,,0.0,0.0,,,,,,,0.0,,,-1.0,,,,,,,,,74.0,12.0,1017.0,1017.0,13.8,2.8,,2.8,26.2,,,36.1,0.0,0.0,-0.4,11.1,9.1,,,,,20.0,458.0,21.0,466.0,20.0,483.0,22.0,486.0,,,15.0,0.0,,26.2,5.0,0.0,,,0.654,0.84,+73.7,12.3,,,,,,59.0,53.6,,,,,68.0,856.4,69.8,870.8,68.0,901.4,71.6,906.8,,,54.14,1017.0,69.35,10.349999999999994,-4.859999999999999,0.018027777777777778,2.1083333333333334,0.03571428571428572,401.0,True,2026-04-18 15:46:35
112.06,1,10,2026-04-18 15:48:21,37.08166,-121.59959,348.0,0.1,61.1,-12.6,,,,,0.0,10.8,-0.5,5.8,0.0,167.0,0.1,-0.01,1.0,99.0,58.0,15,0.0,30.08,167.0,,,317.0,,,,,0.0,0.0,,,,,,,-10.0,,,-1.0,,,,,,,,,74.0,12.0,1006.0,1006.0,13.8,2.8,,2.8,26.2,,,36.1,0.0,0.0,-0.4,11.1,9.1,,,,,21.0,464.0,22.0,472.0,20.0,489.0,23.0,493.0,,,15.0,0.0,,26.2,5.0,0.0,,,0.654,0.84,+74.0,12.3,,,,,,59.0,53.6,,,,,69.8,867.2,71.6,881.6,68.0,912.2,73.4,919.4,,,54.14,1006.0,70.7,11.700000000000003,-4.859999999999999,0.018805555555555555,2.2769999999999997,0.03571428571428572,401.0,True,2026-04-18 15:46:35
113.06,1,10,2026-04-18 15:48:22,37.08166,-121.59959,347.0,0.0,61.1,-12.6,,,,,0.0,10.8,-0.5,5.8,0.0,168.0,0.1,-0.01,1.0,99.0,54.0,15,0.0,30.08,167.0,,,317.0,,,,,0.0,0.0,,,,,,,0.0,,,-7.0,,,,,,,,,74.0,12.0,1014.0,1014.0,13.8,2.8,,2.8,26.2,,,36.1,0.0,0.0,-0.4,11.1,9.1,,,,,21.0,469.0,22.0,478.0,21.0,493.0,23.0,499.0,,,7.0,0.0,,26.2,5.0,0.0,,,0.654,0.84,+74.4,12.4,,,,,,59.0,53.6,,,,,69.8,876.2,71.6,892.4,69.8,919.4,73.4,930.2,,,54.32,1014.0,71.14999999999999,12.149999999999991,-4.68,0.019583333333333335,2.361333333333333,0.0,401.0,True,2026-04-18 15:46:35
114.06,1,10,2026-04-18 15:48:23,37.08166,-121.59959,346.0,0.0,61.1,-12.6,,,,,0.0,10.8,-0.5,5.9,0.0,169.0,0.1,-0.01,1.0,99.0,31.0,15,0.0,30.08,171.0,,,317.0,,,,,0.0,0.0,,,,,,,-2.0,,,-7.0,,,,,,,,,75.0,12.0,1021.0,1021.0,13.8,2.8,,2.8,26.2,,,36.1,0.0,0.0,-0.4,11.1,9.1,,,,,22.0,474.0,23.0,484.0,21.0,496.0,24.0,503.0,,,1.0,0.0,,26.2,5.0,0.0,,,0.654,0.84,+74.5,12.4,,,,,,59.0,53.6,,,,,71.6,885.2,73.4,903.2,69.8,924.8,75.2,937.4,,,54.32,1021.0,72.5,13.5,-4.68,0.02036111111111111,2.361333333333333,0.0,401.0,True,2026-04-18 15:46:35
115.06,1,10,2026-04-18 15:48:24,37.08165,-121.59959,344.0,0.0,61.1,-12.6,,,,,0.0,10.8,-0.5,5.8,0.0,169.0,0.0,-0.01,1.0,99.0,32.0,15,0.0,30.08,171.0,,,317.0,,,,,0.0,0.0,,,,,,,-2.0,,,-7.0,,,,,,,,,75.0,12.0,1016.0,1016.0,13.8,2.8,,2.8,26.2,,,36.1,0.0,0.0,-0.4,11.1,9.1,,,,,22.0,478.0,23.0,489.0,22.0,500.0,24.0,508.0,,,-1.0,0.0,,26.2,5.0,0.0,,,0.654,0.841,+74.7,12.4,,,,,,59.0,53.6,,,,,71.6,892.4,73.4,912.2,71.6,932.0,75.2,946.4,,,54.32,1016.0,72.95,13.950000000000003,-4.68,0.021138888888888888,2.361333333333333,0.0,401.0,True,2026-04-18 15:46:35
