Session Time,GPS Fix Quality,Number of Satellites,GPS Date & Time,Latitude (deg),Longitude (deg),GPS Altitude (feet),Ground Speed (knots),Ground Track (deg),Mag Var (deg),Cross Track Error (NM),Destination Waypoint ID,Range to Destination (NM),Bearing to Destination (deg),System Time,Pitch (deg),Roll (deg),Magnetic Heading (deg),Indicated Airspeed (knots),Pressure Altitude (ft),Turn Rate (deg/s),Lateral Accel (g),Vertical Accel(g),Angle of Attack (%),Vertical Speed (ft/min),OAT (deg C),True Airspeed (knots),Barometer Setting (inHg),Density Altitude (ft),Wind Direction (deg),Wind Speed (knots),Heading Bug (deg),Altitude Bug (ft),Airspeed Bug (knots),Vertical Speed Bug (ft/min),Course (deg),CDI Source Type,CDI Source Port,CDI Scale (NM),CDI Deflection (%),Glideslope (%),AP Engaged,AP Roll Mode,AP Roll Force,AP Roll Position (steps),AP Roll Slip (bool),AP Pitch Force,AP Pitch Position (steps),AP Pitch Slip (bool),AP Yaw Force,AP Yaw Position,AP Yaw Slip (bool),Transponder Status,Transponder Reply (bool),Transponder Identing (bool),Transponder Code (octal),Oil Pressure (PSI),Oil Temp (deg C),RPM L,RPM R,Manifold Pressure (inHg),Fuel Flow 1 (gal/hr),Fuel Flow 2 (gal/hr),Total Fuel Flow (gal/hr),Fuel Pressure (PSI),Fuel Level L (gal),Fuel Level R (gal),Fuel Remaining (gal),Volts 1,Volts 2,Amps,Hobbs Time,Tach Time,Thermocouple 1 (deg C),Thermocouple 2 (deg C),Thermocouple 3 (deg C),Thermocouple 4 (deg C),CHT 4 (deg F),EGT 4 (deg F),CHT 3 (deg F),EGT 3 (deg F),CHT 2 (deg F),EGT 2 (deg F),CHT 1 (deg F),EGT 1 (deg F),Thermocouple 13 (deg C),Thermocouple 14 (deg C),ELEV POSITION (%),CO PPM PRESSURE (PSI),GP Input 3,FUEL PRESSURE (PSI),AILERN POSITION (%),CANOPY CONTACT (V),GP Input 7,GP Input 8,LEFT LEVEL (Sensor V),RIGHT LEVEL (Sensor V),OIL PRESSURE (PSI),OIL TEMPERATURE (deg C),GP Input 13,Contacts,Percent Power,EGT Leaning State,Unnamed: 103,RPM,Fuel Flow Integral,Max CHT,Engine Run,Flight ID
1.06,1,8,2026-02-14 00:03:49,37.08159,-121.59959,355.0,0.0,248.3,-12.6,0.0,0,0.0,0.0,0.0,10.9,-1.2,51.9,0.0,151.0,-0.0,-0.02,1.0,0.0,-39.0,17.0,0.0,30.11,387.0,0.0,0.0,326.0,0.0,110.0,0.0,0.0,0.0,0.0,0.0,0.0,0.0,0.0,0.0,0.0,0.0,0.0,0.0,0.0,0.0,0.0,0.0,0.0,0.0,0.0,0.0,0.0,0.0,0.0,0.0,0.0,0.0,0.0,0.0,0.0,0.0,0.0,0.0,36.2,0.0,0.0,-0.6,1.3,0.5,0.0,0.0,0.0,0.0,60.8,62.6,60.8,62.6,60.8,62.6,60.8,62.6,0.0,0.0,-17.0,+254.5,0.0,0.0,-7.0,4.998,0.0,0.0,0.654,0.791,0.0,54.2,0.0,0.0,0.0,0,0.0,0.0,0.0,341.6,True,2026-02-14 00:03:49 - Flight 2
2.06,1,8,2026-02-14 00:03:50,37.08159,-121.59959,329.0,0.0,248.3,-12.6,0.0,0,0.0,0.0,0.0,10.9,-1.1,51.9,0.0,150.0,-0.0,-0.02,1.0,0.0,-32.0,17.0,0.0,30.11,387.0,0.0,0.0,326.0,0.0,110.0,0.0,0.0,0.0,0.0,0.0,0.0,0.0,0.0,0.0,0.0,0.0,0.0,0.0,0.0,0.0,0.0,0.0,0.0,0.0,0.0,0.0,0.0,0.0,0.0,0.0,0.0,0.0,0.0,0.0,0.0,0.0,0.0,0.0,36.2,0.0,0.0,-0.6,1.3,0.5,0.0,0.0,0.0,0.0,60.8,62.6,60.8,62.6,60.8,62.6,60.8,62.6,0.0,0.0,-17.0,+254.5,0.0,0.0,-7.0,4.998,0.0,0.0,0.654,0.79,0.0,14.8,0.0,0.0,0.0,0,0.0,0.0,0.0,341.6,True,2026-02-14 00:03:49 - Flight 2
3.06,1,8,2026-02-14 00:03:51,37.08159,-121.59959,329.0,0.0,248.3,-12.6,0.0,0,0.0,0.0,0.0,10.9,-1.2,51.9,0.0,149.0,-0.0,-0.02,1.0,0.0,-52.0,17.0,0.0,30.11,385.0,0.0,0.0,326.0,0.0,110.0,0.0,0.0,0.0,0.0,0.0,0.0,0.0,0.0,0.0,0.0,0.0,0.0,0.0,0.0,0.0,0.0,0.0,0.0,0.0,0.0,0.0,0.0,0.0,0.0,0.0,0.0,0.0,0.0,0.0,0.0,0.0,0.0,0.0,36.2,0.0,0.0,-0.6,1.3,0.5,0.0,0.0,0.0,0.0,60.8,62.6,60.8,62.6,60.8,62.6,60.8,62.6,0.0,0.0,-17.0,+254.5,0.0,0.0,-7.0,4.998,0.0,0.0,0.654,0.791,0.0,14.8,0.0,0.0,0.0,0,0.0,0.0,0.0,341.6,True,2026-02-14 00:03:49 - Flight 2
4.06,1,8,2026-02-14 00:03:52,37.08159,-121.59959,328.0,0.0,248.3,-12.6,0.0,0,0.0,0.0,0.0,10.9,-1.1,52.0,0.0,147.0,0.0,-0.02,1.0,0.0,-74.0,17.0,0.0,30.11,385.0,0.0,0.0,326.0,0.0,0.0,0.0,0.0,0.0,0.0,0.0,0.0,0.0,0.0,0.0,0.0,0.0,0.0,0.0,0.0,0.0,0.0,0.0,0.0,0.0,0.0,0.0,0.0,0.0,15.0,0.0,0.0,30.2,0.0,0.0,0.0,0.0,0.0,0.0,36.2,0.0,0.0,-0.6,1.3,0.5,0.0,0.0,0.0,0.0,60.8,62.6,60.8,62.6,60.8,62.6,60.8,62.6,0.0,0.0,-17.0,+254.5,0.0,0.0,-7.0,4.998,0.0,0.0,0.654,0.79,0.0,14.8,0.0,0.0,0.0,0,0.0,0.0,0.0,341.6,True,2026-02-14 00:03:49 - Flight 2
5.06,1,8,2026-02-14 00:03:53,37.08159,-121.59959,327.0,0.0,248.3,-12.6,0.0,0,0.0,0.0,0.0,10.9,-1.2,52.0,0.0,145.0,0.0,-0.02,1.0,0.0,-84.0,17.0,0.0,30.11,385.0,0.0,0.0,326.0,0.0,0.0,0.0,0.0,0.0,0.0,0.0,0.0,0.0,0.0,0.0,0.0,0.0,0.0,0.0,0.0,0.0,0.0,0.0,0.0,0.0,0.0,0.0,0.0,0.0,15.0,0.0,0.0,30.2,0.0,0.0,0.0,0.0,0.0,0.0,36.2,0.0,0.0,-0.6,1.3,0.5,0.0,0.0,0.0,0.0,60.8,62.6,60.8,62.6,60.8,62.6,60.8,62.6,0.0,0.0,-17.0,+254.5,0.0,0.0,-7.0,4.998,0.0,0.0,0.654,0.79,0.0,14.8,0.0,0.0,0.0,0,0.0,0.0,0.0,341.6,True,2026-02-14 00:03:49 - Flight 2
6.06,1,8,2026-02-14 00:03:54,37.08158,-121.59959,326.0,0.0,248.3,-12.6,0.0,0,0.0,0.0,0.0,10.9,-1.2,52.0,0.0,145.0,0.0,-0.02,1.0,0.0,-65.0,17.0,0.0,30.11,380.0,0.0,0.0,326.0,0.0,0.0,0.0,0.0,0.0,0.0,0.0,0.0,0.0,0.0,0.0,0.0,0.0,0.0,0.0,0.0,0.0,0.0,0.0,0.0,0.0,0.0,0.0,0.0,0.0,15.0,0.0,0.0,30.2,0.0,0.0,0.0,0.0,0.0,0.0,36.2,0.0,0.0,-0.6,1.3,0.5,0.0,0.0,0.0,0.0,60.8,62.6,60.8,62.6,60.8,62.6,60.8,62.6,0.0,0.0,-17.0,+254.5,0.0,0.0,-7.0,4.998,0.0,0.0,0.654,0.79,0.0,14.8,0.0,0.0,0.0,0,0.0,0.0,0.0,341.6,True,2026-02-14 00:03:49 - Flight 2
7.06,1,8,2026-02-14 00:03:55,37.08158,-121.59959,325.0,0.0,248.3,-12.6,0.0,0,0.0,0.0,0.0,10.9,-1.2,51.9,0.0,144.0,-0.0,-0.02,1.0,0.0,-66.0,17.0,0.0,30.11,380.0,0.0,0.0,326.0,0.0,0.0,0.0,0.0,0.0,0.0,0.0,0.0,0.0,0.0,0.0,0.0,0.0,0.0,0.0,0.0,0.0,0.0,0.0,0.0,0.0,0.0,0.0,0.0,0.0,15.0,0.0,0.0,30.2,0.0,0.0,0.0,0.0,0.0,0.0,36.2,0.0,0.0,-0.6,1.3,0.5,0.0,0.0,0.0,0.0,60.8,62.6,60.8,62.6,60.8,62.6,60.8,62.6,0.0,0.0,-17.0,+254.5,0.0,0.0,-7.0,4.998,0.0,0.0,0.654,0.79,0.0,14.8,0.0,0.0,0.0,0,0.0,0.0,0.0,341.6,True,2026-02-14 00:03:49 - Flight 2
8.06,1,8,2026-02-14 00:03:56,37.08158,-121.59959,325.0,0.0,248.3,-12.6,0.0,0,0.0,0.0,0.0,10.9,-1.2,51.9,0.0,144.0,-0.0,-0.02,1.0,0.0,-44.0,17.0,0.0,30.11,380.0,0.0,0.0,326.0,0.0,0.0,0.0,0.0,0.0,0.0,0.0,0.0,0.0,0.0,0.0,0.0,0.0,0.0,0.0,0.0,0.0,0.0,0.0,0.0,0.0,0.0,0.0,0.0,0.0,15.0,0.0,0.0,30.2,0.0,0.0,0.0,0.0,0.0,0.0,36.2,0.0,0.0,-0.6,1.3,0.5,0.0,0.0,0.0,0.0,60.8,62.6,60.8,62.6,60.8,62.6,60.8,62.6,0.0,0.0,-17.0,+254.5,0.0,0.0,-7.0,4.998,0.0,0.0,0.654,0.791,0.0,14.8,0.0,0.0,0.0,0,0.0,0.0,0.0,341.6,True,2026-02-14 00:03:49 - Flight 2
9.06,1,8,2026-02-14 00:03:57,37.08158,-121.59959,324.0,0.0,248.3,-12.6,0.0,0,0.0,0.0,0.0,10.9,-1.2,51.9,0.0,144.0,0.0,-0.02,1.0,0.0,-18.0,17.0,0.0,30.11,378.0,0.0,0.0,326.0,0.0,0.0,0.0,0.0,0.0,0.0,0.0,0.0,0.0,0.0,0.0,0.0,0.0,0.0,0.0,0.0,0.0,0.0,0.0,0.0,0.0,0.0,0.0,0.0,0.0,15.0,0.0,0.0,30.2,0.0,0.0,0.0,0.0,0.0,0.0,36.2,0.0,0.0,-0.6,1.3,0.5,0.0,0.0,0.0,0.0,60.8,62.6,60.8,62.6,60.8,62.6,60.8,62.6,0.0,0.0,-17.0,+254.5,0.0,0.0,-7.0,4.998,0.0,0.0,0.654,0.79,0.0,14.8,0.0,0.0,0.0,0,0.0,0.0,0.0,341.6,True,2026-02-14 00:03:49 - Flight 2
10.06,1,8,2026-02-14 00:03:58,37.08158,-121.59959,324.0,0.0,248.3,-12.6,0.0,0,0.0,0.0,0.0,10.9,-1.2,51.9,0.0,144.0,-0.0,-0.02,1.0,0.0,-32.0,17.0,0.0,30.11,378.0,0.0,0.0,326.0,0.0,0.0,0.0,0.0,0.0,0.0,0.0,0.0,0.0,0.0,0.0,0.0,0.0,0.0,0.0,0.0,0.0,0.0,0.0,0.0,0.0,0.0,0.0,0.0,0.0,15.0,0.0,0.0,30.2,0.0,0.0,0.0,0.0,0.0,0.0,36.2,0.0,0.0,-0.6,1.3,0.5,0.0,0.0,0.0,0.0,60.8,62.6,60.8,62.6,60.8,62.6,60.8,62.6,0.0,0.0,-17.0,+254.5,0.0,0.0,-7.0,4.998,0.0,0.0,0.654,0.79,0.0,14.8,0.0,0.0,0.0,0,0.0,0.0,0.0,341.6,True,2026-02-14 00:03:49 - Flight 2
11.06,1,8,2026-02-14 00:03:59,37.08158,-121.59959,325.0,0.0,248.3,-12.6,0.0,0,0.0,0.0,0.0,10.9,-1.2,51.9,0.0,144.0,-0.0,-0.02,1.0,0.0,-17.0,17.0,0.0,30.11,378.0,0.0,0.0,326.0,0.0,0.0,0.0,0.0,0.0,0.0,0.0,0.0,0.0,0.0,0.0,0.0,0.0,0.0,0.0,0.0,0.0,0.0,0.0,0.0,0.0,0.0,0.0,0.0,0.0,15.0,0.0,0.0,30.2,0.0,0.0,0.0,0.0,0.0,0.0,36.2,0.0,0.0,-0.6,1.3,0.5,0.0,0.0,0.0,0.0,60.8,62.6,60.8,62.6,60.8,62.6,60.8,62.6,0.0,0.0,-17.0,+254.4,0.0,0.0,-7.0,4.998,0.0,0.0,0.654,0.79,0.0,14.8,0.0,0.0,0.0,0,0.0,0.0,0.0,341.6,True,2026-02-14 00:03:49 - Flight 2
12.06,1,8,2026-02-14 00:04:00,37.08158,-121.59959,326.0,0.0,248.3,-12.6,0.0,0,0.0,0.0,0.0,10.9,-1.2,51.9,0.0,143.0,0.0,-0.02,1.0,0.0,-5.0,17.0,0.0,30.11,377.0,0.0,0.0,326.0,0.0,0.0,0.0,0.0,0.0,0.0,0.0,0.0,0.0,0.0,0.0,0.0,0.0,0.0,0.0,0.0,0.0,0.0,0.0,0.0,0.0,0.0,0.0,0.0,0.0,15.0,0.0,0.0,30.2,0.0,0.0,0.0,0.0,0.0,0.0,36.2,0.0,0.0,-0.6,1.3,0.5,0.0,0.0,0.0,0.0,60.8,62.6,60.8,62.6,60.8,62.6,60.8,62.6,0.0,0.0,-17.0,+254.4,0.0,0.0,-7.0,4.998,0.0,0.0,0.654,0.791,0.0,14.8,0.0,0.0,0.0,0,0.0,0.0,0.0,341.6,True,2026-02-14 00:03:49 - Flight 2
13.06,1,8,2026-02-14 00:04:01,37.08158,-121.59959,327.0,0.0,248.3,-12.6,0.0,0,0.0,0.0,0.0,10.9,-1.2,51.9,0.0,143.0,0.0,-0.02,1.0,0.0,-1.0,17.0,0.0,30.11,377.0,0.0,0.0,326.0,0.0,0.0,0.0,0.0,0.0,0.0,0.0,0.0,0.0,0.0,0.0,0.0,0.0,0.0,0.0,0.0,0.0,0.0,0.0,0.0,0.0,0.0,0.0,0.0,0.0,15.0,0.0,0.0,30.2,0.0,0.0,0.0,0.0,0.0,0.0,36.2,0.0,0.0,-0.6,1.3,0.5,0.0,0.0,0.0,0.0,60.8,62.6,60.8,62.6,60.8,62.6,60.8,62.6,0.0,0.0,-17.0,+254.4,0.0,0.0,-7.0,4.998,0.0,0.0,0.654,0.791,0.0,14.8,0.0,0.0,0.0,0,0.0,0.0,0.0,341.6,True,2026-02-14 00:03:49 - Flight 2
14.06,1,8,2026-02-14 00:04:02,37.08158,-121.59959,328.0,0.0,248.3,-12.6,0.0,0,0.0,0.0,0.0,10.9,-1.2,52.0,0.0,143.0,0.0,-0.02,1.0,0.0,-31.0,17.0,0.0,30.11,377.0,0.0,0.0,326.0,0.0,0.0,0.0,0.0,0.0,0.0,0.0,0.0,0.0,0.0,0.0,0.0,0.0,0.0,0.0,0.0,0.0,0.0,0.0,0.0,0.0,0.0,0.0,0.0,0.0,15.0,0.0,0.0,30.2,0.0,0.0,0.0,0.0,0.0,0.0,36.2,0.0,0.0,-0.6,1.3,0.5,0.0,0.0,0.0,0.0,60.8,62.6,60.8,62.6,60.8,62.6,60.8,62.6,0.0,0.0,-17.0,+254.4,0.0,0.0,-7.0,4.998,0.0,0.0,0.654,0.791,0.0,14.8,0.0,0.0,0.0,0,0.0,0.0,0.0,341.6,True,2026-02-14 00:03:49 - Flight 2
15.06,1,8,2026-02-14 00:04:03,37.08158,-121.59958,330.0,0.0,248.3,-12.6,0.0,0,0.0,0.0,0.0,10.9,-1.2,52.0,0.0,142.0,0.0,-0.02,1.0,0.0,-15.0,17.0,0.0,30.11,376.0,0.0,0.0,326.0,0.0,0.0,0.0,0.0,0.0,0.0,0.0,0.0,0.0,0.0,0.0,0.0,0.0,0.0,0.0,0.0,0.0,0.0,0.0,0.0,0.0,0.0,0.0,0.0,0.0,15.0,0.0,0.0,30.2,0.0,0.0,0.0,0.0,0.0,0.0,36.2,0.0,0.0,-0.6,1.3,0.5,0.0,0.0,0.0,0.0,60.8,62.6,60.8,62.6,60.8,62.6,60.8,62.6,0.0,0.0,-17.0,+254.4,0.0,0.0,-7.0,4.998,0.0,0.0,0.654,0.79,0.0,14.8,0.0,0.0,0.0,0,0.0,0.0,0.0,341.6,True,2026-02-14 00:03:49 - Flight 2
16.06,1,8,2026-02-14 00:04:04,37.08157,-121.59958,332.0,0.0,248.3,-12.6,0.0,0,0.0,0.0,0.0,11.0,-1.1,52.0,0.0,140.0,0.0,-0.02,1.0,0.0,-68.0,17.0,0.0,30.11,377.0,0.0,0.0,326.0,0.0,0.0,0.0,0.0,0.0,0.0,0.0,0.0,0.0,0.0,0.0,0.0,0.0,0.0,0.0,0.0,0.0,0.0,0.0,0.0,0.0,0.0,0.0,0.0,0.0,15.0,0.0,0.0,30.2,0.0,0.0,0.0,0.0,0.0,0.0,36.2,0.0,0.0,-0.6,1.3,0.5,0.0,0.0,0.0,0.0,60.8,62.6,60.8,62.6,60.8,62.6,60.8,62.6,0.0,0.0,-17.0,+254.4,0.0,0.0,-7.0,4.998,0.0,0.0,0.654,0.791,0.0,14.8,0.0,0.0,0.0,0,0.0,0.0,0.0,341.6,True,2026-02-14 00:03:49 - Flight 2
17.06,1,8,2026-02-14 00:04:05,37.08157,-121.59958,334.0,0.0,248.3,-12.6,0.0,0,0.0,0.0,0.0,11.0,-1.1,52.0,0.0,138.0,0.0,-0.02,1.0,0.0,-72.0,17.0,0.0,30.11,377.0,0.0,0.0,326.0,0.0,0.0,0.0,0.0,0.0,0.0,0.0,0.0,0.0,0.0,0.0,0.0,0.0,0.0,0.0,0.0,0.0,0.0,0.0,0.0,0.0,0.0,0.0,0.0,0.0,15.0,0.0,0.0,30.2,0.0,0.0,0.0,0.0,0.0,0.0,36.2,0.0,0.0,-0.6,1.3,0.5,0.0,0.0,0.0,0.0,60.8,62.6,60.8,62.6,60.8,62.6,60.8,62.6,0.0,0.0,-17.0,+254.4,0.0,0.0,-7.0,4.998,0.0,0.0,0.654,0.79,0.0,14.8,0.0,0.0,0.0,0,0.0,0.0,0.0,341.6,True,2026-02-14 00:03:49 - Flight 2
18.06,1,8,2026-02-14 00:04:06,37.08157,-121.59958,336.0,0.0,248.3,-12.6,0.0,0,0.0,0.0,0.0,11.0,-1.1,52.0,0.0,138.0,0.0,-0.02,1.0,0.0,-26.0,17.0,0.0,30.11,377.0,0.0,0.0,326.0,0.0,0.0,0.0,0.0,0.0,0.0,0.0,0.0,0.0,0.0,0.0,0.0,0.0,0.0,0.0,0.0,0.0,0.0,0.0,0.0,0.0,0.0,0.0,0.0,0.0,15.0,0.0,0.0,30.2,0.0,0.0,0.0,0.0,0.0,0.0,36.2,0.0,0.0,-0.6,1.3,0.5,0.0,0.0,0.0,0.0,60.8,62.6,60.8,62.6,60.8,62.6,60.8,62.6,0.0,0.0,-17.0,+254.4,0.0,0.0,-7.0,4.998,0.0,0.0,0.654,0.791,0.0,14.8,0.0,0.0,0.0,0,0.0,0.0,0.0,341.6,True,2026-02-14 00:03:49 - Flight 2
19.06,1,8,2026-02-14 00:04:07,37.08157,-121.59958,338.0,0.0,248.3,-12.6,0.0,0,0.0,0.0,0.0,10.9,-1.2,51.9,0.0,138.0,0.0,-0.02,1.0,0.0,-26.0,17.0,0.0,30.11,372.0,0.0,0.0,326.0,0.0,0.0,0.0,0.0,0.0,0.0,0.0,0.0,0.0,0.0,0.0,0.0,0.0,0.0,0.0,0.0,0.0,0.0,0.0,0.0,0.0,0.0,0.0,0.0,0.0,15.0,0.0,0.0,30.2,0.0,0.0,0.0,0.0,0.0,0.0,36.2,0.0,0.0,-0.6,1.3,0.5,0.0,0.0,0.0,0.0,60.8,62.6,60.8,62.6,60.8,62.6,60.8,62.6,0.0,0.0,-17.0,+254.4,0.0,0.0,-7.0,4.998,0.0,0.0,0.654,0.791,0.0,14.8,0.0,0.0,0.0,0,0.0,0.0,0.0,341.6,True,2026-02-14 00:03:49 - Flight 2
20.06,1,8,2026-02-14 00:04:08,37.08157,-121.59958,339.0,0.0,248.3,-12.6,0.0,0,0.0,0.0,0.0,11.0,-1.2,51.9,0.0,138.0,0.0,-0.02,1.0,0.0,-42.0,17.0,0.0,30.11,372.0,0.0,0.0,326.0,0.0,0.0,0.0,0.0,0.0,0.0,0.0,0.0,0.0,0.0,0.0,0.0,0.0,0.0,0.0,0.0,0.0,0.0,0.0,0.0,0.0,0.0,0.0,0.0,0.0,15.0,0.0,0.0,30.2,0.0,0.0,0.0,0.0,0.0,0.0,36.2,0.0,0.0,-0.6,1.3,0.5,0.0,0.0,0.0,0.0,60.8,62.6,60.8,62.6,60.8,62.6,60.8,62.6,0.0,0.0,-17.0,+254.4,0.0,0.0,-7.0,4.998,0.0,0.0,0.654,0.791,0.0,14.8,0.0,0.0,0.0,0,0.0,0.0,0.0,341.6,True,2026-02-14 00:03:49 - Flight 2
21.06,1,8,2026-02-14 00:04:09,37.08157,-121.59958,341.0,0.0,248.3,-12.6,0.0,0,0.0,0.0,0.0,11.0,-1.2,51.8,0.0,136.0,-0.0,-0.02,1.0,0.0,-70.0,17.0,0.0,30.11,372.0,0.0,0.0,326.0,0.0,0.0,0.0,0.0,0.0,0.0,0.0,0.0,0.0,0.0,0.0,0.0,0.0,0.0,0.0,0.0,0.0,0.0,0.0,0.0,0.0,0.0,0.0,0.0,0.0,15.0,0.0,0.0,30.2,0.0,0.0,0.0,0.0,0.0,0.0,36.2,0.0,0.0,-0.6,1.3,0.5,0.0,0.0,0.0,0.0,60.8,62.6,60.8,62.6,60.8,62.6,60.8,62.6,0.0,0.0,-17.0,+254.4,0.0,0.0,-7.0,4.998,0.0,0.0,0.654,0.791,0.0,14.8,0.0,0.0,0.0,0,0.0,0.0,0.0,341.6,True,2026-02-14 00:03:49 - Flight 2
22.06,1,8,2026-02-14 00:04:10,37.08157,-121.59959,342.0,0.0,248.3,-12.6,0.0,0,0.0,0.0,0.0,11.0,-1.2,51.8,0.0,135.0,-0.0,-0.02,1.0,0.0,-52.0,17.0,0.0,30.11,369.0,0.0,0.0,326.0,0.0,0.0,0.0,0.0,0.0,0.0,0.0,0.0,0.0,0.0,0.0,0.0,0.0,0.0,0.0,0.0,0.0,0.0,0.0,0.0,0.0,0.0,0.0,0.0,0.0,15.0,0.0,0.0,30.2,0.0,0.0,0.0,0.0,0.0,0.0,36.2,0.0,0.0,-0.6,1.3,0.5,0.0,0.0,0.0,0.0,60.8,62.6,60.8,62.6,60.8,62.6,60.8,62.6,0.0,0.0,-17.0,+254.4,0.0,0.0,-7.0,4.998,0.0,0.0,0.654,0.791,0.0,14.8,0.0,0.0,0.0,0,0.0,0.0,0.0,341.6,True,2026-02-14 00:03:49 - Flight 2
23.06,1,8,2026-02-14 00:04:11,37.08157,-121.59959,343.0,0.0,248.3,-12.6,0.0,0,0.0,0.0,0.0,11.0,-1.2,51.8,0.0,134.0,0.0,-0.02,1.0,0.0,-41.0,17.0,0.0,30.11,369.0,0.0,0.0,326.0,0.0,0.0,0.0,0.0,0.0,0.0,0.0,0.0,0.0,0.0,0.0,0.0,0.0,0.0,0.0,0.0,0.0,0.0,0.0,0.0,0.0,0.0,0.0,0.0,0.0,15.0,0.0,0.0,30.2,0.0,0.0,0.0,0.0,0.0,0.0,36.2,0.0,0.0,-0.6,1.3,0.5,0.0,0.0,0.0,0.0,60.8,62.6,60.8,62.6,60.8,62.6,60.8,62.6,0.0,0.0,-17.0,+254.4,0.0,0.0,-7.0,4.998,0.0,0.0,0.654,0.79,0.0,14.8,0.0,0.0,0.0,0,0.0,0.0,0.0,341.6,True,2026-02-14 00:03:49 - Flight 2
24.06,1,8,2026-02-14 00:04:12,37.08157,-121.59959,344.0,0.0,248.3,-12.6,0.0,0,0.0,0.0,0.0,11.0,-1.2,51.9,0.0,133.0,0.0,-0.02,1.0,0.0,-48.0,17.0,0.0,30.11,369.0,0.0,0.0,326.0,0.0,0.0,0.0,0.0,0.0,0.0,0.0,0.0,0.0,0.0,0.0,0.0,0.0,0.0,0.0,0.0,0.0,0.0,0.0,0.0,0.0,0.0,0.0,0.0,0.0,15.0,0.0,0.0,30.2,0.0,0.0,0.0,0.0,0.0,0.0,36.2,0.0,0.0,-0.6,1.3,0.5,0.0,0.0,0.0,0.0,60.8,62.6,60.8,62.6,60.8,62.6,60.8,62.6,0.0,0.0,-17.0,+254.4,0.0,0.0,-7.0,4.998,0.0,0.0,0.654,0.791,0.0,14.8,0.0,0.0,0.0,0,0.0,0.0,0.0,341.6,True,2026-02-14 00:03:49 - Flight 2
25.06,1,8,2026-02-14 00:04:13,37.08157,-121.59959,344.0,0.0,248.3,-12.6,0.0,0,0.0,0.0,0.0,11.0,-1.2,51.9,0.0,132.0,0.0,-0.02,1.0,0.0,-54.0,17.0,0.0,30.11,375.0,0.0,0.0,326.0,0.0,0.0,0.0,0.0,0.0,0.0,0.0,0.0,0.0,0.0,0.0,0.0,0.0,0.0,0.0,0.0,0.0,0.0,0.0,0.0,0.0,0.0,0.0,0.0,0.0,15.0,0.0,0.0,30.2,0.0,0.0,0.0,0.0,0.0,0.0,36.2,0.0,0.0,-0.6,1.3,0.5,0.0,0.0,0.0,0.0,60.8,62.6,60.8,62.6,60.8,62.6,60.8,62.6,0.0,0.0,-17.0,+254.4,0.0,0.0,-7.0,4.998,0.0,0.0,0.654,0.791,0.0,14.8,0.0,0.0,0.0,0,0.0,0.0,0.0,341.6,True,2026-02-14 00:03:49 - Flight 2
26.06,1,8,2026-02-14 00:04:14,37.08157,-121.59959,344.0,0.1,248.3,-12.6,0.0,0,0.0,0.0,0.0,11.0,-1.2,51.9,0.0,130.0,0.0,-0.02,1.0,0.0,-42.0,17.0,0.0,30.11,375.0,0.0,0.0,326.0,0.0,0.0,0.0,0.0,0.0,0.0,0.0,0.0,0.0,0.0,0.0,0.0,0.0,0.0,0.0,0.0,0.0,0.0,0.0,0.0,0.0,0.0,0.0,0.0,0.0,15.0,0.0,0.0,30.2,0.0,0.0,0.0,0.0,0.0,0.0,36.2,0.0,0.0,-0.6,1.3,0.5,0.0,0.0,0.0,0.0,60.8,62.6,60.8,62.6,60.8,62.6,60.8,62.6,0.0,0.0,-17.0,+254.4,0.0,0.0,-7.0,4.998,0.0,0.0,0.654,0.791,0.0,14.8,0.0,0.0,0.0,0,0.0,0.0,0.0,341.6,True,2026-02-14 00:03:49 - Flight 2
27.06,1,8,2026-02-14 00:04:15,37.08157,-121.59959,344.0,0.0,248.3,-12.6,0.0,0,0.0,0.0,0.0,11.0,-1.2,51.8,0.0,129.0,-0.0,-0.02,1.0,0.0,-92.0,17.0,0.0,30.11,375.0,0.0,0.0,326.0,0.0,0.0,0.0,0.0,0.0,0.0,0.0,0.0,0.0,0.0,0.0,0.0,0.0,0.0,0.0,0.0,0.0,0.0,0.0,0.0,0.0,0.0,0.0,0.0,0.0,15.0,0.0,0.0,30.2,0.0,0.0,0.0,0.0,0.0,0.0,36.2,0.0,0.0,-0.6,1.3,0.5,0.0,0.0,0.0,0.0,60.8,62.6,60.8,62.6,60.8,62.6,60.8,62.6,0.0,0.0,-17.0,+254.4,0.0,0.0,-7.0,4.998,0.0,0.0,0.654,0.791,0.0,14.8,0.0,0.0,0.0,0,0.0,0.0,0.0,341.6,True,2026-02-14 00:03:49 - Flight 2
28.06,1,8,2026-02-14 00:04:16,37.08157,-121.59959,344.0,0.0,248.3,-12.6,0.0,0,0.0,0.0,0.0,11.0,-1.2,51.9,0.0,125.0,0.0,-0.02,1.0,0.0,-126.0,17.0,0.0,30.11,368.0,0.0,0.0,326.0,0.0,0.0,0.0,0.0,0.0,0.0,0.0,0.0,0.0,0.0,0.0,0.0,0.0,0.0,0.0,0.0,0.0,0.0,0.0,0.0,0.0,0.0,0.0,0.0,0.0,15.0,0.0,0.0,30.2,0.0,0.0,0.0,0.0,0.0,0.0,36.2,0.0,0.0,-0.6,1.3,0.5,0.0,0.0,0.0,0.0,60.8,62.6,60.8,62.6,60.8,62.6,60.8,62.6,0.0,0.0,-17.0,+254.4,0.0,0.0,-7.0,4.998,0.0,0.0,0.654,0.791,0.0,14.8,0.0,0.0,0.0,0,0.0,0.0,0.0,341.6,True,2026-02-14 00:03:49 - Flight 2
29.06,1,8,2026-02-14 00:04:17,37.08157,-121.59959,343.0,0.0,248.3,-12.6,0.0,0,0.0,0.0,0.0,11.0,-1.2,51.9,0.0,123.0,0.0,-0.02,1.0,0.0,-119.0,17.0,0.0,30.11,368.0,0.0,0.0,326.0,0.0,0.0,0.0,0.0,0.0,0.0,0.0,0.0,0.0,0.0,0.0,0.0,0.0,0.0,0.0,0.0,0.0,0.0,0.0,0.0,0.0,0.0,0.0,0.0,0.0,15.0,0.0,0.0,30.2,0.0,0.0,0.0,0.0,0.0,0.0,36.2,0.0,0.0,-0.6,1.3,0.5,0.0,0.0,0.0,0.0,60.8,62.6,60.8,62.6,60.8,62.6,60.8,62.6,0.0,0.0,-17.0,+254.4,0.0,0.0,-7.0,4.998,0.0,0.0,0.654,0.79,0.0,14.8,0.0,0.0,0.0,0,0.0,0.0,0.0,341.6,True,2026-02-14 00:03:49 - Flight 2
30.06,1,8,2026-02-14 00:04:18,37.08157,-121.59959,343.0,0.0,248.3,-12.6,0.0,0,0.0,0.0,0.0,11.0,-1.1,51.9,0.0,121.0,0.0,-0.02,1.0,0.0,-133.0,17.0,0.0,30.11,368.0,0.0,0.0,326.0,0.0,0.0,0.0,0.0,0.0,0.0,0.0,0.0,0.0,0.0,0.0,0.0,0.0,0.0,0.0,0.0,0.0,0.0,0.0,0.0,0.0,0.0,0.0,0.0,0.0,15.0,0.0,0.0,30.2,0.0,0.0,0.0,0.0,0.0,0.0,36.2,0.0,0.0,-0.6,1.3,0.5,0.0,0.0,0.0,0.0,60.8,62.6,60.8,62.6,60.8,62.6,60.8,62.6,0.0,0.0,-17.0,+254.4,0.0,0.0,-7.0,4.998,0.0,0.0,0.654,0.791,0.0,14.8,0.0,0.0,0.0,0,0.0,0.0,0.0,341.6,True,2026-02-14 00:03:49 - Flight 2
31.06,1,8,2026-02-14 00:04:19,37.08157,-121.59959,342.0,0.0,248.3,-12.6,0.0,0,0.0,0.0,0.0,11.0,-1.1,51.9,0.0,120.0,0.0,-0.02,1.0,0.0,-99.0,17.0,0.0,30.11,360.0,0.0,0.0,326.0,0.0,0.0,0.0,0.0,0.0,0.0,0.0,0.0,0.0,0.0,0.0,0.0,0.0,0.0,0.0,0.0,0.0,0.0,0.0,0.0,0.0,0.0,0.0,0.0,0.0,15.0,0.0,0.0,30.2,0.0,0.0,0.0,0.0,0.0,0.0,36.2,0.0,0.0,-0.6,1.3,0.5,0.0,0.0,0.0,0.0,60.8,62.6,60.8,62.6,60.8,62.6,60.8,62.6,0.0,0.0,-17.0,+254.4,0.0,0.0,-7.0,4.998,0.0,0.0,0.654,0.79,0.0,14.8,0.0,0.0,0.0,0,0.0,0.0,0.0,341.6,True,2026-02-14 00:03:49 - Flight 2
32.06,1,8,2026-02-14 00:04:20,37.08157,-121.59959,341.0,0.0,248.3,-12.6,0.0,0,0.0,0.0,0.0,11.0,-1.2,51.8,0.0,119.0,0.0,-0.02,1.0,0.0,-99.0,17.0,0.0,30.11,360.0,0.0,0.0,326.0,0.0,0.0,0.0,0.0,0.0,0.0,0.0,0.0,0.0,0.0,0.0,0.0,0.0,0.0,0.0,0.0,0.0,0.0,0.0,0.0,0.0,0.0,0.0,0.0,0.0,15.0,0.0,0.0,30.2,0.0,0.0,0.0,0.0,0.0,0.0,36.2,0.0,0.0,-0.6,1.3,0.5,0.0,0.0,0.0,0.0,60.8,62.6,60.8,62.6,60.8,62.6,60.8,62.6,0.0,0.0,-17.0,+254.4,0.0,0.0,-7.0,4.998,0.0,0.0,0.654,0.791,0.0,14.8,0.0,0.0,0.0,0,0.0,0.0,0.0,341.6,True,2026-02-14 00:03:49 - Flight 2
33.06,1,8,2026-02-14 00:04:21,37.08157,-121.59959,341.0,0.0,248.3,-12.6,0.0,0,0.0,0.0,0.0,11.0,-1.2,51.8,0.0,117.0,0.0,-0.02,1.0,0.0,-86.0,17.0,0.0,30.11,360.0,0.0,0.0,326.0,0.0,0.0,0.0,0.0,0.0,0.0,0.0,0.0,0.0,0.0,0.0,0.0,0.0,0.0,0.0,0.0,0.0,0.0,0.0,0.0,0.0,0.0,0.0,0.0,0.0,15.0,0.0,0.0,30.2,0.0,0.0,0.0,0.0,0.0,0.0,36.2,0.0,0.0,-0.6,1.3,0.5,0.0,0.0,0.0,0.0,60.8,62.6,60.8,62.6,60.8,62.6,60.8,62.6,0.0,0.0,-17.0,+254.4,0.0,0.0,-7.0,4.998,0.0,0.0,0.654,0.791,0.0,14.8,0.0,0.0,0.0,0,0.0,0.0,0.0,341.6,True,2026-02-14 00:03:49 - Flight 2
34.06,1,8,2026-02-14 00:04:22,37.08157,-121.59959,340.0,0.0,248.3,-12.6,0.0,0,0.0,0.0,0.0,11.0,-1.2,51.8,0.0,116.0,-0.0,-0.02,1.0,0.0,-90.0,17.0,0.0,30.11,357.0,0.0,0.0,326.0,0.0,0.0,0.0,0.0,0.0,0.0,0.0,0.0,0.0,0.0,0.0,0.0,0.0,0.0,0.0,0.0,0.0,0.0,0.0,0.0,0.0,0.0,0.0,0.0,0.0,15.0,0.0,0.0,30.2,0.0,0.0,0.0,0.0,0.0,0.0,36.2,0.0,0.0,-0.6,1.3,0.5,0.0,0.0,0.0,0.0,60.8,62.6,60.8,62.6,60.8,62.6,60.8,62.6,0.0,0.0,-18.0,+254.4,0.0,0.0,-7.0,4.998,0.0,0.0,0.654,0.791,0.0,14.8,0.0,0.0,0.0,0,0.0,0.0,0.0,341.6,True,2026-02-14 00:03:49 - Flight 2
35.06,1,8,2026-02-14 00:04:23,37.08157,-121.59959,339.0,0.0,248.3,-12.6,0.0,0,0.0,0.0,0.0,11.0,-1.2,51.8,0.0,116.0,-0.0,-0.02,1.0,0.0,-61.0,17.0,0.0,30.11,357.0,0.0,0.0,326.0,0.0,0.0,0.0,0.0,0.0,0.0,0.0,0.0,0.0,0.0,0.0,0.0,0.0,0.0,0.0,0.0,0.0,0.0,0.0,0.0,0.0,0.0,0.0,0.0,0.0,15.0,0.0,0.0,30.2,0.0,0.0,0.0,0.0,0.0,0.0,36.2,0.0,0.0,-0.6,1.3,0.5,0.0,0.0,0.0,0.0,60.8,62.6,60.8,62.6,60.8,62.6,60.8,62.6,0.0,0.0,-18.0,+254.4,0.0,0.0,-7.0,4.998,0.0,0.0,0.654,0.791,0.0,14.8,0.0,0.0,0.0,0,0.0,0.0,0.0,341.6,True,2026-02-14 00:03:49 - Flight 2
36.06,1,8,2026-02-14 00:04:24,37.08156,-121.59959,339.0,0.0,248.3,-12.6,0.0,0,0.0,0.0,0.0,11.0,-1.2,51.8,0.0,115.0,0.0,-0.02,1.0,0.0,-51.0,17.0,0.0,30.11,357.0,0.0,0.0,326.0,0.0,0.0,0.0,0.0,0.0,0.0,0.0,0.0,0.0,0.0,0.0,0.0,0.0,0.0,0.0,0.0,0.0,0.0,0.0,0.0,0.0,0.0,0.0,0.0,0.0,15.0,0.0,0.0,30.2,0.0,0.0,0.0,0.0,0.0,0.0,36.2,0.0,0.0,-0.6,1.3,0.5,0.0,0.0,0.0,0.0,60.8,62.6,60.8,62.6,60.8,62.6,60.8,62.6,0.0,0.0,-19.0,+254.4,0.0,0.0,-7.0,4.998,0.0,0.0,0.654,0.79,0.0,14.8,0.0,0.0,0.0,0,0.0,0.0,0.0,341.6,True,2026-02-14 00:03:49 - Flight 2
37.06,1,8,2026-02-14 00:04:25,37.08156,-121.59959,338.0,0.0,248.3,-12.6,0.0,0,0.0,0.0,0.0,11.0,-1.2,51.8,0.0,115.0,0.0,-0.02,1.0,0.0,-22.0,17.0,0.0,30.11,354.0,0.0,0.0,326.0,0.0,0.0,0.0,0.0,0.0,0.0,0.0,0.0,0.0,0.0,0.0,0.0,0.0,0.0,0.0,0.0,0.0,0.0,0.0,0.0,0.0,0.0,0.0,0.0,0.0,15.0,0.0,0.0,30.2,0.0,0.0,0.0,0.0,0.0,0.0,36.2,0.0,0.0,-0.6,1.3,0.5,0.0,0.0,0.0,0.0,60.8,62.6,60.8,62.6,60.8,62.6,60.8,62.6,0.0,0.0,-18.0,+254.4,0.0,0.0,-7.0,4.998,0.0,0.0,0.654,0.791,0.0,14.8,0.0,0.0,0.0,0,0.0,0.0,0.0,341.6,True,2026-02-14 00:03:49 - Flight 2
38.06,1,8,2026-02-14 00:04:26,37.08156,-121.59959,337.0,0.0,248.3,-12.6,0.0,0,0.0,0.0,0.0,11.0,-1.2,51.8,0.0,115.0,0.0,-0.02,1.0,0.0,-16.0,17.0,0.0,30.11,354.0,0.0,0.0,326.0,0.0,0.0,0.0,0.0,0.0,0.0,0.0,0.0,0.0,0.0,0.0,0.0,0.0,0.0,0.0,0.0,0.0,0.0,0.0,0.0,0.0,0.0,0.0,0.0,0.0,15.0,0.0,0.0,30.2,0.0,0.0,0.0,0.0,0.0,0.0,36.2,0.0,0.0,-0.6,1.3,0.5,0.0,0.0,0.0,0.0,60.8,62.6,60.8,62.6,60.8,62.6,60.8,62.6,0.0,0.0,-18.0,+254.4,0.0,0.0,-7.0,4.998,0.0,0.0,0.654,0.791,0.0,14.8,0.0,0.0,0.0,0,0.0,0.0,0.0,341.6,True,2026-02-14 00:03:49 - Flight 2
39.06,1,8,2026-02-14 00:04:27,37.08156,-121.59959,337.0,0.0,248.3,-12.6,0.0,0,0.0,0.0,0.0,11.0,-1.2,51.8,0.0,114.0,0.0,-0.02,1.0,0.0,-38.0,17.0,0.0,30.11,354.0,0.0,0.0,326.0,0.0,0.0,0.0,0.0,0.0,0.0,0.0,0.0,0.0,0.0,0.0,0.0,0.0,0.0,0.0,0.0,0.0,0.0,0.0,0.0,0.0,0.0,0.0,0.0,0.0,15.0,0.0,0.0,30.2,0.0,0.0,0.0,0.0,0.0,0.0,36.2,0.0,0.0,-0.6,1.3,0.5,0.0,0.0,0.0,0.0,60.8,62.6,60.8,62.6,60.8,62.6,60.8,62.6,0.0,0.0,-18.0,+254.4,0.0,0.0,-7.0,4.998,0.0,0.0,0.654,0.791,0.0,14.8,0.0,0.0,0.0,0,0.0,0.0,0.0,341.6,True,2026-02-14 00:03:49 - Flight 2
40.06,1,8,2026-02-14 00:04:28,37.08157,-121.59959,336.0,0.0,248.3,-12.6,0.0,0,0.0,0.0,0.0,11.0,-1.2,51.8,0.0,114.0,0.0,-0.02,1.0,0.0,-5.0,17.0,0.0,30.11,353.0,0.0,0.0,326.0,0.0,0.0,0.0,0.0,0.0,0.0,0.0,0.0,0.0,0.0,0.0,0.0,0.0,0.0,0.0,0.0,0.0,0.0,0.0,0.0,0.0,0.0,0.0,0.0,0.0,15.0,0.0,0.0,30.2,0.0,0.0,0.0,0.0,0.0,0.0,36.2,0.0,0.0,-0.6,1.3,0.5,0.0,0.0,0.0,0.0,60.8,62.6,60.8,62.6,60.8,62.6,60.8,62.6,0.0,0.0,-19.0,+254.4,0.0,0.0,-7.0,4.998,0.0,0.0,0.654,0.791,0.0,14.8,0.0,0.0,0.0,0,0.0,0.0,0.0,341.6,True,2026-02-14 00:03:49 - Flight 2
41.06,1,8,2026-02-14 00:04:29,37.08157,-121.59959,336.0,0.0,248.3,-12.6,0.0,0,0.0,0.0,0.0,11.0,-1.2,51.7,0.0,113.0,-0.0,-0.02,1.0,0.0,-28.0,17.0,0.0,30.11,354.0,0.0,0.0,326.0,0.0,0.0,0.0,0.0,0.0,0.0,0.0,0.0,0.0,0.0,0.0,0.0,0.0,0.0,0.0,0.0,0.0,0.0,0.0,0.0,0.0,0.0,0.0,0.0,0.0,15.0,0.0,0.0,30.2,0.0,0.0,0.0,0.0,0.0,0.0,36.2,0.0,0.0,-0.6,1.3,0.5,0.0,0.0,0.0,0.0,60.8,62.6,60.8,62.6,60.8,62.6,60.8,62.6,0.0,0.0,-19.0,+254.4,0.0,0.0,-7.0,4.998,0.0,0.0,0.654,0.791,0.0,14.8,0.0,0.0,0.0,0,0.0,0.0,0.0,341.6,True,2026-02-14 00:03:49 - Flight 2
42.06,1,8,2026-02-14 00:04:30,37.08157,-121.59959,335.0,0.0,248.3,-12.6,0.0,0,0.0,0.0,0.0,11.0,-1.3,51.7,0.0,112.0,-0.0,-0.02,1.0,0.0,-18.0,17.0,0.0,30.11,354.0,0.0,0.0,326.0,0.0,0.0,0.0,0.0,0.0,0.0,0.0,0.0,0.0,0.0,0.0,0.0,0.0,0.0,0.0,0.0,0.0,0.0,0.0,0.0,0.0,0.0,0.0,0.0,0.0,15.0,0.0,0.0,30.2,0.0,0.0,0.0,0.0,0.0,0.0,36.2,0.0,0.0,-0.6,1.3,0.5,0.0,0.0,0.0,0.0,60.8,62.6,60.8,62.6,60.8,62.6,60.8,62.6,0.0,0.0,-19.0,+229.7,0.0,0.0,-7.0,4.998,0.0,0.0,0.654,0.791,0.0,14.8,0.0,0.0,0.0,0,0.0,0.0,0.0,341.6,True,2026-02-14 00:03:49 - Flight 2
43.06,1,8,2026-02-14 00:04:31,37.08157,-121.59959,335.0,0.0,248.3,-12.6,0.0,0,0.0,0.0,0.0,11.0,-1.2,51.7,0.0,112.0,-0.0,-0.02,1.0,0.0,-48.0,17.0,0.0,30.11,354.0,0.0,0.0,326.0,0.0,0.0,0.0,0.0,0.0,0.0,0.0,0.0,0.0,0.0,0.0,0.0,0.0,0.0,0.0,0.0,0.0,0.0,0.0,0.0,0.0,0.0,0.0,0.0,0.0,15.0,0.0,0.0,30.2,0.0,0.0,0.0,0.0,0.0,0.0,36.2,0.0,0.0,-0.6,1.3,0.5,0.0,0.0,0.0,0.0,60.8,62.6,60.8,62.6,60.8,62.6,60.8,62.6,0.0,0.0,-19.0,+178.8,0.0,0.0,-7.0,4.998,0.0,0.0,0.654,0.791,0.0,14.8,0.0,0.0,0.0,0,0.0,0.0,0.0,341.6,True,2026-02-14 00:03:49 - Flight 2
44.06,1,8,2026-02-14 00:04:32,37.08157,-121.59959,334.0,0.0,248.3,-12.6,0.0,0,0.0,0.0,0.0,11.0,-1.2,51.7,0.0,111.0,-0.0,-0.02,1.0,0.0,-38.0,17.0,0.0,30.11,350.0,0.0,0.0,326.0,0.0,0.0,0.0,0.0,0.0,0.0,0.0,0.0,0.0,0.0,0.0,0.0,0.0,0.0,0.0,0.0,0.0,0.0,0.0,0.0,0.0,0.0,0.0,0.0,0.0,15.0,0.0,0.0,30.2,0.0,0.0,0.0,0.0,0.0,0.0,36.2,0.0,0.0,-0.6,1.3,0.5,0.0,0.0,0.0,0.0,60.8,62.6,60.8,62.6,60.8,62.6,60.8,62.6,0.0,0.0,-19.0,+139.2,0.0,0.0,-7.0,4.998,0.0,0.0,0.654,0.79,0.0,14.8,0.0,0.0,0.0,0,0.0,0.0,0.0,341.6,True,2026-02-14 00:03:49 - Flight 2
45.06,1,8,2026-02-14 00:04:33,37.08157,-121.59959,334.0,0.0,248.3,-12.6,0.0,0,0.0,0.0,0.0,11.0,-1.2,51.7,0.0,110.0,-0.0,-0.02,1.0,0.0,-48.0,17.0,0.0,30.11,350.0,0.0,0.0,326.0,0.0,0.0,0.0,0.0,0.0,0.0,0.0,0.0,0.0,0.0,0.0,0.0,0.0,0.0,0.0,0.0,0.0,0.0,0.0,0.0,0.0,0.0,0.0,0.0,0.0,15.0,0.0,0.0,30.2,0.0,0.0,0.0,0.0,0.0,0.0,36.2,0.0,0.0,-0.6,1.3,0.5,0.0,0.0,0.0,0.0,60.8,62.6,60.8,62.6,60.8,62.6,60.8,62.6,0.0,0.0,-19.0,+108.4,0.0,0.0,-7.0,4.998,0.0,0.0,0.654,0.79,0.0,14.8,0.0,0.0,0.0,0,0.0,0.0,0.0,341.6,True,2026-02-14 00:03:49 - Flight 2
46.06,1,8,2026-02-14 00:04:34,37.08157,-121.59959,333.0,0.0,248.3,-12.6,0.0,0,0.0,0.0,0.0,11.1,-1.2,51.7,0.0,110.0,-0.0,-0.02,1.0,0.0,-27.0,17.0,0.0,30.11,350.0,0.0,0.0,326.0,0.0,0.0,0.0,0.0,0.0,0.0,0.0,0.0,0.0,0.0,0.0,0.0,0.0,0.0,0.0,0.0,0.0,0.0,0.0,0.0,0.0,0.0,0.0,0.0,0.0,15.0,0.0,0.0,30.2,0.0,0.0,0.0,0.0,0.0,0.0,36.2,0.0,0.0,-0.6,1.3,0.5,0.0,0.0,0.0,0.0,60.8,62.6,60.8,62.6,60.8,62.6,60.8,62.6,0.0,0.0,-19.0,+84.5,0.0,0.0,-7.0,4.998,0.0,0.0,0.654,0.791,0.0,14.8,0.0,0.0,0.0,0,0.0,0.0,0.0,341.6,True,2026-02-14 00:03:49 - Flight 2
47.06,1,8,2026-02-14 00:04:35,37.08157,-121.59959,333.0,0.0,248.3,-12.6,0.0,0,0.0,0.0,0.0,11.1,-1.2,51.7,0.0,110.0,-0.0,-0.02,1.0,0.0,-5.0,17.0,0.0,30.11,357.0,0.0,0.0,326.0,0.0,0.0,0.0,0.0,0.0,0.0,0.0,0.0,0.0,0.0,0.0,0.0,0.0,0.0,0.0,0.0,0.0,0.0,0.0,0.0,0.0,0.0,0.0,0.0,0.0,15.0,0.0,0.0,30.2,0.0,0.0,0.0,0.0,0.0,0.0,36.2,0.0,0.0,-0.6,1.3,0.5,0.0,0.0,0.0,0.0,60.8,62.6,60.8,62.6,60.8,62.6,60.8,62.6,0.0,0.0,-19.0,+65.9,0.0,0.0,-7.0,4.998,0.0,0.0,0.654,0.79,0.0,14.8,0.0,0.0,0.0,0,0.0,0.0,0.0,341.6,True,2026-02-14 00:03:49 - Flight 2
48.06,1,8,2026-02-14 00:04:36,37.08157,-121.59959,332.0,0.0,248.3,-12.6,0.0,0,0.0,0.0,0.0,11.1,-1.2,51.6,0.0,110.0,-0.0,-0.02,1.0,0.0,12.0,17.0,0.0,30.11,357.0,0.0,0.0,326.0,0.0,0.0,0.0,0.0,0.0,0.0,0.0,0.0,0.0,0.0,0.0,0.0,0.0,0.0,0.0,0.0,0.0,0.0,0.0,0.0,0.0,0.0,0.0,0.0,0.0,15.0,0.0,0.0,30.2,0.0,0.0,0.0,0.0,0.0,0.0,36.2,0.0,0.0,-0.6,1.3,0.5,0.0,0.0,0.0,0.0,60.8,62.6,60.8,62.6,60.8,62.6,60.8,62.6,0.0,0.0,-18.0,+51.4,0.0,0.0,-7.0,4.998,0.0,0.0,0.654,0.79,0.0,14.8,0.0,0.0,0.0,0,0.0,0.0,0.0,341.6,True,2026-02-14 00:03:49 - Flight 2
49.06,1,8,2026-02-14 00:04:37,37.08157,-121.5996,331.0,0.0,248.3,-12.6,0.0,0,0.0,0.0,0.0,11.1,-1.2,51.7,0.0,110.0,0.0,-0.02,1.0,0.0,38.0,17.0,0.0,30.11,357.0,0.0,0.0,326.0,0.0,0.0,0.0,0.0,0.0,0.0,0.0,0.0,0.0,0.0,0.0,0.0,0.0,0.0,0.0,0.0,0.0,0.0,0.0,0.0,0.0,0.0,0.0,0.0,0.0,15.0,0.0,0.0,30.2,0.0,0.0,0.0,0.0,0.0,0.0,36.2,0.0,0.0,-0.6,1.3,0.5,0.0,0.0,0.0,0.0,60.8,62.6,60.8,62.6,60.8,62.6,60.8,62.6,0.0,0.0,-18.0,+40.2,0.0,0.0,-7.0,4.998,0.0,0.0,0.654,0.79,0.0,14.8,0.0,0.0,0.0,0,0.0,0.0,0.0,341.6,True,2026-02-14 00:03:49 - Flight 2
50.06,1,8,2026-02-14 00:04:38,37.08157,-121.5996,331.0,0.0,248.3,-12.6,0.0,0,0.0,0.0,0.0,11.0,-1.2,51.7,0.0,110.0,-0.0,-0.02,1.0,0.0,27.0,17.0,0.0,30.11,357.0,0.0,0.0,326.0,0.0,0.0,0.0,0.0,0.0,0.0,0.0,0.0,0.0,0.0,0.0,0.0,0.0,0.0,0.0,0.0,0.0,0.0,0.0,0.0,0.0,0.0,0.0,0.0,0.0,15.0,0.0,0.0,30.2,0.0,0.0,0.0,0.0,0.0,0.0,36.2,0.0,0.0,-0.6,1.3,0.5,0.0,0.0,0.0,0.0,60.8,62.6,60.8,62.6,60.8,62.6,60.8,62.6,0.0,0.0,-18.0,+31.4,0.0,0.0,-7.0,4.998,0.0,0.0,0.654,0.79,0.0,14.8,0.0,0.0,0.0,0,0.0,0.0,0.0,341.6,True,2026-02-14 00:03:49 - Flight 2
51.06,1,8,2026-02-14 00:04:39,37.08157,-121.5996,330.0,0.0,248.3,-12.6,0.0,0,0.0,0.0,0.0,11.1,-1.2,51.7,0.0,110.0,-0.0,-0.02,1.0,0.0,27.0,17.0,0.0,30.11,357.0,0.0,0.0,326.0,0.0,0.0,0.0,0.0,0.0,0.0,0.0,0.0,0.0,0.0,0.0,0.0,0.0,0.0,0.0,0.0,0.0,0.0,0.0,0.0,0.0,0.0,0.0,0.0,0.0,15.0,0.0,0.0,30.2,0.0,0.0,0.0,0.0,0.0,0.0,36.2,0.0,0.0,-0.6,1.3,0.5,0.0,0.0,0.0,0.0,60.8,62.6,60.8,62.6,60.8,62.6,60.8,62.6,0.0,0.0,-18.0,+24.7,0.0,0.0,-7.0,4.998,0.0,0.0,0.654,0.79,0.0,14.8,0.0,0.0,0.0,0,0.0,0.0,0.0,341.6,True,2026-02-14 00:03:49 - Flight 2
52.06,1,8,2026-02-14 00:04:40,37.08157,-121.5996,330.0,0.0,248.3,-12.6,0.0,0,0.0,0.0,0.0,11.1,-1.2,51.7,0.0,110.0,0.0,-0.02,1.0,0.0,8.0,17.0,0.0,30.11,357.0,0.0,0.0,326.0,0.0,0.0,0.0,0.0,0.0,0.0,0.0,0.0,0.0,0.0,0.0,0.0,0.0,0.0,0.0,0.0,0.0,0.0,0.0,0.0,0.0,0.0,0.0,0.0,0.0,15.0,0.0,0.0,30.2,0.0,0.0,0.0,0.0,0.0,0.0,36.2,0.0,0.0,-0.6,1.3,0.5,0.0,0.0,0.0,0.0,60.8,62.6,60.8,62.6,60.8,62.6,60.8,62.6,0.0,0.0,-18.0,+19.4,0.0,0.0,-7.0,4.998,0.0,0.0,0.654,0.79,0.0,14.8,0.0,0.0,0.0,0,0.0,0.0,0.0,341.6,True,2026-02-14 00:03:49 - Flight 2
53.06,1,8,2026-02-14 00:04:41,37.08157,-121.5996,329.0,0.0,248.3,-12.6,0.0,0,0.0,0.0,0.0,11.1,-1.2,51.7,0.0,110.0,0.0,-0.02,1.0,0.0,18.0,17.0,0.0,30.11,358.0,0.0,0.0,326.0,0.0,0.0,0.0,0.0,0.0,0.0,0.0,0.0,0.0,0.0,0.0,0.0,0.0,0.0,0.0,0.0,0.0,0.0,0.0,0.0,0.0,0.0,0.0,0.0,0.0,15.0,0.0,0.0,30.2,0.0,0.0,0.0,0.0,0.0,0.0,36.2,0.0,0.0,-0.6,1.3,0.5,0.0,0.0,0.0,0.0,60.8,62.6,60.8,62.6,60.8,62.6,60.8,62.6,0.0,0.0,-18.0,+15.3,0.0,0.0,-7.0,4.998,0.0,0.0,0.654,0.79,0.0,14.8,0.0,0.0,0.0,0,0.0,0.0,0.0,341.6,True,2026-02-14 00:03:49 - Flight 2
54.06,1,8,2026-02-14 00:04:42,37.08157,-121.5996,328.0,0.0,248.3,-12.6,0.0,0,0.0,0.0,0.0,11.0,-1.2,51.7,0.0,110.0,0.0,-0.02,1.0,0.0,39.0,17.0,0.0,30.11,358.0,0.0,0.0,326.0,0.0,0.0,0.0,0.0,0.0,0.0,0.0,0.0,0.0,0.0,0.0,0.0,0.0,0.0,0.0,0.0,0.0,0.0,0.0,0.0,0.0,0.0,0.0,0.0,0.0,15.0,0.0,0.0,30.2,0.0,0.0,0.0,0.0,0.0,0.0,36.2,0.0,0.0,-0.6,1.3,0.5,0.0,0.0,0.0,0.0,60.8,62.6,60.8,62.6,60.8,62.6,60.8,62.6,0.0,0.0,-18.0,+12.1,0.0,0.0,-7.0,4.998,0.0,0.0,0.654,0.79,0.0,14.8,0.0,0.0,0.0,0,0.0,0.0,0.0,341.6,True,2026-02-14 00:03:49 - Flight 2
55.06,1,8,2026-02-14 00:04:43,37.08157,-121.5996,328.0,0.0,248.3,-12.6,0.0,0,0.0,0.0,0.0,11.1,-1.2,51.7,0.0,110.0,0.0,-0.02,1.0,0.0,-3.0,17.0,0.0,30.11,357.0,0.0,0.0,326.0,0.0,0.0,0.0,0.0,0.0,0.0,0.0,0.0,0.0,0.0,0.0,0.0,0.0,0.0,0.0,0.0,0.0,0.0,0.0,0.0,0.0,0.0,0.0,0.0,0.0,15.0,0.0,0.0,30.2,0.0,0.0,0.0,0.0,0.0,0.0,36.2,0.0,0.0,-0.6,1.3,0.5,0.0,0.0,0.0,0.0,60.8,62.6,60.8,62.6,60.8,62.6,60.8,62.6,0.0,0.0,-18.0,+9.6,0.0,0.0,-7.0,4.998,0.0,0.0,0.654,0.79,0.0,14.8,0.0,0.0,0.0,0,0.0,0.0,0.0,341.6,True,2026-02-14 00:03:49 - Flight 2
56.06,1,8,2026-02-14 00:04:44,37.08157,-121.5996,327.0,0.0,248.3,-12.6,0.0,0,0.0,0.0,0.0,11.0,-1.2,51.7,0.0,110.0,0.0,-0.02,1.0,0.0,-15.0,17.0,0.0,30.11,357.0,0.0,0.0,326.0,0.0,0.0,0.0,0.0,0.0,0.0,0.0,0.0,0.0,0.0,0.0,0.0,0.0,0.0,0.0,0.0,0.0,0.0,0.0,0.0,0.0,0.0,0.0,0.0,0.0,15.0,0.0,0.0,30.2,0.0,0.0,0.0,0.0,0.0,0.0,36.2,0.0,0.0,-0.6,1.3,0.5,0.0,0.0,0.0,0.0,60.8,62.6,60.8,62.6,60.8,62.6,60.8,62.6,0.0,0.0,-17.0,+7.7,0.0,0.0,-7.0,4.998,0.0,0.0,0.654,0.791,0.0,14.8,0.0,0.0,0.0,0,0.0,0.0,0.0,341.6,True,2026-02-14 00:03:49 - Flight 2
57.06,1,8,2026-02-14 00:04:45,37.08157,-121.5996,327.0,0.0,248.3,-12.6,0.0,0,0.0,0.0,0.0,11.0,-1.2,51.7,0.0,110.0,-0.0,-0.02,1.0,0.0,-15.0,17.0,0.0,30.11,357.0,0.0,0.0,326.0,0.0,0.0,0.0,0.0,0.0,0.0,0.0,0.0,0.0,0.0,0.0,0.0,0.0,0.0,0.0,0.0,0.0,0.0,0.0,0.0,0.0,0.0,0.0,0.0,0.0,15.0,0.0,0.0,30.2,0.0,0.0,0.0,0.0,0.0,0.0,36.2,0.0,0.0,-0.6,1.3,0.5,0.0,0.0,0.0,0.0,60.8,62.6,60.8,62.6,60.8,62.6,60.8,62.6,0.0,0.0,-18.0,+6.2,0.0,0.0,-7.0,4.998,0.0,0.0,0.654,0.79,0.0,14.8,0.0,0.0,0.0,0,0.0,0.0,0.0,341.6,True,2026-02-14 00:03:49 - Flight 2
58.06,1,8,2026-02-14 00:04:46,37.08157,-121.5996,326.0,0.0,248.3,-12.6,0.0,0,0.0,0.0,0.0,11.0,-1.3,51.7,0.0,110.0,-0.0,-0.02,1.0,0.0,10.0,17.0,0.0,30.11,358.0,0.0,0.0,326.0,0.0,0.0,0.0,0.0,0.0,0.0,0.0,0.0,0.0,0.0,0.0,0.0,0.0,0.0,0.0,0.0,0.0,0.0,0.0,0.0,0.0,0.0,0.0,0.0,0.0,15.0,0.0,0.0,30.2,0.0,0.0,0.0,0.0,0.0,0.0,36.2,0.0,0.0,-0.6,1.3,0.5,0.0,0.0,0.0,0.0,60.8,62.6,60.8,62.6,60.8,62.6,60.8,62.6,0.0,0.0,-18.0,+5.0,0.0,0.0,-7.0,4.998,0.0,0.0,0.654,0.791,0.0,14.8,0.0,0.0,0.0,0,0.0,0.0,0.0,341.6,True,2026-02-14 00:03:49 - Flight 2
59.06,1,8,2026-02-14 00:04:47,37.08157,-121.5996,325.0,0.0,248.3,-12.6,0.0,0,0.0,0.0,0.0,11.0,-1.3,51.7,0.0,110.0,-0.0,-0.02,1.0,0.0,-14.0,17.0,0.0,30.11,358.0,0.0,0.0,326.0,0.0,0.0,0.0,0.0,0.0,0.0,0.0,0.0,0.0,0.0,0.0,0.0,0.0,0.0,0.0,0.0,0.0,0.0,0.0,0.0,0.0,0.0,0.0,0.0,0.0,15.0,0.0,0.0,30.2,0.0,0.0,0.0,0.0,0.0,0.0,36.2,0.0,0.0,-0.6,1.3,0.5,0.0,0.0,0.0,0.0,60.8,62.6,60.8,62.6,60.8,62.6,60.8,62.6,0.0,0.0,-18.0,+4.1,0.0,0.0,-7.0,4.998,0.0,0.0,0.654,0.791,0.0,14.8,0.0,0.0,0.0,0,0.0,0.0,0.0,341.6,True,2026-02-14 00:03:49 - Flight 2
60.06,1,8,2026-02-14 00:04:48,37.08157,-121.5996,324.0,0.0,248.3,-12.6,0.0,0,0.0,0.0,0.0,11.0,-1.3,51.7,0.0,110.0,-0.0,-0.02,1.0,0.0,-24.0,17.0,0.0,30.11,358.0,0.0,0.0,326.0,0.0,0.0,0.0,0.0,0.0,0.0,0.0,0.0,0.0,0.0,0.0,0.0,0.0,0.0,0.0,0.0,0.0,0.0,0.0,0.0,0.0,0.0,0.0,0.0,0.0,15.0,0.0,0.0,30.2,0.0,0.0,0.0,0.0,0.0,0.0,36.2,0.0,0.0,-0.6,1.3,0.5,0.0,0.0,0.0,0.0,60.8,62.6,60.8,62.6,60.8,62.6,60.8,62.6,0.0,0.0,-18.0,+3.4,0.0,0.0,-7.0,4.998,0.0,0.0,0.654,0.79,0.0,14.8,0.0,0.0,0.0,0,0.0,0.0,0.0,341.6,True,2026-02-14 00:03:49 - Flight 2
61.06,1,9,2026-02-14 00:04:49,37.08148,-121.59962,401.0,0.0,248.3,-12.6,0.0,0,0.0,0.0,0.0,11.0,-1.3,51.7,0.0,110.0,0.0,-0.02,1.0,0.0,-17.0,17.0,0.0,30.11,358.0,0.0,0.0,326.0,0.0,0.0,0.0,0.0,0.0,0.0,0.0,0.0,0.0,0.0,0.0,0.0,0.0,0.0,0.0,0.0,0.0,0.0,0.0,0.0,0.0,0.0,0.0,0.0,0.0,15.0,0.0,0.0,30.2,0.0,0.0,0.0,0.0,0.0,0.0,36.2,0.0,0.0,-0.6,1.3,0.5,0.0,0.0,0.0,0.0,60.8,62.6,60.8,62.6,60.8,62.6,60.8,62.6,0.0,0.0,-18.0,+2.9,0.0,0.0,-7.0,4.998,0.0,0.0,0.654,0.79,0.0,14.8,0.0,0.0,0.0,0,0.0,0.0,0.0,341.6,True,2026-02-14 00:03:49 - Flight 2
62.06,1,9,2026-02-14 00:04:50,37.08152,-121.59962,365.0,0.0,248.3,-12.6,0.0,0,0.0,0.0,0.0,11.0,-1.3,51.7,0.0,110.0,0.0,-0.02,1.0,0.0,-12.0,17.0,0.0,30.11,358.0,0.0,0.0,326.0,0.0,0.0,0.0,0.0,0.0,0.0,0.0,0.0,0.0,0.0,0.0,0.0,0.0,0.0,0.0,0.0,0.0,0.0,0.0,0.0,0.0,0.0,0.0,0.0,0.0,15.0,0.0,0.0,30.2,0.0,0.0,0.0,0.0,0.0,0.0,36.2,0.0,0.0,-0.6,1.3,0.5,0.0,0.0,0.0,0.0,60.8,62.6,60.8,62.6,60.8,62.6,60.8,62.6,0.0,0.0,-18.0,+2.4,0.0,0.0,-7.0,4.998,0.0,0.0,0.654,0.791,0.0,14.8,0.0,0.0,0.0,0,0.0,0.0,0.0,341.6,True,2026-02-14 00:03:49 - Flight 2
63.06,1,9,2026-02-14 00:04:51,37.08152,-121.59962,365.0,0.1,248.3,-12.6,0.0,0,0.0,0.0,0.0,11.0,-1.3,51.7,0.0,109.0,0.0,-0.02,1.0,0.0,-48.0,17.0,0.0,30.11,358.0,0.0,0.0,326.0,0.0,0.0,0.0,0.0,0.0,0.0,0.0,0.0,0.0,0.0,0.0,0.0,0.0,0.0,0.0,0.0,0.0,0.0,0.0,0.0,0.0,0.0,0.0,0.0,0.0,15.0,0.0,0.0,30.2,0.0,0.0,0.0,0.0,0.0,0.0,36.2,0.0,0.0,-0.6,1.3,0.5,0.0,0.0,0.0,0.0,60.8,62.6,60.8,62.6,60.8,62.6,60.8,62.6,0.0,0.0,-18.0,+2.1,0.0,0.0,-7.0,4.998,0.0,0.0,0.654,0.79,0.0,14.8,0.0,0.0,0.0,0,0.0,0.0,0.0,341.6,True,2026-02-14 00:03:49 - Flight 2
64.06,1,9,2026-02-14 00:04:52,37.08152,-121.59962,364.0,0.0,248.3,-12.6,0.0,0,0.0,0.0,0.0,11.0,-1.3,51.7,0.0,107.0,0.0,-0.02,1.0,0.0,-78.0,17.0,0.0,30.11,356.0,0.0,0.0,326.0,0.0,0.0,0.0,0.0,0.0,0.0,0.0,0.0,0.0,0.0,0.0,0.0,0.0,0.0,0.0,0.0,0.0,0.0,0.0,0.0,0.0,0.0,0.0,0.0,0.0,15.0,0.0,0.0,30.2,0.0,0.0,0.0,0.0,0.0,0.0,36.2,0.0,0.0,-0.6,1.3,0.5,0.0,0.0,0.0,0.0,60.8,62.6,60.8,62.6,60.8,62.6,60.8,62.6,0.0,0.0,-18.0,+1.9,0.0,0.0,-7.0,4.998,0.0,0.0,0.654,0.791,0.0,14.8,0.0,0.0,0.0,0,0.0,0.0,0.0,341.6,True,2026-02-14 00:03:49 - Flight 2
65.06,1,9,2026-02-14 00:04:53,37.08152,-121.59962,364.0,0.0,248.3,-12.6,0.0,0,0.0,0.0,0.0,11.0,-1.2,51.7,0.0,107.0,0.0,-0.02,1.0,0.0,-46.0,17.0,0.0,30.11,356.0,0.0,0.0,326.0,0.0,0.0,0.0,0.0,0.0,0.0,0.0,0.0,0.0,0.0,0.0,0.0,0.0,0.0,0.0,0.0,0.0,0.0,0.0,0.0,0.0,0.0,0.0,0.0,0.0,15.0,0.0,0.0,30.2,0.0,0.0,0.0,0.0,0.0,0.0,36.2,0.0,0.0,-0.6,1.3,0.5,0.0,0.0,0.0,0.0,60.8,62.6,60.8,62.6,60.8,62.6,60.8,62.6,0.0,0.0,-18.0,+1.7,0.0,0.0,-7.0,4.998,0.0,0.0,0.654,0.79,0.0,14.8,0.0,0.0,0.0,0,0.0,0.0,0.0,341.6,True,2026-02-14 00:03:49 - Flight 2
66.06,1,9,2026-02-14 00:04:54,37.08152,-121.59962,362.0,0.0,248.3,-12.6,0.0,0,0.0,0.0,0.0,11.0,-1.3,51.7,0.0,107.0,-0.0,-0.02,1.0,0.0,-45.0,17.0,0.0,30.11,356.0,0.0,0.0,326.0,0.0,0.0,0.0,0.0,0.0,0.0,0.0,0.0,0.0,0.0,0.0,0.0,0.0,0.0,0.0,0.0,0.0,0.0,0.0,0.0,0.0,0.0,0.0,0.0,0.0,15.0,0.0,0.0,30.2,0.0,0.0,0.0,0.0,0.0,0.0,36.2,0.0,0.0,-0.6,1.3,0.5,0.0,0.0,0.0,0.0,60.8,62.6,60.8,62.6,60.8,62.6,60.8,62.6,0.0,0.0,-18.0,+1.5,0.0,0.0,-7.0,4.998,0.0,0.0,0.654,0.79,0.0,14.8,0.0,0.0,0.0,0,0.0,0.0,0.0,341.6,True,2026-02-14 00:03:49 - Flight 2
67.06,1,9,2026-02-14 00:04:55,37.08152,-121.59962,361.0,0.0,248.3,-12.6,0.0,0,0.0,0.0,0.0,11.0,-1.3,51.7,0.0,107.0,-0.0,-0.02,1.0,0.0,-42.0,17.0,0.0,30.11,354.0,0.0,0.0,326.0,0.0,0.0,0.0,0.0,0.0,0.0,0.0,0.0,0.0,0.0,0.0,0.0,0.0,0.0,0.0,0.0,0.0,0.0,0.0,0.0,0.0,0.0,0.0,0.0,0.0,15.0,0.0,0.0,30.2,0.0,0.0,0.0,0.0,0.0,0.0,36.2,0.0,0.0,-0.6,1.3,0.5,0.0,0.0,0.0,0.0,60.8,62.6,60.8,62.6,60.8,62.6,60.8,62.6,0.0,0.0,-19.0,+1.4,0.0,0.0,-7.0,4.998,0.0,0.0,0.654,0.79,0.0,14.8,0.0,0.0,0.0,0,0.0,0.0,0.0,341.6,True,2026-02-14 00:03:49 - Flight 2
68.06,1,9,2026-02-14 00:04:56,37.08152,-121.59962,360.0,0.0,248.3,-12.6,0.0,0,0.0,0.0,0.0,11.1,-1.3,51.7,0.0,105.0,-0.0,-0.02,1.0,0.0,-48.0,17.0,0.0,30.11,354.0,0.0,0.0,326.0,0.0,0.0,0.0,0.0,0.0,0.0,0.0,0.0,0.0,0.0,0.0,0.0,0.0,0.0,0.0,0.0,0.0,0.0,0.0,0.0,0.0,0.0,0.0,0.0,0.0,15.0,0.0,0.0,30.2,0.0,0.0,0.0,0.0,0.0,0.0,36.2,0.0,0.0,-0.6,1.3,0.5,0.0,0.0,0.0,0.0,60.8,62.6,60.8,62.6,60.8,62.6,60.8,62.6,0.0,0.0,-19.0,+1.3,0.0,0.0,-7.0,4.998,0.0,0.0,0.654,0.791,0.0,14.8,0.0,0.0,0.0,0,0.0,0.0,0.0,341.6,True,2026-02-14 00:03:49 - Flight 2
69.06,1,8,2026-02-14 00:04:57,37.08158,-121.59962,298.0,0.0,248.3,-12.6,0.0,0,0.0,0.0,0.0,11.0,-1.3,51.7,0.0,104.0,0.0,-0.02,1.0,0.0,-44.0,17.0,0.0,30.11,354.0,0.0,0.0,326.0,0.0,0.0,0.0,0.0,0.0,0.0,0.0,0.0,0.0,0.0,0.0,0.0,0.0,0.0,0.0,0.0,0.0,0.0,0.0,0.0,0.0,0.0,0.0,0.0,0.0,15.0,0.0,0.0,30.2,0.0,0.0,0.0,0.0,0.0,0.0,36.2,0.0,0.0,-0.6,1.3,0.5,0.0,0.0,0.0,0.0,60.8,62.6,60.8,62.6,60.8,62.6,60.8,62.6,0.0,0.0,-19.0,+1.2,0.0,0.0,-7.0,4.998,0.0,0.0,0.654,0.79,0.0,14.8,0.0,0.0,0.0,0,0.0,0.0,0.0,341.6,True,2026-02-14 00:03:49 - Flight 2
70.06,1,8,2026-02-14 00:04:58,37.08158,-121.59962,298.0,0.0,248.3,-12.6,0.0,0,0.0,0.0,0.0,11.0,-1.2,51.7,0.0,104.0,0.0,-0.02,1.0,0.0,-42.0,17.0,0.0,30.11,351.0,0.0,0.0,326.0,0.0,0.0,0.0,0.0,0.0,0.0,0.0,0.0,0.0,0.0,0.0,0.0,0.0,0.0,0.0,0.0,0.0,0.0,0.0,0.0,0.0,0.0,0.0,0.0,0.0,15.0,0.0,0.0,30.2,0.0,0.0,0.0,0.0,0.0,0.0,36.2,0.0,0.0,-0.6,1.3,0.5,0.0,0.0,0.0,0.0,60.8,62.6,60.8,62.6,60.8,62.6,60.8,62.6,0.0,0.0,-19.0,+1.2,0.0,0.0,-7.0,4.998,0.0,0.0,0.654,0.791,0.0,14.8,0.0,0.0,0.0,0,0.0,0.0,0.0,341.6,True,2026-02-14 00:03:49 - Flight 2
71.06,1,8,2026-02-14 00:04:59,37.08158,-121.59962,299.0,0.0,248.3,-12.6,0.0,0,0.0,0.0,0.0,11.0,-1.2,51.7,0.0,102.0,0.0,-0.02,1.0,0.0,-75.0,17.0,0.0,30.11,351.0,0.0,0.0,326.0,0.0,0.0,0.0,0.0,0.0,0.0,0.0,0.0,0.0,0.0,0.0,0.0,0.0,0.0,0.0,0.0,0.0,0.0,0.0,0.0,0.0,0.0,0.0,0.0,0.0,15.0,0.0,0.0,30.2,0.0,0.0,0.0,0.0,0.0,0.0,36.2,0.0,0.0,-0.6,1.3,0.5,0.0,0.0,0.0,0.0,60.8,62.6,60.8,62.6,60.8,62.6,60.8,62.6,0.0,0.0,-19.0,+1.1,0.0,0.0,-7.0,4.998,0.0,0.0,0.654,0.79,0.0,14.8,0.0,0.0,0.0,0,0.0,0.0,0.0,341.6,True,2026-02-14 00:03:49 - Flight 2
72.06,1,8,2026-02-14 00:05:00,37.08158,-121.59962,299.0,0.0,248.3,-12.6,0.0,0,0.0,0.0,0.0,11.0,-1.2,51.8,0.0,102.0,0.0,-0.02,1.0,0.0,-27.0,17.0,0.0,30.11,351.0,0.0,0.0,326.0,0.0,0.0,0.0,0.0,0.0,0.0,0.0,0.0,0.0,0.0,0.0,0.0,0.0,0.0,0.0,0.0,0.0,0.0,0.0,0.0,0.0,0.0,0.0,0.0,0.0,15.0,0.0,0.0,30.2,0.0,0.0,0.0,0.0,0.0,0.0,36.2,0.0,0.0,-0.6,1.3,0.5,0.0,0.0,0.0,0.0,60.8,62.6,60.8,62.6,60.8,62.6,60.8,62.6,0.0,0.0,-18.0,+1.1,0.0,0.0,-7.0,4.998,0.0,0.0,0.654,0.791,0.0,14.8,0.0,0.0,0.0,0,0.0,0.0,0.0,341.6,True,2026-02-14 00:03:49 - Flight 2
73.06,1,9,2026-02-14 00:05:01,37.08154,-121.59962,343.0,0.0,248.3,-12.6,0.0,0,0.0,0.0,0.0,11.0,-1.2,51.8,0.0,102.0,0.0,-0.02,1.0,0.0,-19.0,17.0,0.0,30.11,350.0,0.0,0.0,326.0,0.0,0.0,0.0,0.0,0.0,0.0,0.0,0.0,0.0,0.0,0.0,0.0,0.0,0.0,0.0,0.0,0.0,0.0,0.0,0.0,0.0,0.0,0.0,0.0,0.0,15.0,0.0,0.0,30.2,0.0,0.0,0.0,0.0,0.0,0.0,36.2,0.0,0.0,-0.6,1.3,0.5,0.0,0.0,0.0,0.0,60.8,62.6,60.8,62.6,60.8,62.6,60.8,62.6,0.0,0.0,-18.0,+1.1,0.0,0.0,-7.0,4.998,0.0,0.0,0.654,0.791,0.0,14.8,0.0,0.0,0.0,0,0.0,0.0,0.0,341.6,True,2026-02-14 00:03:49 - Flight 2
74.06,1,9,2026-02-14 00:05:02,37.08155,-121.59962,340.0,0.0,248.3,-12.6,0.0,0,0.0,0.0,0.0,11.0,-1.2,51.8,0.0,102.0,-0.0,-0.02,1.0,0.0,-31.0,17.0,0.0,30.11,350.0,0.0,0.0,326.0,0.0,0.0,0.0,0.0,0.0,0.0,0.0,0.0,0.0,0.0,0.0,0.0,0.0,0.0,0.0,0.0,0.0,0.0,0.0,0.0,0.0,0.0,0.0,0.0,0.0,15.0,0.0,0.0,30.2,0.0,0.0,0.0,0.0,0.0,0.0,36.2,0.0,0.0,-0.6,1.3,0.5,0.0,0.0,0.0,0.0,60.8,62.6,60.8,62.6,60.8,62.6,60.8,62.6,0.0,0.0,-18.0,+1.0,0.0,0.0,-7.0,4.998,0.0,0.0,0.654,0.791,0.0,14.8,0.0,0.0,0.0,0,0.0,0.0,0.0,341.6,True,2026-02-14 00:03:49 - Flight 2
75.06,1,9,2026-02-14 00:05:03,37.08155,-121.59962,339.0,0.0,248.3,-12.6,0.0,0,0.0,0.0,0.0,11.0,-1.3,51.7,0.0,101.0,-0.0,-0.02,1.0,0.0,3.0,17.0,0.0,30.11,350.0,0.0,0.0,326.0,0.0,0.0,0.0,0.0,0.0,0.0,0.0,0.0,0.0,0.0,0.0,0.0,0.0,0.0,0.0,0.0,0.0,0.0,0.0,0.0,0.0,0.0,0.0,0.0,0.0,15.0,0.0,0.0,30.2,0.0,0.0,0.0,0.0,0.0,0.0,36.2,0.0,0.0,-0.7,1.3,0.5,0.0,0.0,0.0,0.0,60.8,62.6,60.8,62.6,60.8,62.6,60.8,62.6,0.0,0.0,-18.0,+1.0,0.0,0.0,-7.0,4.998,0.0,0.0,0.654,0.79,0.0,14.8,0.0,0.0,0.0,0,0.0,0.0,0.0,341.6,True,2026-02-14 00:03:49 - Flight 2
76.06,1,9,2026-02-14 00:05:04,37.08155,-121.59962,338.0,0.0,248.3,-12.6,0.0,0,0.0,0.0,0.0,11.1,-1.3,51.7,0.0,101.0,-0.0,-0.02,1.0,0.0,12.0,17.0,0.0,30.11,349.0,0.0,0.0,326.0,0.0,0.0,0.0,0.0,0.0,0.0,0.0,0.0,0.0,0.0,0.0,0.0,0.0,0.0,0.0,0.0,0.0,0.0,0.0,0.0,0.0,0.0,0.0,0.0,0.0,15.0,0.0,0.0,30.2,0.0,0.0,0.0,0.0,0.0,0.0,36.2,0.0,0.0,-0.7,1.3,0.5,0.0,0.0,0.0,0.0,60.8,62.6,60.8,62.6,60.8,62.6,60.8,62.6,0.0,0.0,-18.0,+1.0,0.0,0.0,-7.0,4.998,0.0,0.0,0.654,0.79,0.0,14.8,0.0,0.0,0.0,0,0.0,0.0,0.0,341.6,True,2026-02-14 00:03:49 - Flight 2
77.06,1,9,2026-02-14 00:05:05,37.08155,-121.59962,339.0,0.0,248.3,-12.6,0.0,0,0.0,0.0,0.0,11.0,-1.3,51.6,0.0,101.0,-0.0,-0.02,1.0,0.0,-13.0,17.0,0.0,30.11,349.0,0.0,0.0,326.0,0.0,0.0,0.0,0.0,0.0,0.0,0.0,0.0,0.0,0.0,0.0,0.0,0.0,0.0,0.0,0.0,0.0,0.0,0.0,0.0,0.0,0.0,0.0,0.0,0.0,15.0,0.0,0.0,30.2,0.0,0.0,0.0,0.0,0.0,0.0,36.2,0.0,0.0,-0.7,1.3,0.5,0.0,0.0,0.0,0.0,60.8,62.6,60.8,62.6,60.8,62.6,60.8,62.6,0.0,0.0,-18.0,+1.0,0.0,0.0,-7.0,4.998,0.0,0.0,0.654,0.791,0.0,14.8,0.0,0.0,0.0,0,0.0,0.0,0.0,341.6,True,2026-02-14 00:03:49 - Flight 2
78.06,1,9,2026-02-14 00:05:06,37.08155,-121.59962,339.0,0.0,248.3,-12.6,0.0,0,0.0,0.0,0.0,11.0,-1.2,51.7,0.0,101.0,0.0,-0.02,1.0,0.0,-13.0,17.0,0.0,30.11,349.0,0.0,0.0,326.0,0.0,0.0,0.0,0.0,0.0,0.0,0.0,0.0,0.0,0.0,0.0,0.0,0.0,0.0,0.0,0.0,0.0,0.0,0.0,0.0,0.0,0.0,0.0,0.0,0.0,15.0,0.0,0.0,30.2,0.0,0.0,0.0,0.0,0.0,0.0,36.2,0.0,0.0,-0.7,1.3,0.5,0.0,0.0,0.0,0.0,60.8,62.6,60.8,62.6,60.8,62.6,60.8,62.6,0.0,0.0,-18.0,+1.0,0.0,0.0,-7.0,4.998,0.0,0.0,0.654,0.79,0.0,14.8,0.0,0.0,0.0,0,0.0,0.0,0.0,341.6,True,2026-02-14 00:03:49 - Flight 2
79.06,1,9,2026-02-14 00:05:07,37.08155,-121.59962,340.0,0.0,248.3,-12.6,0.0,0,0.0,0.0,0.0,11.0,-1.2,51.7,0.0,101.0,0.0,-0.02,1.0,0.0,-5.0,17.0,0.0,30.11,358.0,0.0,0.0,326.0,0.0,0.0,0.0,0.0,0.0,0.0,0.0,0.0,0.0,0.0,0.0,0.0,0.0,0.0,0.0,0.0,0.0,0.0,0.0,0.0,0.0,0.0,0.0,0.0,0.0,15.0,0.0,0.0,30.2,0.0,0.0,0.0,0.0,0.0,0.0,36.2,0.0,0.0,-0.7,1.3,0.5,0.0,0.0,0.0,0.0,60.8,62.6,60.8,62.6,60.8,62.6,60.8,62.6,0.0,0.0,-18.0,+1.0,0.0,0.0,-7.0,4.998,0.0,0.0,0.654,0.79,0.0,14.8,0.0,0.0,0.0,0,0.0,0.0,0.0,341.6,True,2026-02-14 00:03:49 - Flight 2
80.06,1,9,2026-02-14 00:05:08,37.08155,-121.59962,341.0,0.0,248.3,-12.6,0.0,0,0.0,0.0,0.0,11.0,-1.2,51.7,0.0,101.0,-0.0,-0.02,1.0,0.0,-9.0,17.0,0.0,30.11,357.0,0.0,0.0,326.0,0.0,0.0,0.0,0.0,0.0,0.0,0.0,0.0,0.0,0.0,0.0,0.0,0.0,0.0,0.0,0.0,0.0,0.0,0.0,0.0,0.0,0.0,0.0,0.0,0.0,15.0,0.0,0.0,30.2,0.0,0.0,0.0,0.0,0.0,0.0,36.2,0.0,0.0,-0.7,1.3,0.5,0.0,0.0,0.0,0.0,60.8,62.6,60.8,62.6,60.8,62.6,60.8,62.6,0.0,0.0,-18.0,+1.0,0.0,0.0,-7.0,4.998,0.0,0.0,0.654,0.79,0.0,14.8,0.0,0.0,0.0,0,0.0,0.0,0.0,341.6,True,2026-02-14 00:03:49 - Flight 2
81.06,1,9,2026-02-14 00:05:09,37.08155,-121.59962,341.0,0.0,248.3,-12.6,0.0,0,0.0,0.0,0.0,11.0,-1.2,51.7,0.0,101.0,0.0,-0.02,1.0,0.0,17.0,17.0,0.0,30.11,357.0,0.0,0.0,326.0,0.0,0.0,0.0,0.0,0.0,0.0,0.0,0.0,0.0,0.0,0.0,0.0,0.0,0.0,0.0,0.0,0.0,0.0,0.0,0.0,0.0,0.0,0.0,0.0,0.0,15.0,0.0,0.0,30.2,0.0,0.0,0.0,0.0,0.0,0.0,36.2,0.0,0.0,-0.7,1.3,0.5,0.0,0.0,0.0,0.0,60.8,62.6,60.8,62.6,60.8,62.6,60.8,62.6,0.0,0.0,-18.0,+1.0,0.0,0.0,-7.0,4.998,0.0,0.0,0.654,0.791,0.0,14.8,0.0,0.0,0.0,0,0.0,0.0,0.0,341.6,True,2026-02-14 00:03:49 - Flight 2
82.06,1,9,2026-02-14 00:05:10,37.08155,-121.59962,342.0,0.0,248.3,-12.6,0.0,0,0.0,0.0,0.0,11.0,-1.2,51.7,0.0,101.0,0.0,-0.02,1.0,0.0,23.0,17.0,0.0,30.11,357.0,0.0,0.0,326.0,0.0,0.0,0.0,0.0,0.0,0.0,0.0,0.0,0.0,0.0,0.0,0.0,0.0,0.0,0.0,0.0,0.0,0.0,0.0,0.0,0.0,0.0,0.0,0.0,0.0,15.0,0.0,0.0,30.2,0.0,0.0,0.0,0.0,0.0,0.0,36.2,0.0,0.0,-0.7,1.3,0.5,0.0,0.0,0.0,0.0,60.8,62.6,60.8,62.6,60.8,62.6,60.8,62.6,0.0,0.0,-18.0,+1.0,0.0,0.0,-7.0,4.998,0.0,0.0,0.654,0.791,0.0,14.8,0.0,0.0,0.0,0,0.0,0.0,0.0,341.6,True,2026-02-14 00:03:49 - Flight 2
83.06,1,9,2026-02-14 00:05:11,37.08155,-121.59962,344.0,0.0,248.3,-12.6,0.0,0,0.0,0.0,0.0,11.0,-1.2,51.7,0.0,101.0,0.0,-0.02,1.0,0.0,31.0,17.0,0.0,30.11,358.0,0.0,0.0,326.0,0.0,0.0,0.0,0.0,0.0,0.0,0.0,0.0,0.0,0.0,0.0,0.0,0.0,0.0,0.0,0.0,0.0,0.0,0.0,0.0,0.0,0.0,0.0,0.0,0.0,15.0,0.0,0.0,30.2,0.0,0.0,0.0,0.0,0.0,0.0,36.2,0.0,0.0,-0.7,1.3,0.5,0.0,0.0,0.0,0.0,60.8,62.6,60.8,62.6,60.8,62.6,60.8,62.6,0.0,0.0,-19.0,+1.0,0.0,0.0,-7.0,4.998,0.0,0.0,0.654,0.79,0.0,14.8,0.0,0.0,0.0,0,0.0,0.0,0.0,341.6,True,2026-02-14 00:03:49 - Flight 2
84.06,1,9,2026-02-14 00:05:12,37.08155,-121.59962,345.0,0.0,248.3,-12.6,0.0,0,0.0,0.0,0.0,11.0,-1.2,51.7,0.0,101.0,0.0,-0.02,1.0,0.0,14.0,17.0,0.0,30.11,358.0,0.0,0.0,326.0,0.0,0.0,0.0,0.0,0.0,0.0,0.0,0.0,0.0,0.0,0.0,0.0,0.0,0.0,0.0,0.0,0.0,0.0,0.0,0.0,0.0,0.0,0.0,0.0,0.0,15.0,0.0,0.0,30.2,0.5,0.0,0.5,5.6,0.0,0.0,36.2,0.0,0.0,-0.6,1.3,0.5,0.0,0.0,0.0,0.0,60.8,62.6,60.8,62.6,60.8,62.6,60.8,62.6,0.0,0.0,-19.0,+1.0,0.0,5.6,-7.0,4.998,0.0,0.0,0.654,0.79,0.0,14.8,0.0,0.0,0.0,0,0.0,0.0,6.944444444444444e-05,341.6,True,2026-02-14 00:03:49 - Flight 2
85.06,1,9,2026-02-14 00:05:13,37.08155,-121.59962,346.0,0.0,248.3,-12.6,0.0,0,0.0,0.0,0.0,11.1,-1.2,51.7,0.0,101.0,0.0,-0.02,1.0,0.0,15.0,17.0,0.0,30.11,358.0,0.0,0.0,326.0,0.0,0.0,0.0,0.0,0.0,0.0,0.0,0.0,0.0,0.0,0.0,0.0,0.0,0.0,0.0,0.0,0.0,0.0,0.0,0.0,0.0,0.0,0.0,0.0,0.0,15.0,0.0,0.0,30.2,0.9,0.0,0.9,31.5,0.0,0.0,36.2,0.0,0.0,-0.6,1.3,0.5,0.0,0.0,0.0,0.0,60.8,62.6,60.8,62.6,60.8,62.6,60.8,62.6,0.0,0.0,-19.0,+1.0,0.0,31.5,-7.0,4.998,0.0,0.0,0.654,0.79,0.0,14.8,0.0,0.0,0.0,0,0.0,0.0,0.0002638888888888889,341.6,True,2026-02-14 00:03:49 - Flight 2
86.06,1,9,2026-02-14 00:05:14,37.08155,-121.59961,347.0,0.0,248.3,-12.6,0.0,0,0.0,0.0,0.0,11.1,-1.2,51.7,0.0,101.0,0.0,-0.02,1.0,0.0,22.0,17.0,0.0,30.11,358.0,0.0,0.0,326.0,0.0,0.0,0.0,0.0,0.0,0.0,0.0,0.0,0.0,0.0,0.0,0.0,0.0,0.0,0.0,0.0,0.0,0.0,0.0,0.0,0.0,0.0,0.0,0.0,0.0,15.0,0.0,0.0,30.2,1.6,0.0,1.6,32.5,0.0,0.0,36.2,0.0,0.0,-0.6,1.3,0.5,0.0,0.0,0.0,0.0,60.8,62.6,60.8,62.6,60.8,62.6,60.8,62.6,0.0,0.0,-19.0,+1.0,0.0,32.5,-7.0,4.998,0.0,0.0,0.654,0.791,0.0,14.8,0.0,0.0,0.0,0,0.0,0.0,0.0006111111111111111,341.6,True,2026-02-14 00:03:49 - Flight 2
87.06,1,9,2026-02-14 00:05:15,37.08154,-121.59961,348.0,0.0,248.3,-12.6,0.0,0,0.0,0.0,0.0,11.1,-1.3,51.7,0.0,101.0,0.0,-0.02,1.0,0.0,-19.0,17.0,0.0,30.11,358.0,0.0,0.0,326.0,0.0,0.0,0.0,0.0,0.0,0.0,0.0,0.0,0.0,0.0,0.0,0.0,0.0,0.0,0.0,0.0,0.0,0.0,0.0,0.0,0.0,0.0,0.0,0.0,0.0,15.0,0.0,0.0,30.2,2.3,0.0,2.3,34.5,0.0,0.0,36.2,0.0,0.0,-0.5,1.3,0.5,0.0,0.0,0.0,0.0,60.8,62.6,60.8,62.6,60.8,62.6,60.8,62.6,0.0,0.0,-19.0,+0.0,0.0,34.5,-7.0,4.998,0.0,0.0,0.654,0.79,0.0,14.8,0.0,0.0,0.0,0,0.0,0.0,0.0011527777777777777,341.6,True,2026-02-14 00:03:49 - Flight 2
88.06,2,9,2026-02-14 00:05:16,37.08153,-121.59962,345.0,0.0,248.3,-12.6,0.0,0,0.0,0.0,0.0,11.1,-1.3,51.6,0.0,101.0,0.0,-0.02,1.0,0.0,-12.0,17.0,0.0,30.11,358.0,0.0,0.0,326.0,0.0,0.0,0.0,0.0,0.0,0.0,0.0,0.0,0.0,0.0,0.0,0.0,0.0,0.0,0.0,0.0,0.0,0.0,0.0,0.0,0.0,0.0,0.0,0.0,0.0,15.0,0.0,0.0,30.2,2.0,0.0,2.0,33.6,0.0,0.0,36.2,0.0,0.0,-0.6,1.3,0.5,0.0,0.0,0.0,0.0,60.8,62.6,60.8,62.6,60.8,62.6,60.8,62.6,0.0,0.0,-19.0,+0.0,0.0,33.6,-7.0,4.998,0.0,0.0,0.654,0.79,0.0,14.8,0.0,0.0,0.0,0,0.0,0.0,0.0017499999999999998,341.6,True,2026-02-14 00:03:49 - Flight 2
89.06,2,9,2026-02-14 00:05:17,37.08153,-121.59962,346.0,0.0,248.3,-12.6,0.0,0,0.0,0.0,0.0,11.1,-1.3,51.7,0.0,101.0,0.0,-0.02,1.0,0.0,-14.0,17.0,0.0,30.11,358.0,0.0,0.0,326.0,0.0,0.0,0.0,0.0,0.0,0.0,0.0,0.0,0.0,0.0,0.0,0.0,0.0,0.0,0.0,0.0,0.0,0.0,0.0,0.0,0.0,0.0,0.0,0.0,0.0,15.0,0.0,0.0,30.2,2.0,0.0,2.0,33.3,0.0,0.0,36.2,0.0,0.0,-0.6,1.3,0.5,0.0,0.0,0.0,0.0,60.8,62.6,60.8,62.6,60.8,62.6,60.8,62.6,0.0,0.0,-19.0,+0.0,0.0,33.3,-7.0,4.998,0.0,0.0,0.654,0.791,0.0,14.8,0.0,0.0,0.0,0,0.0,0.0,0.0023055555555555555,341.6,True,2026-02-14 00:03:49 - Flight 2
90.06,2,9,2026-02-14 00:05:18,37.08153,-121.59962,347.0,0.0,248.3,-12.6,0.0,0,0.0,0.0,0.0,11.1,-1.2,51.6,0.0,101.0,0.0,-0.02,1.0,0.0,-11.0,17.0,0.0,30.11,358.0,0.0,0.0,326.0,0.0,0.0,0.0,0.0,0.0,0.0,0.0,0.0,0.0,0.0,0.0,0.0,0.0,0.0,0.0,0.0,0.0,0.0,0.0,0.0,0.0,0.0,0.0,0.0,0.0,15.0,0.0,0.0,30.2,2.0,0.0,2.0,33.0,0.0,0.0,36.2,0.0,0.0,-0.6,1.3,0.5,0.0,0.0,0.0,0.0,60.8,62.6,60.8,62.6,60.8,62.6,60.8,62.6,0.0,0.0,-19.0,+0.0,0.0,33.0,-7.0,4.998,0.0,0.0,0.654,0.791,0.0,14.8,0.0,0.0,0.0,0,0.0,0.0,0.002861111111111111,341.6,True,2026-02-14 00:03:49 - Flight 2
91.06,2,9,2026-02-14 00:05:19,37.08154,-121.59962,354.0,0.0,248.3,-12.6,0.0,0,0.0,0.0,0.0,11.1,-1.2,51.6,0.0,100.0,-0.0,-0.02,1.0,0.0,-27.0,17.0,0.0,30.11,358.0,0.0,0.0,326.0,0.0,0.0,0.0,0.0,0.0,0.0,0.0,0.0,0.0,0.0,0.0,0.0,0.0,0.0,0.0,0.0,0.0,0.0,0.0,0.0,0.0,0.0,0.0,0.0,0.0,15.0,0.0,0.0,30.2,0.0,0.0,0.0,32.8,0.0,0.0,36.2,0.0,0.0,-0.6,1.3,0.5,0.0,0.0,0.0,0.0,60.8,62.6,60.8,62.6,60.8,62.6,60.8,62.6,0.0,0.0,-19.0,+0.0,0.0,32.8,-7.0,4.998,0.0,0.0,0.654,0.791,0.0,14.8,0.0,0.0,0.0,0,0.0,0.0,0.003138888888888889,341.6,True,2026-02-14 00:03:49 - Flight 2
92.06,2,9,2026-02-14 00:05:20,37.08154,-121.59962,355.0,0.0,248.3,-12.6,0.0,0,0.0,0.0,0.0,11.1,-1.3,51.7,0.0,100.0,0.0,-0.02,1.0,0.0,-18.0,17.0,0.0,30.11,357.0,0.0,0.0,326.0,0.0,0.0,0.0,0.0,0.0,0.0,0.0,0.0,0.0,0.0,0.0,0.0,0.0,0.0,0.0,0.0,0.0,0.0,0.0,0.0,0.0,0.0,0.0,0.0,0.0,15.0,0.0,0.0,30.2,0.0,0.0,0.0,32.6,0.0,0.0,36.2,0.0,0.0,-0.7,1.3,0.5,0.0,0.0,0.0,0.0,60.8,62.6,60.8,62.6,60.8,62.6,60.8,62.6,0.0,0.0,-19.0,+0.0,0.0,32.6,-7.0,4.998,0.0,0.0,0.656,0.79,0.0,14.8,0.0,0.0,0.0,0,0.0,0.0,0.003138888888888889,341.6,True,2026-02-14 00:03:49 - Flight 2
93.06,2,9,2026-02-14 00:05:21,37.08154,-121.59962,356.0,0.1,248.3,-12.6,0.0,0,0.0,0.0,0.0,11.1,-1.3,51.6,0.0,100.0,-0.0,-0.02,1.0,0.0,10.0,17.0,0.0,30.11,357.0,0.0,0.0,326.0,0.0,0.0,0.0,0.0,0.0,0.0,0.0,0.0,0.0,0.0,0.0,0.0,0.0,0.0,0.0,0.0,0.0,0.0,0.0,0.0,0.0,0.0,0.0,0.0,0.0,15.0,0.0,0.0,30.2,0.0,0.0,0.0,32.4,0.0,0.0,36.2,0.0,0.0,-0.7,1.3,0.5,0.0,0.0,0.0,0.0,60.8,62.6,60.8,62.6,60.8,62.6,60.8,62.6,0.0,0.0,-19.0,+0.0,0.0,32.4,-7.0,4.998,0.0,0.0,0.656,0.791,0.0,14.8,0.0,0.0,0.0,0,0.0,0.0,0.003138888888888889,341.6,True,2026-02-14 00:03:49 - Flight 2
94.06,2,9,2026-02-14 00:05:22,37.08154,-121.59962,359.0,0.1,248.3,-12.6,0.0,0,0.0,0.0,0.0,11.1,-1.3,51.7,0.0,100.0,0.0,-0.02,1.0,0.0,32.0,17.0,0.0,30.11,357.0,0.0,0.0,326.0,0.0,0.0,0.0,0.0,0.0,0.0,0.0,0.0,0.0,0.0,0.0,0.0,0.0,0.0,0.0,0.0,0.0,0.0,0.0,0.0,0.0,0.0,0.0,0.0,0.0,15.0,0.0,0.0,30.2,0.0,0.0,0.0,32.3,0.0,0.0,36.2,0.0,0.0,-0.7,1.3,0.5,0.0,0.0,0.0,0.0,60.8,62.6,60.8,62.6,60.8,62.6,60.8,62.6,0.0,0.0,-19.0,+0.0,0.0,32.3,-7.0,4.998,0.0,0.0,0.656,0.791,0.0,14.8,0.0,0.0,0.0,0,0.0,0.0,0.003138888888888889,341.6,True,2026-02-14 00:03:49 - Flight 2
95.06,2,9,2026-02-14 00:05:23,37.08155,-121.59962,360.0,0.0,248.3,-12.6,0.0,0,0.0,0.0,0.0,11.1,-1.3,51.7,0.0,100.0,0.0,-0.02,1.0,0.0,39.0,17.0,0.0,30.11,357.0,0.0,0.0,326.0,0.0,0.0,0.0,0.0,0.0,0.0,0.0,0.0,0.0,0.0,0.0,0.0,0.0,0.0,0.0,0.0,0.0,0.0,0.0,0.0,0.0,0.0,0.0,0.0,0.0,15.0,0.0,0.0,30.2,0.0,0.0,0.0,32.1,0.0,0.0,36.2,0.0,0.0,-0.7,1.3,0.5,0.0,0.0,0.0,0.0,60.8,62.6,60.8,62.6,60.8,62.6,60.8,62.6,0.0,0.0,-19.0,+0.0,0.0,32.1,-7.0,4.998,0.0,0.0,0.656,0.791,0.0,14.8,0.0,0.0,0.0,0,0.0,0.0,0.003138888888888889,341.6,True,2026-02-14 00:03:49 - Flight 2
96.06,2,9,2026-02-14 00:05:24,37.08155,-121.59962,361.0,0.0,248.3,-12.6,0.0,0,0.0,0.0,0.0,11.1,-1.2,51.7,0.0,100.0,0.0,-0.02,1.0,0.0,46.0,17.0,0.0,30.11,357.0,0.0,0.0,326.0,0.0,0.0,0.0,0.0,0.0,0.0,0.0,0.0,0.0,0.0,0.0,0.0,0.0,0.0,0.0,0.0,0.0,0.0,0.0,0.0,0.0,0.0,0.0,0.0,0.0,15.0,0.0,0.0,30.2,0.0,0.0,0.0,32.0,0.0,0.0,36.2,0.0,0.0,-0.7,1.3,0.5,0.0,0.0,0.0,0.0,60.8,62.6,60.8,62.6,60.8,62.6,60.8,62.6,0.0,0.0,-19.0,+0.0,0.0,32.0,-7.0,4.998,0.0,0.0,0.656,0.791,0.0,14.8,0.0,0.0,0.0,0,0.0,0.0,0.003138888888888889,341.6,True,2026-02-14 00:03:49 - Flight 2
97.06,2,9,2026-02-14 00:05:25,37.08155,-121.59962,361.0,0.0,248.3,-12.6,0.0,0,0.0,0.0,0.0,11.1,-1.3,51.6,0.0,100.0,0.0,-0.02,1.0,0.0,39.0,17.0,0.0,30.11,357.0,0.0,0.0,326.0,0.0,0.0,0.0,0.0,0.0,0.0,0.0,0.0,0.0,0.0,0.0,0.0,0.0,0.0,0.0,0.0,0.0,0.0,0.0,0.0,0.0,0.0,0.0,0.0,0.0,15.0,0.0,0.0,30.2,0.0,0.0,0.0,31.8,0.0,0.0,36.2,0.0,0.0,-0.7,1.3,0.5,0.0,0.0,0.0,0.0,60.8,62.6,60.8,62.6,60.8,62.6,60.8,62.6,0.0,0.0,-20.0,+0.0,0.0,31.8,-7.0,4.998,0.0,0.0,0.656,0.791,0.0,14.8,0.0,0.0,0.0,0,0.0,0.0,0.003138888888888889,341.6,True,2026-02-14 00:03:49 - Flight 2
98.06,2,9,2026-02-14 00:05:26,37.08155,-121.59962,361.0,0.0,248.3,-12.6,0.0,0,0.0,0.0,0.0,11.1,-1.3,51.6,0.0,100.0,-0.0,-0.02,1.0,0.0,26.0,17.0,0.0,30.11,357.0,0.0,0.0,326.0,0.0,0.0,0.0,0.0,0.0,0.0,0.0,0.0,0.0,0.0,0.0,0.0,0.0,0.0,0.0,0.0,0.0,0.0,0.0,0.0,0.0,0.0,0.0,0.0,0.0,15.0,0.0,0.0,30.2,0.0,0.0,0.0,31.7,0.0,0.0,36.2,0.0,0.0,-0.7,1.3,0.5,0.0,0.0,0.0,0.0,60.8,62.6,60.8,62.6,60.8,62.6,60.8,62.6,0.0,0.0,-19.0,+0.0,0.0,31.7,-7.0,4.998,0.0,0.0,0.656,0.791,0.0,14.8,0.0,0.0,0.0,0,0.0,0.0,0.003138888888888889,341.6,True,2026-02-14 00:03:49 - Flight 2
99.06,1,9,2026-02-14 00:05:27,37.08155,-121.59962,357.0,0.0,248.3,-12.6,0.0,0,0.0,0.0,0.0,11.1,-1.3,51.6,0.0,100.0,-0.0,-0.02,1.0,0.0,35.0,17.0,0.0,30.11,357.0,0.0,0.0,326.0,0.0,0.0,0.0,0.0,0.0,0.0,0.0,0.0,0.0,0.0,0.0,0.0,0.0,0.0,0.0,0.0,0.0,0.0,0.0,0.0,0.0,0.0,0.0,0.0,0.0,15.0,0.0,0.0,30.2,0.0,0.0,0.0,31.6,0.0,0.0,36.2,0.0,0.0,-0.7,1.3,0.5,0.0,0.0,0.0,0.0,60.8,62.6,60.8,62.6,60.8,62.6,60.8,62.6,0.0,0.0,-19.0,+0.0,0.0,31.6,-7.0,4.998,0.0,0.0,0.656,0.791,0.0,14.8,0.0,0.0,0.0,0,0.0,0.0,0.003138888888888889,341.6,True,2026-02-14 00:03:49 - Flight 2
100.06,1,9,2026-02-14 00:05:28,37.08155,-121.59962,360.0,0.0,248.3,-12.6,0.0,0,0.0,0.0,0.0,11.1,-1.3,51.6,0.0,100.0,-0.0,-0.02,1.0,0.0,38.0,17.0,0.0,30.11,357.0,0.0,0.0,326.0,0.0,0.0,0.0,0.0,0.0,0.0,0.0,0.0,0.0,0.0,0.0,0.0,0.0,0.0,0.0,0.0,0.0,0.0,0.0,0.0,0.0,0.0,0.0,0.0,0.0,15.0,0.0,0.0,30.2,0.0,0.0,0.0,31.4,0.0,0.0,36.2,0.0,0.0,-0.7,1.3,0.5,0.0,0.0,0.0,0.0,60.8,62.6,60.8,62.6,60.8,62.6,60.8,62.6,0.0,0.0,-19.0,+0.0,0.0,31.4,-7.0,4.998,0.0,0.0,0.656,0.791,0.0,14.8,0.0,0.0,0.0,0,0.0,0.0,0.003138888888888889,341.6,True,2026-02-14 00:03:49 - Flight 2
101.06,1,9,2026-02-14 00:05:29,37.08155,-121.59962,359.0,0.0,248.3,-12.6,0.0,0,0.0,0.0,0.0,11.1,-1.2,51.6,0.0,100.0,-0.0,-0.02,1.0,0.0,52.0,17.0,0.0,30.11,357.0,0.0,0.0,326.0,0.0,0.0,0.0,0.0,0.0,0.0,0.0,0.0,0.0,0.0,0.0,0.0,0.0,0.0,0.0,0.0,0.0,0.0,0.0,0.0,0.0,0.0,0.0,0.0,0.0,15.0,0.0,0.0,30.2,0.0,0.0,0.0,31.3,0.0,0.0,36.2,0.0,0.0,-0.7,1.3,0.5,0.0,0.0,0.0,0.0,60.8,62.6,60.8,62.6,60.8,62.6,60.8,62.6,0.0,0.0,-20.0,+0.0,0.0,31.3,-7.0,4.998,0.0,0.0,0.656,0.791,0.0,14.8,0.0,0.0,0.0,0,0.0,0.0,0.003138888888888889,341.6,True,2026-02-14 00:03:49 - Flight 2
102.06,1,9,2026-02-14 00:05:30,37.08155,-121.59962,359.0,0.0,248.3,-12.6,0.0,0,0.0,0.0,0.0,11.1,-1.3,51.6,0.0,100.0,-0.0,-0.02,1.0,0.0,17.0,17.0,0.0,30.11,357.0,0.0,0.0,326.0,0.0,0.0,0.0,0.0,0.0,0.0,0.0,0.0,0.0,0.0,0.0,0.0,0.0,0.0,0.0,0.0,0.0,0.0,0.0,0.0,0.0,0.0,0.0,0.0,0.0,15.0,0.0,0.0,30.2,0.0,0.0,0.0,31.2,0.0,0.0,36.2,0.0,0.0,-0.7,1.3,0.5,0.0,0.0,0.0,0.0,60.8,62.6,60.8,62.6,60.8,62.6,60.8,62.6,0.0,0.0,-20.0,+0.0,0.0,31.2,-7.0,4.998,0.0,0.0,0.656,0.791,0.0,14.8,0.0,0.0,0.0,0,0.0,0.0,0.003138888888888889,341.6,True,2026-02-14 00:03:49 - Flight 2
103.06,1,9,2026-02-14 00:05:31,37.08155,-121.59962,358.0,0.1,248.3,-12.6,0.0,0,0.0,0.0,0.0,11.2,-1.2,51.6,0.0,100.0,-0.0,-0.02,1.0,0.0,41.0,17.0,0.0,30.11,357.0,0.0,0.0,326.0,0.0,0.0,0.0,0.0,0.0,0.0,0.0,0.0,0.0,0.0,0.0,0.0,0.0,0.0,0.0,0.0,0.0,0.0,0.0,0.0,0.0,0.0,0.0,0.0,0.0,15.0,0.0,0.0,30.2,0.0,0.0,0.0,31.0,0.0,0.0,36.2,0.0,0.0,-0.7,1.3,0.5,0.0,0.0,0.0,0.0,60.8,62.6,60.8,62.6,60.8,62.6,60.8,62.6,0.0,0.0,-20.0,+0.0,0.0,31.0,-7.0,4.998,0.0,0.0,0.656,0.791,0.0,14.8,0.0,0.0,0.0,0,0.0,0.0,0.003138888888888889,341.6,True,2026-02-14 00:03:49 - Flight 2
104.06,1,9,2026-02-14 00:05:32,37.08155,-121.59962,358.0,0.0,248.3,-12.6,0.0,0,0.0,0.0,0.0,11.1,-1.2,51.6,0.0,100.0,-0.0,-0.02,1.0,0.0,55.0,17.0,0.0,30.11,358.0,0.0,0.0,326.0,0.0,0.0,0.0,0.0,0.0,0.0,0.0,0.0,0.0,0.0,0.0,0.0,0.0,0.0,0.0,0.0,0.0,0.0,0.0,0.0,0.0,0.0,0.0,0.0,0.0,15.0,0.0,0.0,30.2,0.0,0.0,0.0,30.9,0.0,0.0,36.2,0.0,0.0,-0.7,1.3,0.5,0.0,0.0,0.0,0.0,60.8,62.6,60.8,62.6,60.8,62.6,60.8,62.6,0.0,0.0,-19.0,+0.0,0.0,30.9,-7.0,4.998,0.0,0.0,0.656,0.791,0.0,14.8,0.0,0.0,0.0,0,0.0,0.0,0.003138888888888889,341.6,True,2026-02-14 00:03:49 - Flight 2
105.06,1,9,2026-02-14 00:05:33,37.08155,-121.59962,357.0,0.0,248.3,-12.6,0.0,0,0.0,0.0,0.0,11.2,-1.2,51.6,0.0,102.0,0.0,-0.02,1.0,0.0,83.0,17.0,0.0,30.11,360.0,0.0,0.0,326.0,0.0,0.0,0.0,0.0,0.0,0.0,0.0,0.0,0.0,0.0,0.0,0.0,0.0,0.0,0.0,0.0,0.0,0.0,0.0,0.0,0.0,0.0,0.0,0.0,0.0,15.0,0.0,0.0,30.2,0.0,0.0,0.0,30.8,0.0,0.0,36.2,0.0,0.0,-0.7,1.3,0.5,0.0,0.0,0.0,0.0,60.8,62.6,60.8,62.6,60.8,62.6,60.8,62.6,0.0,0.0,-19.0,+0.0,0.0,30.8,-7.0,4.998,0.0,0.0,0.656,0.791,0.0,14.8,0.0,0.0,0.0,0,0.0,0.0,0.003138888888888889,341.6,True,2026-02-14 00:03:49 - Flight 2
106.06,1,9,2026-02-14 00:05:34,37.08155,-121.59962,357.0,0.0,248.3,-12.6,0.0,0,0.0,0.0,0.0,11.2,-1.3,51.6,0.0,102.0,-0.0,-0.02,1.0,0.0,63.0,17.0,0.0,30.11,360.0,0.0,0.0,326.0,0.0,0.0,0.0,0.0,0.0,0.0,0.0,0.0,0.0,0.0,0.0,0.0,0.0,0.0,0.0,0.0,0.0,0.0,0.0,0.0,0.0,0.0,0.0,0.0,0.0,15.0,0.0,0.0,30.2,0.0,0.0,0.0,30.7,0.0,0.0,36.2,0.0,0.0,-0.7,1.3,0.5,0.0,0.0,0.0,0.0,60.8,62.6,60.8,62.6,60.8,62.6,60.8,62.6,0.0,0.0,-19.0,+0.0,0.0,30.7,-7.0,4.998,0.0,0.0,0.656,0.791,0.0,14.8,0.0,0.0,0.0,0,0.0,0.0,0.003138888888888889,341.6,True,2026-02-14 00:03:49 - Flight 2
107.06,1,9,2026-02-14 00:05:35,37.08155,-121.59962,354.0,0.2,248.3,-12.6,0.0,0,0.0,0.0,0.0,11.1,-1.2,51.6,0.0,103.0,-0.0,-0.02,1.0,0.0,50.0,17.0,0.0,30.11,360.0,0.0,0.0,326.0,0.0,0.0,0.0,0.0,0.0,0.0,0.0,0.0,0.0,0.0,0.0,0.0,0.0,0.0,0.0,0.0,0.0,0.0,0.0,0.0,0.0,0.0,0.0,0.0,0.0,15.0,0.0,0.0,30.2,0.0,0.0,0.0,30.6,0.0,0.0,36.2,0.0,0.0,-0.7,1.3,0.5,0.0,0.0,0.0,0.0,60.8,62.6,60.8,62.6,60.8,62.6,60.8,62.6,0.0,0.0,-18.0,+0.0,0.0,30.6,-7.0,4.998,0.0,0.0,0.656,0.791,0.0,14.8,0.0,0.0,0.0,0,0.0,0.0,0.003138888888888889,341.6,True,2026-02-14 00:03:49 - Flight 2
