Session Time,GPS Fix Quality,Number of Satellites,GPS Date & Time,Latitude (deg),Longitude (deg),GPS Altitude (feet),Ground Speed (knots),Ground Track (deg),Mag Var (deg),Cross Track Error (NM),Destination Waypoint ID,Range to Destination (NM),Bearing to Destination (deg),System Time,Pitch (deg),Roll (deg),Magnetic Heading (deg),Indicated Airspeed (knots),Pressure Altitude (ft),Turn Rate (deg/s),Lateral Accel (g),Vertical Accel(g),Angle of Attack (%),Vertical Speed (ft/min),OAT (deg C),True Airspeed (knots),Barometer Setting (inHg),Density Altitude (ft),Wind Direction (deg),Wind Speed (knots),Heading Bug (deg),Altitude Bug (ft),Airspeed Bug (knots),Vertical Speed Bug (ft/min),Course (deg),CDI Source Type,CDI Source Port,CDI Scale (NM),CDI Deflection (%),Glideslope (%),AP Engaged,AP Roll Mode,AP Roll Force,AP Roll Position (steps),AP Roll Slip (bool),AP Pitch Force,AP Pitch Position (steps),AP Pitch Slip (bool),AP Yaw Force,AP Yaw Position,AP Yaw Slip (bool),Transponder Status,Transponder Reply (bool),Transponder Identing (bool),Transponder Code (octal),Oil Pressure (PSI),Oil Temp (deg C),RPM L,RPM R,Manifold Pressure (inHg),Fuel Flow 1 (gal/hr),Fuel Flow 2 (gal/hr),Total Fuel Flow (gal/hr),Fuel Pressure (PSI),Fuel Level L (gal),Fuel Level R (gal),Fuel Remaining (gal),Volts 1,Volts 2,Amps,Hobbs Time,Tach Time,Thermocouple 1 (deg C),Thermocouple 2 (deg C),Thermocouple 3 (deg C),Thermocouple 4 (deg C),CHT 4 (deg C),EGT 4 (deg C),CHT 3 (deg C),EGT 3 (deg C),CHT 2 (deg C),EGT 2 (deg C),CHT 1 (deg C),EGT 1 (deg C),Thermocouple 13 (deg C),Thermocouple 14 (deg C),ELEV POSITION (%),CO PPM PRESSURE (PSI),GP Input 3,FUEL PRESSURE (PSI),AILERN POSITION (%),CANOPY CONTACT (V),GP Input 7,GP Input 8,LEFT LEVEL (Sensor V),RIGHT LEVEL (Sensor V),OIL PRESSURE (PSI),OIL TEMPERATURE (deg C),GP Input 13,Contacts,Percent Power,EGT Leaning State,Unnamed: 103,OAT (deg F),Oil Temp (deg F),Thermocouple 1 (deg F),Thermocouple 2 (deg F),Thermocouple 3 (deg F),Thermocouple 4 (deg F),CHT 4 (deg F),EGT 4 (deg F),CHT 3 (deg F),EGT 3 (deg F),CHT 2 (deg F),EGT 2 (deg F),CHT 1 (deg F),EGT 1 (deg F),Thermocouple 13 (deg F),Thermocouple 14 (deg F),OIL TEMPERATURE (deg F),RPM,AVG_CHT,CHT_Delta_T,OIL_Delta_T,Fuel Flow Integral,Distance Traveled,MPG,Max CHT,Engine Run,Flight ID
7.06,0,0,2026-04-14 00:49:08,37.05893,-120.86827,,0.1,169.1,-17.0,,,,,0.0,10.7,-0.7,10.0,0.0,20.0,0.1,-0.01,1.0,99.0,-31.0,24,0.0,30.08,1054.0,,,82.0,,,,,0.0,0.0,,,,,,,,,,,,,,,,,,,0.0,78.0,0.0,0.0,30.3,0.0,,0.0,2.8,,,13.0,0.0,0.0,-0.0,10.4,8.4,,,,,118.0,93.0,120.0,91.0,118.0,96.0,116.0,87.0,,,7.0,254.5,,2.8,4.0,4.998,,,0.653,0.869,+0.0,77.8,,,,,,75.2,172.4,,,,,244.4,199.4,248.0,195.8,244.4,204.8,240.8,188.6,,,172.04,0.0,244.4,169.2,97.2,0.0,0.0,0.0,381.2,True,2026-04-14 00:49:08
8.06,1,6,2026-04-14 00:49:09,37.05902,-120.86833,123.0,0.0,169.1,-12.5,,,,,0.0,10.7,-0.7,10.0,0.0,20.0,0.1,-0.01,1.0,99.0,-24.0,24,0.0,30.08,1054.0,,,82.0,,,,,0.0,0.0,,,,,,,,,,,,,,,,,,,0.0,78.0,0.0,0.0,30.3,0.0,,0.0,2.8,,,13.0,0.0,0.0,-0.0,10.4,8.4,,,,,118.0,93.0,120.0,92.0,118.0,97.0,116.0,87.0,,,7.0,254.5,,2.8,4.0,4.998,,,0.653,0.869,+0.0,77.8,,,,,,75.2,172.4,,,,,244.4,199.4,248.0,197.6,244.4,206.6,240.8,188.6,,,172.04,0.0,244.4,169.2,97.2,0.0,0.0843333333333334,0.0,381.2,True,2026-04-14 00:49:08
9.06,1,7,2026-04-14 00:49:10,37.059,-120.86833,109.0,0.0,169.1,-12.5,,,,,0.0,10.7,-0.7,9.9,0.0,19.0,0.1,-0.01,1.0,99.0,-37.0,24,0.0,30.08,1054.0,,,82.0,,,,,0.0,0.0,,,,,,,,,,,,,,,,,,,0.0,78.0,0.0,0.0,30.3,0.0,,0.0,2.8,,,13.0,0.0,0.0,-0.0,10.4,8.4,,,,,118.0,93.0,120.0,92.0,118.0,97.0,116.0,87.0,,,7.0,254.5,,2.8,4.0,4.998,,,0.653,0.87,+0.0,77.8,,,,,,75.2,172.4,,,,,244.4,199.4,248.0,197.6,244.4,206.6,240.8,188.6,,,172.04,0.0,244.4,169.2,97.2,0.0,0.0843333333333334,0.0,381.2,True,2026-04-14 00:49:08
10.06,1,7,2026-04-14 00:49:11,37.059,-120.86832,107.0,0.0,169.1,-12.5,,,,,0.0,10.7,-0.8,9.9,0.0,19.0,0.1,-0.01,1.0,99.0,-12.0,24,0.0,30.08,1061.0,,,82.0,,,,,0.0,0.0,,,,,,,,,,,,,,,,,,,0.0,78.0,0.0,0.0,30.3,0.0,,0.0,2.8,,,13.0,0.0,0.0,-0.0,10.4,8.4,,,,,118.0,93.0,120.0,92.0,118.0,97.0,116.0,87.0,,,7.0,254.5,,2.8,4.0,4.998,,,0.653,0.872,+0.0,77.8,,,,,,75.2,172.4,,,,,244.4,199.4,248.0,197.6,244.4,206.6,240.8,188.6,,,172.04,0.0,244.4,169.2,97.2,0.0,0.0843333333333334,0.0,381.2,True,2026-04-14 00:49:08
11.06,1,7,2026-04-14 00:49:12,37.059,-120.86832,106.0,0.0,169.1,-12.5,,,,,0.0,10.7,-0.8,10.0,0.0,18.0,0.2,-0.01,1.0,99.0,-37.0,24,0.0,30.08,1061.0,,,82.0,,,,,0.0,0.0,,,,,,,,,,,,,,,,,,,0.0,78.0,0.0,0.0,30.3,0.0,,0.0,2.8,,,13.0,0.0,0.0,-0.0,10.4,8.4,,,,,118.0,93.0,120.0,92.0,117.0,97.0,116.0,87.0,,,7.0,254.4,,2.8,4.0,4.998,,,0.653,0.872,+0.0,77.8,,,,,,75.2,172.4,,,,,244.4,199.4,248.0,197.6,242.6,206.6,240.8,188.6,,,172.04,0.0,243.95,168.75,97.2,0.0,0.0843333333333334,0.0,381.2,True,2026-04-14 00:49:08
12.06,1,7,2026-04-14 00:49:13,37.059,-120.86832,105.0,0.0,169.1,-12.5,,,,,0.0,10.7,-0.7,10.0,0.0,17.0,0.1,-0.01,1.0,99.0,-16.0,24,0.0,30.08,1061.0,,,82.0,,,,,0.0,0.0,,,,,,,,,,,,,,,,,,,0.0,78.0,0.0,0.0,30.3,0.0,,0.0,2.8,,,13.0,0.0,0.0,-0.0,10.4,8.4,,,,,118.0,93.0,120.0,92.0,117.0,97.0,116.0,87.0,,,7.0,254.4,,2.8,4.0,4.998,,,0.653,0.873,+0.0,77.8,,,,,,75.2,172.4,,,,,244.4,199.4,248.0,197.6,242.6,206.6,240.8,188.6,,,172.04,0.0,243.95,168.75,97.2,0.0,0.0843333333333334,0.0,381.2,True,2026-04-14 00:49:08
13.06,1,7,2026-04-14 00:49:14,37.059,-120.86832,105.0,0.0,169.1,-12.5,,,,,0.0,10.6,-0.8,10.0,0.0,17.0,0.1,-0.01,1.0,99.0,-22.0,24,0.0,30.08,1059.0,,,82.0,,,,,0.0,0.0,,,,,,,,,,,,,,,,,,,0.0,78.0,0.0,0.0,30.3,0.0,,0.0,2.8,,,13.0,0.0,0.0,-0.0,10.4,8.4,,,,,117.0,93.0,120.0,92.0,117.0,97.0,116.0,87.0,,,7.0,254.4,,2.8,4.0,4.998,,,0.653,0.874,+0.0,77.8,,,,,,75.2,172.4,,,,,242.6,199.4,248.0,197.6,242.6,206.6,240.8,188.6,,,172.04,0.0,243.5,168.3,97.2,0.0,0.0843333333333334,0.0,381.2,True,2026-04-14 00:49:08
14.06,1,7,2026-04-14 00:49:15,37.059,-120.86832,105.0,0.0,169.1,-12.5,,,,,0.0,10.7,-0.7,10.1,0.0,17.0,0.2,-0.01,1.0,99.0,-15.0,24,0.0,30.08,1059.0,,,82.0,,,,,0.0,0.0,,,,,,,,,,,,,,,,,,,0.0,78.0,0.0,0.0,30.3,0.0,,0.0,2.8,,,13.0,0.0,0.0,-0.0,10.4,8.4,,,,,117.0,93.0,120.0,92.0,117.0,97.0,116.0,87.0,,,7.0,254.4,,2.8,4.0,4.998,,,0.653,0.874,+0.0,77.8,,,,,,75.2,172.4,,,,,242.6,199.4,248.0,197.6,242.6,206.6,240.8,188.6,,,172.04,0.0,243.5,168.3,97.2,0.0,0.0843333333333334,0.0,381.2,True,2026-04-14 00:49:08
15.06,1,7,2026-04-14 00:49:16,37.059,-120.86832,104.0,0.0,169.1,-12.5,,,,,0.0,10.7,-0.7,10.1,0.0,16.0,0.2,-0.01,1.0,99.0,-52.0,24,0.0,30.08,1059.0,,,82.0,,,,,0.0,0.0,,,,,,,,,,,,,,,,,,,0.0,78.0,0.0,0.0,30.3,0.0,,0.0,2.8,,,13.0,0.0,0.0,-0.0,10.4,8.4,,,,,117.0,93.0,120.0,92.0,117.0,97.0,116.0,87.0,,,7.0,254.4,,2.8,4.0,4.998,,,0.653,0.874,+0.0,77.8,,,,,,75.2,172.4,,,,,242.6,199.4,248.0,197.6,242.6,206.6,240.8,188.6,,,172.04,0.0,243.5,168.3,97.2,0.0,0.0843333333333334,0.0,381.2,True,2026-04-14 00:49:08
16.06,1,7,2026-04-14 00:49:17,37.059,-120.86832,104.0,0.0,169.1,-12.5,,,,,0.0,10.7,-0.7,10.1,0.0,14.0,0.1,-0.01,1.0,99.0,-80.0,24,0.0,30.08,1057.0,,,82.0,,,,,0.0,0.0,,,,,,,,,,,,,,,,,,,0.0,78.0,0.0,0.0,30.3,0.0,,0.0,2.8,,,13.0,0.0,0.0,-0.0,10.4,8.4,,,,,118.0,93.0,120.0,92.0,117.0,97.0,116.0,87.0,,,7.0,254.4,,2.8,4.0,4.998,,,0.653,0.876,+0.0,77.8,,,,,,75.2,172.4,,,,,244.4,199.4,248.0,197.6,242.6,206.6,240.8,188.6,,,172.04,0.0,243.95,168.75,97.2,0.0,0.0843333333333334,0.0,381.2,True,2026-04-14 00:49:08
17.06,1,8,2026-04-14 00:49:18,37.05896,-120.86835,123.0,0.0,169.1,-12.5,,,,,0.0,10.7,-0.7,10.1,0.0,11.0,0.1,-0.01,1.0,99.0,-117.0,24,0.0,30.08,1057.0,,,82.0,,,,,0.0,0.0,,,,,,,,,,,,,,,,,,,0.0,78.0,0.0,0.0,30.3,0.0,,0.0,2.8,,,13.0,0.0,0.0,-0.0,10.4,8.4,,,,,118.0,93.0,120.0,92.0,117.0,97.0,116.0,87.0,,,7.0,254.4,,2.8,4.0,4.998,,,0.653,0.878,+0.0,77.8,,,,,,75.2,172.4,,,,,244.4,199.4,248.0,197.6,242.6,206.6,240.8,188.6,,,172.04,0.0,243.95,168.75,97.2,0.0,0.0843333333333334,0.0,381.2,True,2026-04-14 00:49:08
18.06,1,8,2026-04-14 00:49:19,37.05898,-120.86833,113.0,0.0,169.1,-12.5,,,,,0.0,10.7,-0.7,10.1,0.0,10.0,0.1,-0.01,1.0,99.0,-83.0,24,0.0,30.08,1057.0,,,82.0,,,,,0.0,0.0,,,,,,,,,,,,,,,,,,,0.0,78.0,0.0,0.0,30.3,0.0,,0.0,2.8,,,13.0,0.0,0.0,-0.0,10.4,8.4,,,,,117.0,93.0,119.0,92.0,117.0,97.0,116.0,87.0,,,7.0,254.4,,2.8,4.0,4.998,,,0.653,0.879,+0.0,77.8,,,,,,75.2,172.4,,,,,242.6,199.4,246.2,197.6,242.6,206.6,240.8,188.6,,,172.04,0.0,243.04999999999998,167.84999999999997,97.2,0.0,0.0843333333333334,0.0,381.2,True,2026-04-14 00:49:08
19.06,1,8,2026-04-14 00:49:20,37.05898,-120.86833,113.0,0.1,169.1,-12.5,,,,,0.0,10.7,-0.7,10.1,0.0,8.0,0.1,-0.01,1.0,99.0,-105.0,24,0.0,30.08,1059.0,,,82.0,,,,,0.0,0.0,,,,,,,,,,,,,,,,,,,0.0,78.0,0.0,0.0,30.3,0.0,,0.0,2.8,,,13.0,0.0,0.0,-0.0,10.4,8.4,,,,,117.0,93.0,120.0,92.0,117.0,97.0,116.0,88.0,,,7.0,254.4,,2.8,4.0,4.998,,,0.653,0.883,+0.0,77.8,,,,,,75.2,172.4,,,,,242.6,199.4,248.0,197.6,242.6,206.6,240.8,190.4,,,172.04,0.0,243.5,168.3,97.2,0.0,0.16866666666666674,0.0,381.2,True,2026-04-14 00:49:08
20.06,1,8,2026-04-14 00:49:21,37.05898,-120.86833,114.0,0.0,169.1,-12.5,,,,,0.0,10.7,-0.7,10.0,0.0,5.0,0.1,-0.01,1.0,99.0,-138.0,24,0.0,30.08,1059.0,,,82.0,,,,,0.0,0.0,,,,,,,,,,,,,,,,,,,0.0,78.0,0.0,0.0,30.3,0.0,,0.0,2.8,,,13.0,0.0,0.0,-0.0,10.4,8.4,,,,,117.0,93.0,119.0,92.0,117.0,97.0,116.0,88.0,,,6.0,254.4,,2.8,4.0,4.998,,,0.653,0.886,+0.0,77.8,,,,,,75.2,172.4,,,,,242.6,199.4,246.2,197.6,242.6,206.6,240.8,190.4,,,172.04,0.0,243.04999999999998,167.84999999999997,97.2,0.0,0.25300000000000006,0.0,381.2,True,2026-04-14 00:49:08
21.06,1,8,2026-04-14 00:49:22,37.05898,-120.86833,114.0,0.0,169.1,-12.5,,,,,0.0,10.7,-0.7,10.0,0.0,2.0,0.1,-0.01,1.0,99.0,-139.0,24,0.0,30.08,1059.0,,,82.0,,,,,0.0,0.0,,,,,,,,,,,,,,,,,,,0.0,78.0,0.0,0.0,30.3,0.0,,0.0,2.8,,,13.0,0.0,0.0,-0.0,10.4,8.4,,,,,117.0,93.0,120.0,92.0,117.0,97.0,116.0,88.0,,,6.0,254.4,,2.8,4.0,4.998,,,0.653,0.887,+0.0,77.8,,,,,,75.2,172.4,,,,,242.6,199.4,248.0,197.6,242.6,206.6,240.8,190.4,,,172.04,0.0,243.5,168.3,97.2,0.0,0.25300000000000006,0.0,381.2,True,2026-04-14 00:49:08
22.06,1,8,2026-04-14 00:49:23,37.05898,-120.86833,115.0,0.0,169.1,-12.5,,,,,0.0,10.7,-0.7,10.0,0.0,0.0,0.1,-0.01,1.0,99.0,-131.0,24,0.0,30.08,1058.0,,,82.0,,,,,0.0,0.0,,,,,,,,,,,,,,,,,,,0.0,78.0,0.0,0.0,30.3,0.0,,0.0,2.8,,,13.0,0.0,0.0,-0.0,10.4,8.4,,,,,117.0,93.0,120.0,92.0,117.0,97.0,116.0,88.0,,,6.0,254.4,,2.8,4.0,4.998,,,0.653,0.898,+0.0,77.8,,,,,,75.2,172.4,,,,,242.6,199.4,248.0,197.6,242.6,206.6,240.8,190.4,,,172.04,0.0,243.5,168.3,97.2,0.0,0.25300000000000006,0.0,381.2,True,2026-04-14 00:49:08
23.06,1,8,2026-04-14 00:49:24,37.05898,-120.86833,116.0,0.0,169.1,-12.5,,,,,0.0,10.7,-0.7,10.0,0.0,-1.0,0.1,-0.01,1.0,99.0,-115.0,24,0.0,30.08,1057.0,,,82.0,,,,,0.0,0.0,,,,,,,,,,,,,,,,,,,0.0,78.0,0.0,0.0,30.3,0.0,,0.0,2.8,,,13.0,0.0,0.0,-0.0,10.4,8.4,,,,,117.0,93.0,119.0,92.0,117.0,97.0,116.0,88.0,,,6.0,254.4,,2.8,4.0,4.998,,,0.653,0.889,+0.0,77.8,,,,,,75.2,172.4,,,,,242.6,199.4,246.2,197.6,242.6,206.6,240.8,190.4,,,172.04,0.0,243.04999999999998,167.84999999999997,97.2,0.0,0.25300000000000006,0.0,381.2,True,2026-04-14 00:49:08
24.06,1,8,2026-04-14 00:49:25,37.05898,-120.86833,117.0,0.0,169.1,-12.5,,,,,0.0,10.7,-0.7,10.0,0.0,-2.0,0.1,-0.01,1.0,99.0,-92.0,24,0.0,30.08,1055.0,,,82.0,,,,,0.0,0.0,,,,,,,,,,,,,,,,,,,0.0,78.0,0.0,0.0,30.3,0.0,,0.0,2.8,,,13.0,0.0,0.0,-0.0,10.4,8.4,,,,,117.0,93.0,119.0,92.0,117.0,97.0,116.0,88.0,,,6.0,254.4,,2.8,4.0,4.998,,,0.653,0.881,+0.0,77.8,,,,,,75.2,172.4,,,,,242.6,199.4,246.2,197.6,242.6,206.6,240.8,190.4,,,172.04,0.0,243.04999999999998,167.84999999999997,97.2,0.0,0.25300000000000006,0.0,381.2,True,2026-04-14 00:49:08
25.06,1,8,2026-04-14 00:49:26,37.05898,-120.86834,118.0,0.0,169.1,-12.5,,,,,0.0,10.7,-0.8,10.0,0.0,-4.0,0.1,-0.01,1.0,99.0,-102.0,24,0.0,30.08,1053.0,,,82.0,,,,,0.0,0.0,,,,,,,,,,,,,,,,,,,0.0,78.0,0.0,0.0,30.3,0.0,,0.0,2.8,,,13.0,0.0,0.0,-0.0,10.4,8.4,,,,,117.0,93.0,119.0,92.0,117.0,97.0,116.0,88.0,,,6.0,254.4,,2.8,4.0,4.998,,,0.653,0.876,+0.0,77.8,,,,,,75.2,172.4,,,,,242.6,199.4,246.2,197.6,242.6,206.6,240.8,190.4,,,172.04,0.0,243.04999999999998,167.84999999999997,97.2,0.0,0.25300000000000006,0.0,381.2,True,2026-04-14 00:49:08
26.06,1,8,2026-04-14 00:49:27,37.05898,-120.86834,118.0,0.0,169.1,-12.5,,,,,0.0,10.7,-0.7,10.0,0.0,-5.0,0.1,-0.01,1.0,99.0,-78.0,24,0.0,30.08,1052.0,,,82.0,,,,,0.0,0.0,,,,,,,,,,,,,,,,,,,0.0,78.0,0.0,0.0,30.3,0.0,,0.0,2.8,,,42.0,0.0,0.0,-0.0,10.4,8.4,,,,,117.0,93.0,119.0,92.0,117.0,97.0,116.0,88.0,,,6.0,254.4,,2.8,4.0,4.998,,,0.653,0.874,+0.0,77.8,,,,,,75.2,172.4,,,,,242.6,199.4,246.2,197.6,242.6,206.6,240.8,190.4,,,172.04,0.0,243.04999999999998,167.84999999999997,97.2,0.0,0.25300000000000006,0.0,381.2,True,2026-04-14 00:49:08
27.06,1,8,2026-04-14 00:49:28,37.05898,-120.86834,119.0,0.0,169.1,-12.5,,,,,0.0,10.8,-0.7,10.0,0.0,-7.0,0.1,-0.02,1.0,99.0,-112.0,24,0.0,30.08,1049.0,,,82.0,,,,,0.0,0.0,,,,,,,,,,,,,,,,,,,0.0,78.0,0.0,0.0,30.3,0.0,,0.0,2.8,,,42.0,0.0,0.0,-0.0,10.4,8.4,,,,,117.0,93.0,119.0,92.0,117.0,97.0,116.0,88.0,,,6.0,254.4,,2.8,4.0,4.998,,,0.653,0.87,+0.0,77.8,,,,,,75.2,172.4,,,,,242.6,199.4,246.2,197.6,242.6,206.6,240.8,190.4,,,172.04,0.0,243.04999999999998,167.84999999999997,97.2,0.0,0.25300000000000006,0.0,381.2,True,2026-04-14 00:49:08
28.06,1,8,2026-04-14 00:49:29,37.05898,-120.86834,120.0,0.0,169.1,-12.5,,,,,0.0,10.8,-0.7,10.0,0.0,-7.0,0.1,-0.01,1.0,99.0,-74.0,24,0.0,30.08,1049.0,,,82.0,,,,,0.0,0.0,,,,,,,,,,,,,,,,,,,0.0,78.0,0.0,0.0,30.3,0.0,,0.0,2.8,,,42.0,0.0,0.0,-0.0,10.4,8.4,,,,,117.0,93.0,119.0,92.0,117.0,97.0,116.0,88.0,,,6.0,254.4,,2.8,4.0,4.998,,,0.653,0.868,+0.0,77.8,,,,,,75.2,172.4,,,,,242.6,199.4,246.2,197.6,242.6,206.6,240.8,190.4,,,172.04,0.0,243.04999999999998,167.84999999999997,97.2,0.0,0.25300000000000006,0.0,381.2,True,2026-04-14 00:49:08
29.06,1,8,2026-04-14 00:49:30,37.05898,-120.86834,120.0,0.0,169.1,-12.5,,,,,0.0,10.8,-0.7,10.0,0.0,-8.0,0.1,-0.01,1.0,99.0,-72.0,24,0.0,30.08,1048.0,,,82.0,,,,,0.0,0.0,,,,,,,,,,,,,,,,,,,0.0,78.0,0.0,0.0,30.3,0.0,,0.0,2.8,,,42.0,0.0,0.0,-0.0,10.4,8.4,,,,,117.0,93.0,119.0,92.0,117.0,97.0,115.0,88.0,,,6.0,254.4,,2.8,4.0,4.998,,,0.653,0.867,+0.0,77.8,,,,,,75.2,172.4,,,,,242.6,199.4,246.2,197.6,242.6,206.6,239.0,190.4,,,172.04,0.0,242.6,167.39999999999998,97.2,0.0,0.25300000000000006,0.0,381.2,True,2026-04-14 00:49:08
30.06,1,8,2026-04-14 00:49:31,37.05898,-120.86834,121.0,0.0,169.1,-12.5,,,,,0.0,10.8,-0.7,10.0,0.0,-9.0,0.1,-0.01,1.0,99.0,-49.0,24,0.0,30.08,1047.0,,,82.0,,,,,0.0,0.0,,,,,,,,,,,,,,,,,,,0.0,78.0,0.0,0.0,30.3,0.0,,0.0,2.8,,,42.0,0.0,0.0,-0.0,10.4,8.4,,,,,117.0,93.0,119.0,92.0,117.0,98.0,115.0,88.0,,,6.0,254.4,,2.8,4.0,4.998,,,0.653,0.867,+0.0,77.8,,,,,,75.2,172.4,,,,,242.6,199.4,246.2,197.6,242.6,208.4,239.0,190.4,,,172.04,0.0,242.6,167.39999999999998,97.2,0.0,0.25300000000000006,0.0,381.2,True,2026-04-14 00:49:08
31.06,1,8,2026-04-14 00:49:32,37.05898,-120.86834,121.0,0.0,169.1,-12.5,,,,,0.0,10.8,-0.7,10.0,0.0,-10.0,0.1,-0.01,1.0,99.0,-38.0,24,0.0,30.08,1046.0,,,82.0,,,,,0.0,0.0,,,,,,,,,,,,,,,,,,,0.0,78.0,0.0,0.0,30.3,0.0,,0.0,2.8,,,42.0,0.0,0.0,-0.0,10.4,8.4,,,,,117.0,93.0,119.0,92.0,117.0,98.0,115.0,88.0,,,6.0,254.4,,2.8,4.0,4.998,,,0.653,0.867,+0.0,77.8,,,,,,75.2,172.4,,,,,242.6,199.4,246.2,197.6,242.6,208.4,239.0,190.4,,,172.04,0.0,242.6,167.39999999999998,97.2,0.0,0.25300000000000006,0.0,381.2,True,2026-04-14 00:49:08
32.06,1,8,2026-04-14 00:49:33,37.05898,-120.86834,122.0,0.0,169.1,-12.5,,,,,0.0,10.8,-0.8,9.9,0.0,-11.0,0.1,-0.01,1.0,99.0,-61.0,24,0.0,30.08,1045.0,,,82.0,,,,,0.0,0.0,,,,,,,,,,,,,,,,,,,0.0,78.0,0.0,0.0,30.3,0.0,,0.0,2.8,,,42.0,0.0,0.0,-0.0,10.4,8.4,,,,,117.0,94.0,119.0,92.0,117.0,98.0,115.0,88.0,,,6.0,254.4,,2.8,4.0,4.998,,,0.653,0.868,+0.0,77.8,,,,,,75.2,172.4,,,,,242.6,201.2,246.2,197.6,242.6,208.4,239.0,190.4,,,172.04,0.0,242.6,167.39999999999998,97.2,0.0,0.25300000000000006,0.0,381.2,True,2026-04-14 00:49:08
33.06,1,8,2026-04-14 00:49:34,37.05898,-120.86834,122.0,0.0,169.1,-12.5,,,,,0.0,10.8,-0.8,9.9,0.0,-12.0,0.1,-0.01,1.0,99.0,-79.0,24,0.0,30.08,1044.0,,,82.0,,,,,0.0,0.0,,,,,,,,,,,,,,,,,,,0.0,78.0,0.0,0.0,30.3,0.0,,0.0,2.8,,,42.0,0.0,0.0,0.0,10.4,8.4,,,,,117.0,94.0,119.0,92.0,117.0,98.0,115.0,88.0,,,6.0,254.4,,2.8,4.0,4.998,,,0.653,0.869,+0.0,77.8,,,,,,75.2,172.4,,,,,242.6,201.2,246.2,197.6,242.6,208.4,239.0,190.4,,,172.04,0.0,242.6,167.39999999999998,97.2,0.0,0.25300000000000006,0.0,381.2,True,2026-04-14 00:49:08
34.06,1,8,2026-04-14 00:49:35,37.05898,-120.86834,123.0,0.0,169.1,-12.5,,,,,0.0,10.8,-0.8,9.8,0.0,-12.0,0.1,-0.01,1.0,99.0,-50.0,24,0.0,30.08,1043.0,,,82.0,,,,,0.0,0.0,,,,,,,,,,,,,,,,,,,0.0,78.0,0.0,0.0,30.3,0.0,,0.0,2.8,,,42.0,0.0,0.0,-0.0,10.4,8.4,,,,,117.0,94.0,119.0,92.0,117.0,98.0,115.0,88.0,,,6.0,254.4,,2.8,4.0,4.998,,,0.653,0.87,+0.0,77.8,,,,,,75.2,172.4,,,,,242.6,201.2,246.2,197.6,242.6,208.4,239.0,190.4,,,172.04,0.0,242.6,167.39999999999998,97.2,0.0,0.25300000000000006,0.0,381.2,True,2026-04-14 00:49:08
35.06,1,8,2026-04-14 00:49:36,37.05898,-120.86834,123.0,0.0,169.1,-12.5,,,,,0.0,10.8,-0.8,9.9,0.0,-13.0,0.1,-0.01,1.0,99.0,-51.0,24,0.0,30.08,1043.0,,,82.0,,,,,0.0,0.0,,,,,,,,,,,,,,,,,,,0.0,78.0,0.0,0.0,30.3,0.0,,0.0,2.8,,,42.0,0.0,0.0,0.0,10.4,8.4,,,,,117.0,94.0,119.0,92.0,117.0,98.0,115.0,88.0,,,6.0,254.4,,2.8,4.0,4.998,,,0.653,0.873,+0.0,77.8,,,,,,75.2,172.4,,,,,242.6,201.2,246.2,197.6,242.6,208.4,239.0,190.4,,,172.04,0.0,242.6,167.39999999999998,97.2,0.0,0.25300000000000006,0.0,381.2,True,2026-04-14 00:49:08
36.06,1,8,2026-04-14 00:49:37,37.05898,-120.86834,123.0,0.1,169.1,-12.5,,,,,0.0,10.8,-0.8,9.8,0.0,-14.0,0.1,-0.01,1.0,99.0,-25.0,24,0.0,30.08,1043.0,,,82.0,,,,,0.0,0.0,,,,,,,,,,,,,,,,,,,0.0,78.0,0.0,0.0,30.3,0.0,,0.0,2.8,,,42.0,0.0,0.0,-0.0,10.4,8.4,,,,,117.0,94.0,119.0,92.0,117.0,98.0,115.0,88.0,,,6.0,254.4,,2.8,4.0,4.998,,,0.653,0.874,+0.0,77.8,,,,,,75.2,172.4,,,,,242.6,201.2,246.2,197.6,242.6,208.4,239.0,190.4,,,172.04,0.0,242.6,167.39999999999998,97.2,0.0,0.3373333333333334,0.0,381.2,True,2026-04-14 00:49:08
37.06,1,8,2026-04-14 00:49:38,37.05898,-120.86834,124.0,0.0,169.1,-12.5,,,,,0.0,10.8,-0.8,9.8,0.0,-14.0,0.1,-0.01,1.0,99.0,1.0,24,0.0,30.08,1041.0,,,82.0,,,,,0.0,0.0,,,,,,,,,,,,,,,,,,,0.0,78.0,0.0,0.0,30.3,0.0,,0.0,2.8,,,42.0,0.0,0.0,-0.0,10.4,8.4,,,,,117.0,94.0,119.0,92.0,117.0,98.0,115.0,88.0,,,6.0,254.4,,2.8,4.0,4.998,,,0.653,0.875,+0.0,77.8,,,,,,75.2,172.4,,,,,242.6,201.2,246.2,197.6,242.6,208.4,239.0,190.4,,,172.04,0.0,242.6,167.39999999999998,97.2,0.0,0.42166666666666675,0.0,381.2,True,2026-04-14 00:49:08
38.06,1,8,2026-04-14 00:49:39,37.05898,-120.86834,125.0,0.1,169.1,-12.5,,,,,0.0,10.8,-0.8,9.8,0.0,-14.0,0.1,-0.01,1.0,99.0,5.0,24,0.0,30.08,1041.0,,,82.0,,,,,0.0,0.0,,,,,,,,,,,,,,,,,,,0.0,78.0,0.0,0.0,30.3,0.0,,0.0,2.8,,,42.0,0.0,0.0,-0.0,10.4,8.4,,,,,117.0,94.0,119.0,92.0,116.0,98.0,115.0,88.0,,,6.0,254.4,,2.8,4.0,4.998,,,0.653,0.879,+0.0,77.8,,,,,,75.2,172.4,,,,,242.6,201.2,246.2,197.6,240.8,208.4,239.0,190.4,,,172.04,0.0,242.15,166.95,97.2,0.0,0.506,0.0,381.2,True,2026-04-14 00:49:08
39.06,1,8,2026-04-14 00:49:40,37.05898,-120.86834,126.0,0.0,169.1,-12.5,,,,,0.0,10.7,-0.7,9.8,0.0,-14.0,0.1,-0.01,1.0,99.0,16.0,24,0.0,30.08,1041.0,,,82.0,,,,,0.0,0.0,,,,,,,,,,,,,,,,,,,0.0,78.0,0.0,0.0,30.3,0.0,,0.0,2.9,,,42.0,0.0,0.0,-0.0,10.4,8.4,,,,,117.0,94.0,119.0,92.0,116.0,98.0,115.0,88.0,,,6.0,254.4,,2.9,4.0,4.998,,,0.653,0.88,+0.0,77.8,,,,,,75.2,172.4,,,,,242.6,201.2,246.2,197.6,240.8,208.4,239.0,190.4,,,172.04,0.0,242.15,166.95,97.2,0.0,0.5903333333333334,0.0,381.2,True,2026-04-14 00:49:08
40.06,1,8,2026-04-14 00:49:41,37.05898,-120.86834,127.0,0.0,169.1,-12.5,,,,,0.0,10.7,-0.7,9.8,0.0,-14.0,0.1,-0.01,1.0,99.0,-20.0,24,0.0,30.08,1041.0,,,82.0,,,,,0.0,0.0,,,,,,,,,,,,,,,,,,,0.0,78.0,0.0,0.0,30.3,0.0,,0.0,2.9,,,42.0,0.0,0.0,-0.0,10.4,8.4,,,,,117.0,94.0,119.0,92.0,116.0,98.0,115.0,88.0,,,7.0,254.4,,2.9,4.0,4.998,,,0.653,0.887,+0.0,77.8,,,,,,75.2,172.4,,,,,242.6,201.2,246.2,197.6,240.8,208.4,239.0,190.4,,,172.04,0.0,242.15,166.95,97.2,0.0,0.5903333333333334,0.0,381.2,True,2026-04-14 00:49:08
41.06,1,8,2026-04-14 00:49:42,37.05898,-120.86834,128.0,0.0,169.1,-12.5,,,,,0.0,10.8,-0.7,9.8,0.0,-14.0,0.1,-0.02,1.0,99.0,-37.0,24,0.0,30.08,1041.0,,,82.0,,,,,0.0,0.0,,,,,,,,,,,,,,,,,,,0.0,78.0,0.0,0.0,30.3,0.0,,0.0,2.9,,,42.0,0.0,0.0,-0.0,10.4,8.4,,,,,117.0,94.0,119.0,92.0,116.0,98.0,115.0,88.0,,,7.0,254.4,,2.9,4.0,2.687,,,0.653,0.897,+0.0,77.8,,,,,,75.2,172.4,,,,,242.6,201.2,246.2,197.6,240.8,208.4,239.0,190.4,,,172.04,0.0,242.15,166.95,97.2,0.0,0.5903333333333334,0.0,381.2,True,2026-04-14 00:49:08
42.06,1,8,2026-04-14 00:49:43,37.05898,-120.86834,129.0,0.0,169.1,-12.5,,,,,0.0,10.8,-0.7,9.8,0.0,-15.0,0.1,-0.01,1.0,99.0,15.0,24,0.0,30.08,1041.0,,,82.0,,,,,0.0,0.0,,,,,,,,,,,,,,,,,,,0.0,78.0,0.0,0.0,30.3,0.0,,0.0,2.9,,,42.0,0.0,0.0,-0.0,10.4,8.4,,,,,117.0,94.0,119.0,92.0,116.0,98.0,115.0,88.0,,,7.0,237.4,,2.9,4.0,0.002,,,0.653,0.912,+0.0,77.8,,,,,,75.2,172.4,,,,,242.6,201.2,246.2,197.6,240.8,208.4,239.0,190.4,,,172.04,0.0,242.15,166.95,97.2,0.0,0.5903333333333334,0.0,381.2,True,2026-04-14 00:49:08
43.06,1,8,2026-04-14 00:49:44,37.05898,-120.86834,130.0,0.0,169.1,-12.5,,,,,0.0,10.8,-0.8,9.8,0.0,-15.0,0.1,-0.01,1.0,99.0,-16.0,24,0.0,30.08,1040.0,,,82.0,,,,,0.0,0.0,,,,,,,,,,,,,,,,,,,0.0,78.0,0.0,0.0,30.3,0.0,,0.0,2.9,,,42.0,0.0,0.0,-0.0,10.4,8.4,,,,,117.0,94.0,119.0,92.0,116.0,98.0,115.0,88.0,,,7.0,184.7,,2.9,4.0,0.0,,,0.653,0.886,+0.0,77.8,,,,,,75.2,172.4,,,,,242.6,201.2,246.2,197.6,240.8,208.4,239.0,190.4,,,172.04,0.0,242.15,166.95,97.2,0.0,0.5903333333333334,0.0,381.2,True,2026-04-14 00:49:08
44.06,1,8,2026-04-14 00:49:45,37.05898,-120.86834,131.0,0.0,169.1,-12.5,,,,,0.0,10.8,-0.8,9.9,0.0,-15.0,0.1,-0.02,1.0,99.0,-11.0,24,0.0,30.08,1040.0,,,82.0,,,,,0.0,0.0,,,,,,,,,,,,,,,,,,,0.0,78.0,0.0,0.0,30.3,0.0,,0.0,2.9,,,42.0,0.0,0.0,0.0,10.4,8.4,,,,,117.0,94.0,119.0,92.0,116.0,98.0,115.0,88.0,,,7.0,143.8,,2.9,4.0,0.0,,,0.653,0.883,+0.0,77.8,,,,,,75.2,172.4,,,,,242.6,201.2,246.2,197.6,240.8,208.4,239.0,190.4,,,172.04,0.0,242.15,166.95,97.2,0.0,0.5903333333333334,0.0,381.2,True,2026-04-14 00:49:08
45.06,1,8,2026-04-14 00:49:46,37.05898,-120.86834,132.0,0.0,169.1,-12.5,,,,,0.0,10.8,-0.8,9.8,0.0,-15.0,0.1,-0.01,1.0,99.0,-40.0,24,0.0,30.08,1041.0,,,82.0,,,,,0.0,0.0,,,,,,,,,,,,,,,,,,,0.0,78.0,0.0,0.0,30.3,0.0,,0.0,2.9,,,42.0,0.0,0.0,0.0,10.4,8.4,,,,,116.0,94.0,119.0,92.0,116.0,98.0,115.0,88.0,,,7.0,112.0,,2.9,4.0,0.0,,,0.653,0.883,+0.0,77.8,,,,,,75.2,172.4,,,,,240.8,201.2,246.2,197.6,240.8,208.4,239.0,190.4,,,172.04,0.0,241.7,166.5,97.2,0.0,0.5903333333333334,0.0,381.2,True,2026-04-14 00:49:08
46.06,1,8,2026-04-14 00:49:47,37.05898,-120.86834,133.0,0.0,169.1,-12.5,,,,,0.0,10.8,-0.9,9.8,0.0,-16.0,0.1,-0.01,1.0,99.0,-43.0,24,0.0,30.08,1041.0,,,82.0,,,,,0.0,0.0,,,,,,,,,,,,,,,,,,,0.0,78.0,0.0,0.0,30.3,0.0,,0.0,2.9,,,42.0,0.0,0.0,-0.0,10.4,8.4,,,,,116.0,94.0,119.0,92.0,116.0,98.0,115.0,88.0,,,7.0,87.3,,2.9,4.0,0.0,,,0.653,0.883,+0.0,77.8,,,,,,75.2,172.4,,,,,240.8,201.2,246.2,197.6,240.8,208.4,239.0,190.4,,,172.04,0.0,241.7,166.5,97.2,0.0,0.5903333333333334,0.0,381.2,True,2026-04-14 00:49:08
47.06,1,8,2026-04-14 00:49:48,37.05898,-120.86834,133.0,0.0,169.1,-12.5,,,,,0.0,10.8,-0.8,9.8,0.0,-16.0,0.1,-0.01,1.0,99.0,-35.0,24,0.0,30.08,1041.0,,,82.0,,,,,0.0,0.0,,,,,,,,,,,,,,,,,,,0.0,78.0,0.0,0.0,30.3,0.0,,0.0,2.9,,,42.0,0.0,0.0,-0.0,10.4,8.4,,,,,116.0,94.0,118.0,92.0,116.0,98.0,115.0,88.0,,,7.0,68.0,,2.9,4.0,0.0,,,0.653,0.876,+0.0,77.8,,,,,,75.2,172.4,,,,,240.8,201.2,244.4,197.6,240.8,208.4,239.0,190.4,,,172.04,0.0,241.25,166.05,97.2,0.0,0.5903333333333334,0.0,381.2,True,2026-04-14 00:49:08
48.06,1,9,2026-04-14 00:49:49,37.059,-120.86832,150.0,0.0,169.1,-12.5,,,,,0.0,10.8,-0.9,9.8,0.0,-17.0,0.1,-0.01,1.0,99.0,-43.0,24,0.0,30.08,1039.0,,,82.0,,,,,0.0,0.0,,,,,,,,,,,,,,,,,,,0.0,78.0,0.0,0.0,30.3,0.0,,0.0,2.9,,,42.0,0.0,0.0,-0.0,10.4,8.4,,,,,117.0,94.0,119.0,92.0,116.0,98.0,115.0,88.0,,,7.0,53.1,,2.9,4.0,0.0,,,0.653,0.874,+0.0,77.8,,,,,,75.2,172.4,,,,,242.6,201.2,246.2,197.6,240.8,208.4,239.0,190.4,,,172.04,0.0,242.15,166.95,97.2,0.0,0.5903333333333334,0.0,381.2,True,2026-04-14 00:49:08
49.06,1,9,2026-04-14 00:49:50,37.05898,-120.86835,132.0,0.0,169.1,-12.5,,,,,0.0,10.8,-0.9,9.8,0.0,-18.0,0.1,-0.01,1.0,99.0,-66.0,24,0.0,30.08,1039.0,,,82.0,,,,,0.0,0.0,,,,,,,,,,,,,,,,,,,0.0,78.0,0.0,0.0,30.3,0.0,,0.0,2.9,,,42.0,0.0,0.0,-0.0,10.4,8.4,,,,,116.0,94.0,119.0,92.0,116.0,98.0,115.0,88.0,,,7.0,41.5,,2.9,4.0,0.0,,,0.653,0.874,+0.0,77.8,,,,,,75.2,172.4,,,,,240.8,201.2,246.2,197.6,240.8,208.4,239.0,190.4,,,172.04,0.0,241.7,166.5,97.2,0.0,0.5903333333333334,0.0,381.2,True,2026-04-14 00:49:08
50.06,1,9,2026-04-14 00:49:51,37.05898,-120.86835,133.0,0.0,169.1,-12.5,,,,,0.0,10.8,-0.8,9.7,0.0,-20.0,0.1,-0.02,1.0,99.0,-60.0,24,0.0,30.08,1039.0,,,82.0,,,,,0.0,0.0,,,,,,,,,,,,,,,,,,,0.0,78.0,0.0,0.0,30.3,0.0,,0.0,2.9,,,42.0,0.0,0.0,-0.0,10.4,8.4,,,,,116.0,94.0,118.0,92.0,116.0,98.0,115.0,88.0,,,7.0,32.5,,2.9,4.0,0.001,,,0.653,0.874,+0.0,77.8,,,,,,75.2,172.4,,,,,240.8,201.2,244.4,197.6,240.8,208.4,239.0,190.4,,,172.04,0.0,241.25,166.05,97.2,0.0,0.5903333333333334,0.0,381.2,True,2026-04-14 00:49:08
51.06,1,9,2026-04-14 00:49:52,37.05898,-120.86835,135.0,0.0,169.1,-12.5,,,,,0.0,10.8,-0.8,9.7,0.0,-21.0,0.1,-0.01,1.0,99.0,-75.0,24,0.0,30.08,1045.0,,,82.0,,,,,0.0,0.0,,,,,,,,,,,,,,,,,,,0.0,78.0,0.0,0.0,30.3,0.0,,0.0,2.9,,,42.0,0.0,0.0,0.0,10.4,8.4,,,,,116.0,94.0,118.0,92.0,116.0,98.0,115.0,88.0,,,7.0,25.4,,2.9,4.0,0.001,,,0.653,0.874,+0.0,77.8,,,,,,75.2,172.4,,,,,240.8,201.2,244.4,197.6,240.8,208.4,239.0,190.4,,,172.04,0.0,241.25,166.05,97.2,0.0,0.5903333333333334,0.0,381.2,True,2026-04-14 00:49:08
52.06,1,9,2026-04-14 00:49:53,37.05898,-120.86835,136.0,0.0,169.1,-12.5,,,,,0.0,10.8,-0.8,9.7,0.0,-22.0,0.1,-0.02,1.0,99.0,-80.0,24,0.0,30.08,1045.0,,,82.0,,,,,0.0,0.0,,,,,,,,,,,,,,,,,,,0.0,78.0,0.0,0.0,30.3,0.0,,0.0,2.9,,,42.0,0.0,0.0,-0.0,10.4,8.4,,,,,116.0,94.0,118.0,92.0,116.0,98.0,115.0,88.0,,,7.0,20.0,,2.9,4.0,0.0,,,0.653,0.874,+0.0,77.8,,,,,,75.2,172.4,,,,,240.8,201.2,244.4,197.6,240.8,208.4,239.0,190.4,,,172.04,0.0,241.25,166.05,97.2,0.0,0.5903333333333334,0.0,381.2,True,2026-04-14 00:49:08
53.06,1,9,2026-04-14 00:49:54,37.05898,-120.86835,137.0,0.0,169.1,-12.5,,,,,0.0,10.8,-0.8,9.6,0.0,-24.0,0.1,-0.01,1.0,99.0,-79.0,24,0.0,30.08,1045.0,,,82.0,,,,,0.0,0.0,,,,,,,,,,,,,,,,,,,0.0,78.0,0.0,0.0,30.3,0.0,,0.0,2.9,,,42.0,0.0,0.0,-0.0,10.4,8.4,,,,,116.0,94.0,118.0,92.0,116.0,98.0,115.0,88.0,,,7.0,15.8,,2.9,4.0,0.0,,,0.653,0.874,+0.0,77.8,,,,,,75.2,172.4,,,,,240.8,201.2,244.4,197.6,240.8,208.4,239.0,190.4,,,172.04,0.0,241.25,166.05,97.2,0.0,0.5903333333333334,0.0,381.2,True,2026-04-14 00:49:08
54.06,1,9,2026-04-14 00:49:55,37.05898,-120.86835,138.0,0.0,169.1,-12.5,,,,,0.0,10.8,-0.8,9.6,0.0,-24.0,0.1,-0.01,1.0,99.0,-34.0,24,0.0,30.08,1040.0,,,82.0,,,,,0.0,0.0,,,,,,,,,,,,,,,,,,,0.0,78.0,0.0,0.0,30.3,0.0,,0.0,2.9,,,42.0,0.0,0.0,-0.0,10.4,8.4,,,,,116.0,94.0,118.0,92.0,116.0,98.0,115.0,88.0,,,7.0,12.5,,2.9,4.0,0.0,,,0.653,0.869,+0.0,77.8,,,,,,75.2,172.4,,,,,240.8,201.2,244.4,197.6,240.8,208.4,239.0,190.4,,,172.04,0.0,241.25,166.05,97.2,0.0,0.5903333333333334,0.0,381.2,True,2026-04-14 00:49:08
55.06,1,9,2026-04-14 00:49:56,37.05899,-120.86835,139.0,0.0,169.1,-12.5,,,,,0.0,10.8,-0.8,9.6,0.0,-24.0,0.1,-0.01,1.0,99.0,-18.0,24,0.0,30.08,1040.0,,,82.0,,,,,0.0,0.0,,,,,,,,,,,,,,,,,,,0.0,78.0,0.0,0.0,30.3,0.0,,0.0,2.9,,,42.0,0.0,0.0,-0.0,10.4,8.4,,,,,116.0,94.0,118.0,92.0,116.0,98.0,115.0,88.0,,,7.0,9.9,,2.9,4.0,0.0,,,0.653,0.864,+0.0,77.8,,,,,,75.2,172.4,,,,,240.8,201.2,244.4,197.6,240.8,208.4,239.0,190.4,,,172.04,0.0,241.25,166.05,97.2,0.0,0.5903333333333334,0.0,381.2,True,2026-04-14 00:49:08
56.06,1,9,2026-04-14 00:49:57,37.05899,-120.86835,139.0,0.0,169.1,-12.5,,,,,0.0,10.8,-0.9,9.7,0.0,-24.0,0.1,-0.01,1.0,99.0,-17.0,24,0.0,30.08,1040.0,,,82.0,,,,,0.0,0.0,,,,,,,,,,,,,,,,,,,0.0,78.0,0.0,0.0,30.3,0.0,,0.0,2.9,,,42.0,0.0,0.0,-0.0,10.4,8.4,,,,,116.0,94.0,118.0,92.0,115.0,98.0,114.0,88.0,,,7.0,7.9,,2.9,4.0,0.0,,,0.653,0.865,+0.0,77.8,,,,,,75.2,172.4,,,,,240.8,201.2,244.4,197.6,239.0,208.4,237.2,190.4,,,172.04,0.0,240.35000000000002,165.15000000000003,97.2,0.0,0.5903333333333334,0.0,381.2,True,2026-04-14 00:49:08
57.06,1,9,2026-04-14 00:49:58,37.05899,-120.86835,140.0,0.0,169.1,-12.5,,,,,0.0,10.8,-0.8,9.7,0.0,-24.0,0.1,-0.01,1.0,99.0,-14.0,24,0.0,30.08,1040.0,,,82.0,,,,,0.0,0.0,,,,,,,,,,,,,,,,,,,0.0,78.0,0.0,0.0,30.3,0.0,,0.0,2.9,,,42.0,0.0,0.0,-0.0,10.4,8.4,,,,,116.0,94.0,118.0,92.0,115.0,98.0,115.0,88.0,,,7.0,6.4,,2.9,4.0,0.0,,,0.653,0.864,+0.0,77.8,,,,,,75.2,172.4,,,,,240.8,201.2,244.4,197.6,239.0,208.4,239.0,190.4,,,172.04,0.0,240.8,165.60000000000002,97.2,0.0,0.5903333333333334,0.0,381.2,True,2026-04-14 00:49:08
58.06,1,9,2026-04-14 00:49:59,37.05899,-120.86835,141.0,0.0,169.1,-12.5,,,,,0.0,10.8,-0.8,9.7,0.0,-24.0,0.1,-0.01,1.0,99.0,-20.0,24,0.0,30.08,1040.0,,,82.0,,,,,0.0,0.0,,,,,,,,,,,,,,,,,,,0.0,78.0,0.0,0.0,30.3,0.0,,0.0,2.9,,,42.0,0.0,0.0,-0.0,10.4,8.4,,,,,116.0,94.0,118.0,92.0,116.0,98.0,115.0,89.0,,,7.0,5.2,,2.9,4.0,0.0,,,0.653,0.863,+0.0,77.8,,,,,,75.2,172.4,,,,,240.8,201.2,244.4,197.6,240.8,208.4,239.0,192.2,,,172.04,0.0,241.25,166.05,97.2,0.0,0.5903333333333334,0.0,381.2,True,2026-04-14 00:49:08
59.06,1,9,2026-04-14 00:50:00,37.05899,-120.86835,142.0,0.0,169.1,-12.5,,,,,0.0,10.8,-0.8,9.7,0.0,-25.0,0.1,-0.01,1.0,99.0,-48.0,24,0.0,30.08,1040.0,,,82.0,,,,,0.0,0.0,,,,,,,,,,,,,,,,,,,0.0,78.0,0.0,0.0,30.3,0.0,,0.0,2.9,,,42.0,0.0,0.0,0.0,10.4,8.4,,,,,116.0,94.0,118.0,92.0,115.0,98.0,115.0,89.0,,,7.0,4.2,,2.9,4.0,0.0,,,0.653,0.862,+0.0,77.8,,,,,,75.2,172.4,,,,,240.8,201.2,244.4,197.6,239.0,208.4,239.0,192.2,,,172.04,0.0,240.8,165.60000000000002,97.2,0.0,0.5903333333333334,0.0,381.2,True,2026-04-14 00:49:08
60.06,1,9,2026-04-14 00:50:01,37.05899,-120.86835,142.0,0.0,169.1,-12.5,,,,,0.0,10.8,-0.9,9.7,0.0,-25.0,0.1,-0.01,1.0,99.0,-20.0,24,0.0,30.08,1040.0,,,82.0,,,,,0.0,0.0,,,,,,,,,,,,,,,,,,,0.0,78.0,0.0,0.0,30.3,0.0,,0.0,2.9,,,42.0,0.0,0.0,-0.0,10.4,8.4,,,,,116.0,94.0,118.0,92.0,115.0,98.0,114.0,89.0,,,7.0,3.5,,2.9,4.0,0.0,,,0.653,0.859,+0.0,77.8,,,,,,75.2,172.4,,,,,240.8,201.2,244.4,197.6,239.0,208.4,237.2,192.2,,,172.04,0.0,240.35000000000002,165.15000000000003,97.2,0.0,0.5903333333333334,0.0,381.2,True,2026-04-14 00:49:08
61.06,1,9,2026-04-14 00:50:02,37.05899,-120.86835,143.0,0.0,169.1,-12.5,,,,,0.0,10.8,-0.9,9.6,0.0,-25.0,0.1,-0.01,1.0,99.0,12.0,24,0.0,30.08,1048.0,,,82.0,,,,,0.0,0.0,,,,,,,,,,,,,,,,,,,0.0,78.0,0.0,0.0,30.3,0.0,,0.0,2.9,,,42.0,0.0,0.0,0.0,10.4,8.4,,,,,116.0,94.0,118.0,92.0,115.0,98.0,114.0,89.0,,,7.0,2.9,,2.9,4.0,0.0,,,0.653,0.861,+0.0,77.8,,,,,,75.2,172.4,,,,,240.8,201.2,244.4,197.6,239.0,208.4,237.2,192.2,,,172.04,0.0,240.35000000000002,165.15000000000003,97.2,0.0,0.5903333333333334,0.0,381.2,True,2026-04-14 00:49:08
62.06,1,9,2026-04-14 00:50:03,37.05899,-120.86835,143.0,0.0,169.1,-12.5,,,,,0.0,10.8,-0.9,9.6,0.0,-25.0,0.1,-0.01,1.0,99.0,5.0,24,0.0,30.08,1048.0,,,82.0,,,,,0.0,0.0,,,,,,,,,,,,,,,,,,,0.0,78.0,0.0,0.0,30.3,0.0,,0.0,2.9,,,42.0,0.0,0.0,0.0,10.4,8.4,,,,,116.0,94.0,118.0,92.0,115.0,98.0,114.0,89.0,,,7.0,2.5,,2.9,4.0,0.0,,,0.653,0.859,+0.0,77.8,,,,,,75.2,172.4,,,,,240.8,201.2,244.4,197.6,239.0,208.4,237.2,192.2,,,172.04,0.0,240.35000000000002,165.15000000000003,97.2,0.0,0.5903333333333334,0.0,381.2,True,2026-04-14 00:49:08
63.06,1,9,2026-04-14 00:50:04,37.05899,-120.86835,144.0,0.0,169.1,-12.5,,,,,0.0,10.8,-0.9,9.6,0.0,-25.0,0.1,-0.01,1.0,99.0,5.0,24,0.0,30.08,1048.0,,,82.0,,,,,0.0,0.0,,,,,,,,,,,,,,,,,,,0.0,78.0,0.0,0.0,30.3,0.0,,0.0,2.9,,,42.0,0.0,0.0,-0.0,10.4,8.4,,,,,116.0,94.0,118.0,92.0,115.0,98.0,114.0,89.0,,,7.0,2.2,,2.9,4.0,0.0,,,0.653,0.859,+0.0,77.8,,,,,,75.2,172.4,,,,,240.8,201.2,244.4,197.6,239.0,208.4,237.2,192.2,,,172.04,0.0,240.35000000000002,165.15000000000003,97.2,0.0,0.5903333333333334,0.0,381.2,True,2026-04-14 00:49:08
64.06,1,9,2026-04-14 00:50:05,37.05899,-120.86835,144.0,0.0,169.1,-12.5,,,,,0.0,10.8,-0.9,9.6,0.0,-25.0,0.1,-0.01,1.0,99.0,23.0,24,0.0,30.08,1039.0,,,82.0,,,,,0.0,0.0,,,,,,,,,,,,,,,,,,,0.0,78.0,0.0,0.0,30.3,0.0,,0.0,2.9,,,42.0,0.0,0.0,-0.0,10.4,8.4,,,,,116.0,94.0,118.0,92.0,115.0,98.0,114.0,88.0,,,7.0,1.9,,2.9,4.0,0.0,,,0.653,0.859,+0.0,77.8,,,,,,75.2,172.4,,,,,240.8,201.2,244.4,197.6,239.0,208.4,237.2,190.4,,,172.04,0.0,240.35000000000002,165.15000000000003,97.2,0.0,0.5903333333333334,0.0,381.2,True,2026-04-14 00:49:08
65.06,1,9,2026-04-14 00:50:06,37.05899,-120.86835,144.0,0.0,169.1,-12.5,,,,,0.0,10.8,-0.8,9.6,0.0,-25.0,0.1,-0.01,1.0,99.0,41.0,24,0.0,30.08,1039.0,,,82.0,,,,,0.0,0.0,,,,,,,,,,,,,,,,,,,0.0,78.0,0.0,0.0,30.3,0.0,,0.0,2.9,,,42.0,0.0,0.0,-0.0,10.4,8.4,,,,,116.0,94.0,118.0,92.0,115.0,98.0,114.0,89.0,,,7.0,1.7,,2.9,4.0,0.0,,,0.653,0.858,+0.0,77.8,,,,,,75.2,172.4,,,,,240.8,201.2,244.4,197.6,239.0,208.4,237.2,192.2,,,172.04,0.0,240.35000000000002,165.15000000000003,97.2,0.0,0.5903333333333334,0.0,381.2,True,2026-04-14 00:49:08
66.06,1,9,2026-04-14 00:50:07,37.05899,-120.86835,145.0,0.0,169.1,-12.5,,,,,0.0,10.8,-0.8,9.7,0.0,-25.0,0.1,-0.01,1.0,99.0,14.0,24,0.0,30.08,1039.0,,,82.0,,,,,0.0,0.0,,,,,,,,,,,,,,,,,,,0.0,78.0,0.0,0.0,30.3,0.0,,0.0,2.9,,,42.0,0.0,0.0,-0.0,10.4,8.4,,,,,116.0,94.0,118.0,92.0,115.0,99.0,114.0,89.0,,,7.0,1.6,,2.9,4.0,0.0,,,0.653,0.858,+0.0,77.8,,,,,,75.2,172.4,,,,,240.8,201.2,244.4,197.6,239.0,210.2,237.2,192.2,,,172.04,0.0,240.35000000000002,165.15000000000003,97.2,0.0,0.5903333333333334,0.0,381.2,True,2026-04-14 00:49:08
67.06,1,9,2026-04-14 00:50:08,37.05899,-120.86835,145.0,0.0,169.1,-12.5,,,,,0.0,10.8,-0.9,9.7,0.0,-25.0,0.1,-0.01,1.0,99.0,6.0,24,0.0,30.08,1049.0,,,82.0,,,,,0.0,0.0,,,,,,,,,,,,,,,,,,,0.0,78.0,0.0,0.0,30.3,0.0,,0.0,2.9,,,42.0,0.0,0.0,-0.0,10.4,8.4,,,,,116.0,95.0,118.0,92.0,115.0,99.0,114.0,89.0,,,7.0,1.4,,2.9,4.0,0.0,,,0.653,0.858,+0.0,77.8,,,,,,75.2,172.4,,,,,240.8,203.0,244.4,197.6,239.0,210.2,237.2,192.2,,,172.04,0.0,240.35000000000002,165.15000000000003,97.2,0.0,0.5903333333333334,0.0,381.2,True,2026-04-14 00:49:08
68.06,1,9,2026-04-14 00:50:09,37.05899,-120.86836,157.0,0.0,169.1,-12.5,,,,,0.0,10.8,-0.8,9.7,0.0,-25.0,0.1,-0.01,1.0,99.0,-17.0,24,0.0,30.08,1049.0,,,82.0,,,,,0.0,0.0,,,,,,,,,,,,,,,,,,,0.0,78.0,0.0,0.0,30.3,0.0,,0.0,2.9,,,42.0,0.0,0.0,-0.0,10.4,8.4,,,,,115.0,94.0,118.0,92.0,115.0,98.0,114.0,88.0,,,7.0,1.3,,2.9,4.0,0.0,,,0.653,0.858,+0.0,77.8,,,,,,75.2,172.4,,,,,239.0,201.2,244.4,197.6,239.0,208.4,237.2,190.4,,,172.04,0.0,239.9,164.7,97.2,0.0,0.5903333333333334,0.0,381.2,True,2026-04-14 00:49:08
69.06,1,9,2026-04-14 00:50:10,37.05899,-120.86836,156.0,0.0,169.1,-12.5,,,,,0.0,10.8,-0.8,9.8,0.0,-25.0,0.1,-0.02,1.0,99.0,36.0,24,0.0,30.08,1049.0,,,82.0,,,,,0.0,0.0,,,,,,,,,,,,,,,,,,,0.0,78.0,0.0,0.0,30.3,0.0,,0.0,2.9,,,42.0,0.0,0.0,0.0,10.4,8.4,,,,,116.0,94.0,118.0,92.0,115.0,99.0,114.0,89.0,,,7.0,1.2,,2.9,4.0,0.0,,,0.653,0.858,+0.0,77.8,,,,,,75.2,172.4,,,,,240.8,201.2,244.4,197.6,239.0,210.2,237.2,192.2,,,172.04,0.0,240.35000000000002,165.15000000000003,97.2,0.0,0.5903333333333334,0.0,381.2,True,2026-04-14 00:49:08
70.06,1,9,2026-04-14 00:50:11,37.05899,-120.86836,156.0,0.0,169.1,-12.5,,,,,0.0,10.8,-0.8,9.8,0.0,-25.0,0.1,-0.01,1.0,99.0,60.0,24,0.0,30.08,1049.0,,,82.0,,,,,0.0,0.0,,,,,,,,,,,,,,,,,,,0.0,78.0,0.0,0.0,30.3,0.0,,0.0,2.9,,,42.0,0.0,0.0,-0.0,10.4,8.4,,,,,116.0,95.0,118.0,92.0,115.0,99.0,114.0,89.0,,,7.0,1.2,,2.9,4.0,0.0,,,0.653,0.858,+0.0,77.8,,,,,,75.2,172.4,,,,,240.8,203.0,244.4,197.6,239.0,210.2,237.2,192.2,,,172.04,0.0,240.35000000000002,165.15000000000003,97.2,0.0,0.5903333333333334,0.0,381.2,True,2026-04-14 00:49:08
71.06,1,9,2026-04-14 00:50:12,37.05899,-120.86836,156.0,0.0,169.1,-12.5,,,,,0.0,10.8,-0.8,9.8,0.0,-25.0,0.1,-0.01,1.0,99.0,30.0,24,0.0,30.08,1049.0,,,82.0,,,,,0.0,0.0,,,,,,,,,,,,,,,,,,,0.0,78.0,0.0,0.0,30.3,0.0,,0.0,2.9,,,42.0,0.0,0.0,0.0,10.4,8.4,,,,,115.0,94.0,118.0,92.0,115.0,99.0,114.0,89.0,,,7.0,1.1,,2.9,4.0,0.0,,,0.653,0.858,+0.0,77.8,,,,,,75.2,172.4,,,,,239.0,201.2,244.4,197.6,239.0,210.2,237.2,192.2,,,172.04,0.0,239.9,164.7,97.2,0.0,0.5903333333333334,0.0,381.2,True,2026-04-14 00:49:08
72.06,1,9,2026-04-14 00:50:13,37.05899,-120.86836,156.0,0.0,169.1,-12.5,,,,,0.0,10.8,-0.8,9.8,0.0,-25.0,0.1,-0.01,1.0,99.0,35.0,24,0.0,30.08,1049.0,,,82.0,,,,,0.0,0.0,,,,,,,,,,,,,,,,,,,0.0,78.0,0.0,0.0,30.3,0.0,,0.0,2.9,,,42.0,0.0,0.0,0.0,10.4,8.4,,,,,115.0,94.0,118.0,92.0,115.0,99.0,114.0,89.0,,,7.0,1.1,,2.9,4.0,0.0,,,0.653,0.858,+0.0,77.8,,,,,,75.2,172.4,,,,,239.0,201.2,244.4,197.6,239.0,210.2,237.2,192.2,,,172.04,0.0,239.9,164.7,97.2,0.0,0.5903333333333334,0.0,381.2,True,2026-04-14 00:49:08
73.06,1,9,2026-04-14 00:50:14,37.05899,-120.86836,155.0,0.0,169.1,-12.5,,,,,0.0,10.9,-0.8,9.8,0.0,-25.0,0.1,-0.01,1.0,99.0,34.0,24,0.0,30.08,1049.0,,,82.0,,,,,0.0,0.0,,,,,,,,,,,,,,,,,,,0.0,78.0,0.0,0.0,30.3,0.0,,0.0,2.9,,,42.0,0.0,0.0,0.0,10.4,8.4,,,,,115.0,94.0,118.0,92.0,115.0,99.0,114.0,89.0,,,7.0,1.1,,2.9,4.0,0.0,,,0.653,0.858,+0.0,77.8,,,,,,75.2,172.4,,,,,239.0,201.2,244.4,197.6,239.0,210.2,237.2,192.2,,,172.04,0.0,239.9,164.7,97.2,0.0,0.5903333333333334,0.0,381.2,True,2026-04-14 00:49:08
74.06,1,9,2026-04-14 00:50:15,37.05899,-120.86836,155.0,0.0,169.1,-12.5,,,,,0.0,10.9,-0.9,9.7,0.0,-25.0,0.1,-0.01,1.0,99.0,48.0,24,0.0,30.08,1049.0,,,82.0,,,,,0.0,0.0,,,,,,,,,,,,,,,,,,,0.0,78.0,0.0,0.0,30.3,0.0,,0.0,2.9,,,42.0,0.0,0.0,0.0,10.4,8.4,,,,,115.0,95.0,118.0,92.0,115.0,99.0,114.0,89.0,,,7.0,1.0,,2.9,4.0,0.0,,,0.653,0.858,+0.0,77.8,,,,,,75.2,172.4,,,,,239.0,203.0,244.4,197.6,239.0,210.2,237.2,192.2,,,172.04,0.0,239.9,164.7,97.2,0.0,0.5903333333333334,0.0,381.2,True,2026-04-14 00:49:08
75.06,1,9,2026-04-14 00:50:16,37.05899,-120.86836,154.0,0.0,169.1,-12.5,,,,,0.0,10.8,-0.8,9.7,0.0,-25.0,0.1,-0.01,1.0,99.0,34.0,24,0.0,30.08,1049.0,,,82.0,,,,,0.0,0.0,,,,,,,,,,,,,,,,,,,0.0,78.0,0.0,0.0,30.3,0.0,,0.0,2.9,,,42.0,0.0,0.0,0.0,10.4,8.4,,,,,115.0,95.0,117.0,92.0,115.0,99.0,114.0,89.0,,,7.0,1.0,,2.9,4.0,0.0,,,0.653,0.858,+0.0,77.8,,,,,,75.2,172.4,,,,,239.0,203.0,242.6,197.6,239.0,210.2,237.2,192.2,,,172.04,0.0,239.45,164.25,97.2,0.0,0.5903333333333334,0.0,381.2,True,2026-04-14 00:49:08
76.06,1,9,2026-04-14 00:50:17,37.05899,-120.86836,154.0,0.0,169.1,-12.5,,,,,0.0,10.8,-0.8,9.7,0.0,-25.0,0.1,-0.01,1.0,99.0,25.0,24,0.0,30.08,1050.0,,,82.0,,,,,0.0,0.0,,,,,,,,,,,,,,,,,,,0.0,78.0,0.0,0.0,30.3,0.0,,0.0,2.9,,,42.0,0.0,0.0,-0.0,10.4,8.4,,,,,115.0,94.0,117.0,92.0,114.0,99.0,114.0,89.0,,,7.0,1.0,,2.9,4.0,0.0,,,0.653,0.858,+0.0,77.8,,,,,,75.2,172.4,,,,,239.0,201.2,242.6,197.6,237.2,210.2,237.2,192.2,,,172.04,0.0,239.0,163.8,97.2,0.0,0.5903333333333334,0.0,381.2,True,2026-04-14 00:49:08
77.06,1,9,2026-04-14 00:50:18,37.05899,-120.86836,153.0,0.0,169.1,-12.5,,,,,0.0,10.9,-0.8,9.7,0.0,-24.0,0.1,-0.01,1.0,99.0,58.0,24,0.0,30.08,1051.0,,,82.0,,,,,0.0,0.0,,,,,,,,,,,,,,,,,,,0.0,78.0,0.0,0.0,30.3,0.0,,0.0,2.9,,,42.0,0.0,0.0,0.0,10.4,8.4,,,,,115.0,94.0,117.0,92.0,114.0,99.0,114.0,89.0,,,7.0,1.0,,2.9,4.0,0.0,,,0.653,0.858,+0.0,77.8,,,,,,75.2,172.4,,,,,239.0,201.2,242.6,197.6,237.2,210.2,237.2,192.2,,,172.04,0.0,239.0,163.8,97.2,0.0,0.5903333333333334,0.0,381.2,True,2026-04-14 00:49:08
78.06,1,9,2026-04-14 00:50:19,37.05899,-120.86836,153.0,0.0,169.1,-12.5,,,,,0.0,10.9,-0.8,9.8,0.0,-23.0,0.1,-0.01,1.0,99.0,65.0,24,0.0,30.08,1052.0,,,82.0,,,,,0.0,0.0,,,,,,,,,,,,,,,,,,,0.0,78.0,0.0,0.0,30.3,0.0,,0.0,2.9,,,42.0,0.0,0.0,0.0,10.4,8.4,,,,,115.0,94.0,117.0,92.0,114.0,99.0,114.0,89.0,,,7.0,1.0,,2.9,4.0,0.0,,,0.653,0.858,+0.0,77.8,,,,,,75.2,172.4,,,,,239.0,201.2,242.6,197.6,237.2,210.2,237.2,192.2,,,172.04,0.0,239.0,163.8,97.2,0.0,0.5903333333333334,0.0,381.2,True,2026-04-14 00:49:08
79.06,1,9,2026-04-14 00:50:20,37.05899,-120.86836,152.0,0.0,169.1,-12.5,,,,,0.0,10.9,-0.8,9.8,0.0,-22.0,0.1,-0.01,1.0,99.0,51.0,24,0.0,30.08,1053.0,,,82.0,,,,,0.0,0.0,,,,,,,,,,,,,,,,,,,0.0,78.0,0.0,0.0,30.3,0.0,,0.0,2.9,,,42.0,0.0,0.0,0.0,10.4,8.4,,,,,115.0,95.0,117.0,92.0,115.0,99.0,114.0,89.0,,,7.0,1.0,,2.9,4.0,0.0,,,0.653,0.858,+0.0,77.8,,,,,,75.2,172.4,,,,,239.0,203.0,242.6,197.6,239.0,210.2,237.2,192.2,,,172.04,0.0,239.45,164.25,97.2,0.0,0.5903333333333334,0.0,381.2,True,2026-04-14 00:49:08
80.06,1,9,2026-04-14 00:50:21,37.05899,-120.86836,152.0,0.0,169.1,-12.5,,,,,0.0,10.9,-0.8,9.8,0.0,-22.0,0.1,-0.01,1.0,99.0,14.0,24,0.0,30.08,1053.0,,,82.0,,,,,0.0,0.0,,,,,,,,,,,,,,,,,,,0.0,78.0,0.0,0.0,30.3,0.0,,0.0,2.9,,,42.0,0.0,0.0,0.0,10.4,8.4,,,,,115.0,94.0,117.0,92.0,114.0,99.0,114.0,89.0,,,7.0,1.0,,2.9,4.0,0.0,,,0.653,0.858,+0.0,77.8,,,,,,75.2,172.4,,,,,239.0,201.2,242.6,197.6,237.2,210.2,237.2,192.2,,,172.04,0.0,239.0,163.8,97.2,0.0,0.5903333333333334,0.0,381.2,True,2026-04-14 00:49:08
81.06,1,9,2026-04-14 00:50:22,37.05899,-120.86836,152.0,0.0,169.1,-12.5,,,,,0.0,10.9,-0.8,9.7,0.0,-22.0,0.1,-0.01,1.0,99.0,9.0,24,0.0,30.08,1053.0,,,82.0,,,,,0.0,0.0,,,,,,,,,,,,,,,,,,,0.0,78.0,0.0,0.0,30.3,0.0,,0.0,2.9,,,42.0,0.0,0.0,0.0,10.4,8.4,,,,,115.0,95.0,117.0,92.0,114.0,99.0,114.0,89.0,,,7.0,1.0,,2.9,4.0,0.0,,,0.653,0.857,+0.0,77.8,,,,,,75.2,172.4,,,,,239.0,203.0,242.6,197.6,237.2,210.2,237.2,192.2,,,172.04,0.0,239.0,163.8,97.2,0.0,0.5903333333333334,0.0,381.2,True,2026-04-14 00:49:08
82.06,1,9,2026-04-14 00:50:23,37.05899,-120.86836,151.0,0.0,169.1,-12.5,,,,,0.0,10.8,-0.8,9.7,0.0,-22.0,0.1,-0.01,1.0,99.0,-7.0,24,0.0,30.08,1062.0,,,82.0,,,,,0.0,0.0,,,,,,,,,,,,,,,,,,,0.0,78.0,0.0,0.0,30.3,0.0,,0.0,2.9,,,42.0,0.0,0.0,-0.0,10.4,8.4,,,,,115.0,95.0,117.0,92.0,114.0,99.0,114.0,89.0,,,7.0,1.0,,2.9,4.0,0.0,,,0.653,0.858,+0.0,77.8,,,,,,75.2,172.4,,,,,239.0,203.0,242.6,197.6,237.2,210.2,237.2,192.2,,,172.04,0.0,239.0,163.8,97.2,0.0,0.5903333333333334,0.0,381.2,True,2026-04-14 00:49:08
83.06,1,9,2026-04-14 00:50:24,37.05899,-120.86836,151.0,0.0,169.1,-12.5,,,,,0.0,10.9,-0.8,9.8,0.0,-22.0,0.1,-0.01,1.0,99.0,-3.0,24,0.0,30.08,1062.0,,,82.0,,,,,0.0,0.0,,,,,,,,,,,,,,,,,,,0.0,73.0,96.0,96.0,30.2,0.0,,0.0,8.3,,,42.0,0.0,0.0,-0.2,10.4,8.4,,,,,114.0,93.0,116.0,90.0,113.0,97.0,112.0,86.0,,,7.0,1.0,,8.3,4.0,0.0,,,0.653,0.856,+0.0,73.4,,,,,,75.2,163.4,,,,,237.2,199.4,240.8,194.0,235.4,206.6,233.6,186.8,,,164.12,96.0,236.75,161.55,88.2,0.0,0.5903333333333334,0.0,381.2,True,2026-04-14 00:49:08
84.06,1,9,2026-04-14 00:50:25,37.05899,-120.86836,150.0,0.0,169.1,-12.5,,,,,0.0,10.8,-0.8,9.9,0.0,-22.0,0.1,-0.01,1.0,99.0,8.0,24,0.0,30.08,1062.0,,,82.0,,,,,0.0,0.0,,,,,,,,,,,,,,,,,,,4.0,74.0,106.0,106.0,30.0,0.0,,0.0,10.7,,,42.0,0.0,0.0,-0.3,10.4,8.4,,,,,114.0,93.0,116.0,90.0,113.0,97.0,112.0,87.0,,,7.0,1.0,,10.7,4.0,0.0,,,0.653,0.856,+3.5,73.6,,,,,,75.2,165.2,,,,,237.2,199.4,240.8,194.0,235.4,206.6,233.6,188.6,,,164.48,106.0,236.75,161.55,89.99999999999999,0.0,0.5903333333333334,0.0,381.2,True,2026-04-14 00:49:08
85.06,1,9,2026-04-14 00:50:26,37.05899,-120.86836,150.0,0.0,169.1,-12.5,,,,,0.0,10.8,-0.8,9.9,0.0,-22.0,0.1,-0.01,1.0,99.0,-14.0,24,0.0,30.08,1062.0,,,82.0,,,,,0.0,0.0,,,,,,,,,,,,,,,,,,,23.0,73.0,104.0,104.0,30.0,0.9,,0.9,9.1,,,42.0,0.0,0.0,-0.4,10.4,8.4,,,,,113.0,92.0,116.0,90.0,113.0,96.0,112.0,87.0,,,7.0,1.0,,9.1,4.0,0.0,,,0.653,0.854,+23.4,73.5,,,,,,75.2,163.4,,,,,235.4,197.6,240.8,194.0,235.4,204.8,233.6,188.6,,,164.3,104.0,236.29999999999998,161.09999999999997,88.2,0.000125,0.5903333333333334,0.0,381.2,True,2026-04-14 00:49:08
86.06,1,9,2026-04-14 00:50:27,37.05899,-120.86836,150.0,0.0,169.1,-12.5,,,,,0.0,10.8,-0.8,10.0,0.0,-22.0,0.2,-0.01,1.0,99.0,15.0,24,0.0,30.08,1062.0,,,82.0,,,,,0.0,0.0,,,,,,,,,,,,,,,,,,,30.0,74.0,104.0,104.0,29.8,1.4,,1.4,6.6,,,42.0,0.0,0.0,-0.4,10.4,8.4,,,,,113.0,92.0,116.0,90.0,113.0,96.0,112.0,86.0,,,7.0,1.0,,6.6,4.0,0.0,,,0.653,0.854,+30.2,73.6,,,7.0,L,,75.2,165.2,,,,,235.4,197.6,240.8,194.0,235.4,204.8,233.6,186.8,,,164.48,104.0,236.29999999999998,161.09999999999997,89.99999999999999,0.00044444444444444447,0.5903333333333334,0.0,381.2,True,2026-04-14 00:49:08
87.06,1,9,2026-04-14 00:50:28,37.05899,-120.86836,149.0,0.0,169.1,-12.5,,,,,0.0,10.8,-0.7,10.0,0.0,-22.0,0.1,-0.01,1.0,99.0,26.0,24,0.0,30.08,1062.0,,,82.0,,,,,0.0,0.0,,,,,,,,,,,,,,,,,,,31.0,74.0,104.0,104.0,29.8,1.3,,1.3,6.4,,,42.0,0.0,0.0,-0.5,10.4,8.4,,,,,113.0,92.0,116.0,90.0,113.0,95.0,112.0,86.0,,,7.0,0.0,,6.4,4.0,0.0,,,0.653,0.854,+31.4,73.5,,,10.0,L,,75.2,165.2,,,,,235.4,197.6,240.8,194.0,235.4,203.0,233.6,186.8,,,164.3,104.0,236.29999999999998,161.09999999999997,89.99999999999999,0.0008194444444444445,0.5903333333333334,0.0,381.2,True,2026-04-14 00:49:08
88.06,1,9,2026-04-14 00:50:29,37.05899,-120.86836,149.0,0.0,169.1,-12.5,,,,,0.0,10.8,-0.7,10.0,0.0,-21.0,0.1,-0.01,1.0,99.0,11.0,24,0.0,30.08,1062.0,,,82.0,,,,,0.0,0.0,,,,,,,,,,,,,,,,,,,31.0,73.0,104.0,104.0,29.8,1.2,,1.2,7.2,,,42.0,0.0,0.0,-0.5,10.4,8.4,,,,,113.0,92.0,116.0,90.0,112.0,94.0,112.0,86.0,,,7.0,0.0,,7.2,4.0,0.0,,,0.653,0.853,+30.7,73.4,,,10.0,L,,75.2,163.4,,,,,235.4,197.6,240.8,194.0,233.6,201.2,233.6,186.8,,,164.12,104.0,235.85,160.64999999999998,88.2,0.0011666666666666668,0.5903333333333334,0.0,381.2,True,2026-04-14 00:49:08
89.06,1,9,2026-04-14 00:50:30,37.05899,-120.86836,149.0,0.0,169.1,-12.5,,,,,0.0,10.9,-0.7,10.0,0.0,-21.0,0.1,-0.01,1.0,99.0,-21.0,24,0.0,30.08,1064.0,,,82.0,,,,,0.0,0.0,,,,,,,,,,,,,,,,,,,30.0,73.0,100.0,100.0,29.8,1.3,,1.3,7.3,,,42.0,0.0,0.0,-0.5,10.4,8.4,,,,,113.0,91.0,115.0,89.0,112.0,94.0,112.0,86.0,,,7.0,0.0,,7.3,4.0,0.0,,,0.653,0.853,+30.0,73.4,,,10.0,L,,75.2,163.4,,,,,235.4,195.8,239.0,192.2,233.6,201.2,233.6,186.8,,,164.12,100.0,235.4,160.2,88.2,0.0015138888888888888,0.5903333333333334,0.0,381.2,True,2026-04-14 00:49:08
90.06,1,9,2026-04-14 00:50:31,37.05899,-120.86836,148.0,0.0,169.1,-12.5,,,,,0.0,10.8,-0.8,10.0,0.0,-21.0,0.1,-0.01,1.0,99.0,-30.0,24,0.0,30.08,1064.0,,,82.0,,,,,0.0,0.0,,,,,,,,,,,,,,,,,,,31.0,74.0,103.0,103.0,29.8,1.7,,1.7,4.2,,,42.0,0.0,0.0,-0.5,10.4,8.4,,,,,113.0,92.0,116.0,90.0,113.0,94.0,112.0,86.0,,,7.0,0.0,,4.2,4.0,0.0,,,0.652,0.852,+30.9,73.6,,,12.0,L,,75.2,165.2,,,,,235.4,197.6,240.8,194.0,235.4,201.2,233.6,186.8,,,164.48,103.0,236.29999999999998,161.09999999999997,89.99999999999999,0.0019305555555555556,0.5903333333333334,0.0,381.2,True,2026-04-14 00:49:08
91.06,1,9,2026-04-14 00:50:32,37.05899,-120.86836,148.0,0.0,169.1,-12.5,,,,,0.0,10.8,-0.8,10.0,0.0,-21.0,0.1,-0.01,1.0,99.0,-42.0,24,0.0,30.08,1064.0,,,82.0,,,,,0.0,0.0,,,,,,,,,,,,,,,,,,,32.0,74.0,106.0,106.0,29.8,2.0,,2.0,4.0,,,42.0,0.0,0.0,-0.5,10.4,8.4,,,,,113.0,91.0,116.0,90.0,112.0,94.0,112.0,86.0,,,7.0,0.0,,4.0,4.0,0.0,,,0.653,0.852,+31.8,73.7,,,14.0,L,,75.2,165.2,,,,,235.4,195.8,240.8,194.0,233.6,201.2,233.6,186.8,,,164.66000000000003,106.0,235.85,160.64999999999998,89.99999999999999,0.0024444444444444444,0.5903333333333334,0.0,381.2,True,2026-04-14 00:49:08
92.06,1,9,2026-04-14 00:50:33,37.05899,-120.86836,147.0,0.0,169.1,-12.5,,,,,0.0,10.8,-0.8,10.0,0.0,-21.0,0.1,-0.02,1.0,99.0,-38.0,24,0.0,30.08,1064.0,,,82.0,,,,,0.0,0.0,,,,,,,,,,,,,,,,,,,18.0,78.0,102.0,102.0,29.9,1.7,,1.7,4.1,,,42.0,0.0,0.0,-0.4,10.4,8.4,,,,,114.0,93.0,117.0,92.0,114.0,96.0,113.0,88.0,,,7.0,0.0,,4.1,4.0,0.0,,,0.653,0.851,+18.2,77.9,,,15.0,L,,75.2,172.4,,,,,237.2,199.4,242.6,197.6,237.2,204.8,235.4,190.4,,,172.22,102.0,238.10000000000002,162.90000000000003,97.2,0.002958333333333333,0.5903333333333334,0.0,381.2,True,2026-04-14 00:49:08
93.06,1,9,2026-04-14 00:50:34,37.05899,-120.86836,147.0,0.1,169.1,-12.5,,,,,0.0,10.8,-0.8,9.9,0.0,-21.0,0.1,-0.02,1.0,99.0,-15.0,24,0.0,30.08,1064.0,,,82.0,,,,,0.0,0.0,,,,,,,,,,,,,,,,,,,6.0,78.0,0.0,0.0,30.1,1.7,,1.7,3.8,,,42.0,0.0,0.0,-0.2,10.4,8.4,,,,,114.0,93.0,117.0,91.0,114.0,96.0,113.0,88.0,,,7.0,0.0,,3.8,4.0,0.0,,,0.653,0.85,+5.8,77.9,,,,,,75.2,172.4,,,,,237.2,199.4,242.6,195.8,237.2,204.8,235.4,190.4,,,172.22,0.0,238.10000000000002,162.90000000000003,97.2,0.0034305555555555556,0.6746666666666667,0.05882352941176471,381.2,True,2026-04-14 00:49:08
94.06,1,9,2026-04-14 00:50:35,37.05899,-120.86836,147.0,0.1,169.1,-12.5,,,,,0.0,10.8,-0.7,10.0,0.0,-21.0,0.1,-0.02,1.0,99.0,-2.0,24,0.0,30.08,1064.0,,,82.0,,,,,0.0,0.0,,,,,,,,,,,,,,,,,,,2.0,78.0,0.0,0.0,30.1,1.7,,1.7,3.4,,,42.0,0.0,0.0,-0.1,10.4,8.4,,,,,114.0,93.0,117.0,91.0,114.0,96.0,113.0,88.0,,,7.0,0.0,,3.4,4.0,0.0,,,0.653,0.851,+2.5,77.9,,,,,,75.2,172.4,,,,,237.2,199.4,242.6,195.8,237.2,204.8,235.4,190.4,,,172.22,0.0,238.10000000000002,162.90000000000003,97.2,0.0039027777777777776,0.8433333333333334,0.05882352941176471,381.2,True,2026-04-14 00:49:08
95.06,1,9,2026-04-14 00:50:36,37.05898,-120.86836,146.0,0.0,169.1,-12.5,,,,,0.0,10.8,-0.8,9.9,0.0,-21.0,0.1,-0.01,1.0,99.0,-20.0,24,0.0,30.08,1074.0,,,82.0,,,,,0.0,0.0,,,,,,,,,,,,,,,,,,,1.0,78.0,0.0,0.0,30.1,0.0,,0.0,3.0,,,42.0,0.0,0.0,-0.1,10.4,8.4,,,,,114.0,93.0,117.0,91.0,114.0,96.0,113.0,88.0,,,7.0,0.0,,3.0,4.0,0.0,,,0.653,0.851,+1.1,77.9,,,,,,75.2,172.4,,,,,237.2,199.4,242.6,195.8,237.2,204.8,235.4,190.4,,,172.22,0.0,238.10000000000002,162.90000000000003,97.2,0.004138888888888889,0.9276666666666668,0.0,381.2,True,2026-04-14 00:49:08
96.06,1,9,2026-04-14 00:50:37,37.05898,-120.86836,146.0,0.1,169.1,-12.5,,,,,0.0,10.8,-0.8,9.9,0.0,-21.0,0.1,-0.01,1.0,99.0,-29.0,24,0.0,30.08,1074.0,,,82.0,,,,,0.0,0.0,,,,,,,,,,,,,,,,,,,0.0,78.0,0.0,0.0,30.3,0.0,,0.0,2.6,,,42.0,0.0,0.0,-0.1,10.4,8.4,,,,,114.0,93.0,116.0,91.0,114.0,96.0,113.0,88.0,,,7.0,0.0,,2.6,4.0,0.0,,,0.653,0.851,+0.5,77.9,,,,,,75.2,172.4,,,,,237.2,199.4,240.8,195.8,237.2,204.8,235.4,190.4,,,172.22,0.0,237.65000000000003,162.45000000000005,97.2,0.004138888888888889,1.012,0.0,381.2,True,2026-04-14 00:49:08
97.06,1,9,2026-04-14 00:50:38,37.05898,-120.86836,146.0,0.0,169.1,-12.5,,,,,0.0,10.8,-0.8,9.9,0.0,-21.0,0.1,-0.01,1.0,99.0,4.0,24,0.0,30.08,1074.0,,,82.0,,,,,0.0,0.0,,,,,,,,,,,,,,,,,,,0.0,78.0,0.0,0.0,30.3,0.0,,0.0,2.2,,,42.0,0.0,0.0,-0.0,10.4,8.4,,,,,114.0,93.0,116.0,91.0,113.0,96.0,113.0,88.0,,,7.0,0.0,,2.2,4.0,0.0,,,0.653,0.85,+0.1,77.9,,,,,,75.2,172.4,,,,,237.2,199.4,240.8,195.8,235.4,204.8,235.4,190.4,,,172.22,0.0,237.2,162.0,97.2,0.004138888888888889,1.0963333333333334,0.0,381.2,True,2026-04-14 00:49:08
98.06,1,9,2026-04-14 00:50:39,37.05898,-120.86835,135.0,0.0,169.1,-12.5,,,,,0.0,10.8,-0.8,9.9,0.0,-21.0,0.1,-0.01,1.0,99.0,-1.0,24,0.0,30.08,1074.0,,,82.0,,,,,0.0,0.0,,,,,,,,,,,,,,,,,,,0.0,78.0,0.0,0.0,30.3,0.0,,0.0,2.5,,,42.0,0.0,0.0,-0.0,10.4,8.4,,,,,114.0,93.0,116.0,91.0,113.0,96.0,113.0,88.0,,,7.0,0.0,,2.5,4.0,0.0,,,0.653,0.85,+0.0,77.9,,,,,,75.2,172.4,,,,,237.2,199.4,240.8,195.8,235.4,204.8,235.4,190.4,,,172.22,0.0,237.2,162.0,97.2,0.004138888888888889,1.0963333333333334,0.0,381.2,True,2026-04-14 00:49:08
99.06,1,9,2026-04-14 00:50:40,37.05898,-120.86835,134.0,0.0,169.1,-12.5,,,,,0.0,10.8,-0.8,9.9,0.0,-21.0,0.1,-0.01,1.0,99.0,-1.0,24,0.0,30.08,1074.0,,,82.0,,,,,0.0,0.0,,,,,,,,,,,,,,,,,,,0.0,78.0,0.0,0.0,30.3,0.0,,0.0,2.3,,,42.0,0.0,0.0,-0.0,10.4,8.4,,,,,114.0,94.0,117.0,92.0,114.0,96.0,113.0,88.0,,,7.0,0.0,,2.3,4.0,0.0,,,0.653,0.85,+0.0,77.9,,,,,,75.2,172.4,,,,,237.2,201.2,242.6,197.6,237.2,204.8,235.4,190.4,,,172.22,0.0,238.10000000000002,162.90000000000003,97.2,0.004138888888888889,1.0963333333333334,0.0,381.2,True,2026-04-14 00:49:08
100.06,1,9,2026-04-14 00:50:41,37.05898,-120.86835,134.0,0.0,169.1,-12.5,,,,,0.0,10.8,-0.7,9.9,0.0,-21.0,0.1,-0.01,1.0,99.0,-32.0,24,0.0,30.08,1074.0,,,82.0,,,,,0.0,0.0,,,,,,,,,,,,,,,,,,,0.0,78.0,0.0,0.0,30.3,0.4,,0.4,4.8,,,42.0,0.0,0.0,-0.0,10.4,8.4,,,,,114.0,93.0,116.0,91.0,113.0,96.0,113.0,88.0,,,7.0,0.0,,4.8,4.0,0.0,,,0.653,0.85,+0.0,77.9,,,,,,75.2,172.4,,,,,237.2,199.4,240.8,195.8,235.4,204.8,235.4,190.4,,,172.22,0.0,237.2,162.0,97.2,0.004194444444444444,1.0963333333333334,0.0,381.2,True,2026-04-14 00:49:08
101.06,1,9,2026-04-14 00:50:42,37.05898,-120.86835,133.0,0.0,169.1,-12.5,,,,,0.0,10.8,-0.8,9.9,0.0,-21.0,0.1,-0.01,1.0,99.0,-45.0,24,0.0,30.08,1074.0,,,82.0,,,,,0.0,0.0,,,,,,,,,,,,,,,,,,,0.0,78.0,0.0,0.0,30.3,1.1,,1.1,4.4,,,42.0,0.0,0.0,-0.0,10.4,8.4,,,,,114.0,93.0,116.0,91.0,113.0,96.0,113.0,88.0,,,7.0,0.0,,4.4,4.0,0.0,,,0.653,0.85,+0.0,77.9,,,,,,75.2,172.4,,,,,237.2,199.4,240.8,195.8,235.4,204.8,235.4,190.4,,,172.22,0.0,237.2,162.0,97.2,0.004402777777777778,1.0963333333333334,0.0,381.2,True,2026-04-14 00:49:08
102.06,1,9,2026-04-14 00:50:43,37.05898,-120.86835,133.0,0.0,169.1,-12.5,,,,,0.0,10.8,-0.8,9.9,0.0,-21.0,0.2,-0.01,1.0,99.0,-19.0,24,0.0,30.08,1074.0,,,82.0,,,,,0.0,0.0,,,,,,,,,,,,,,,,,,,0.0,78.0,0.0,0.0,30.3,1.4,,1.4,4.2,,,42.0,0.0,0.0,-0.0,10.4,8.4,,,,,114.0,94.0,116.0,92.0,113.0,96.0,113.0,88.0,,,7.0,0.0,,4.2,4.0,0.0,,,0.653,0.85,+0.0,77.9,,,,,,75.2,172.4,,,,,237.2,201.2,240.8,197.6,235.4,204.8,235.4,190.4,,,172.22,0.0,237.2,162.0,97.2,0.00475,1.0963333333333334,0.0,381.2,True,2026-04-14 00:49:08
103.06,1,9,2026-04-14 00:50:44,37.05898,-120.86835,133.0,0.0,169.1,-12.5,,,,,0.0,10.8,-0.8,9.8,0.0,-21.0,0.2,-0.01,1.0,99.0,-14.0,24,0.0,30.08,1075.0,,,82.0,,,,,0.0,0.0,,,,,,,,,,,,,,,,,,,0.0,78.0,0.0,0.0,30.3,2.0,,2.0,5.9,,,42.0,0.0,0.0,-0.0,10.4,8.4,,,,,114.0,94.0,116.0,91.0,113.0,96.0,113.0,88.0,,,7.0,0.0,,5.9,4.0,0.0,,,0.653,0.85,+0.0,77.9,,,,,,75.2,172.4,,,,,237.2,201.2,240.8,195.8,235.4,204.8,235.4,190.4,,,172.22,0.0,237.2,162.0,97.2,0.005222222222222222,1.0963333333333334,0.0,381.2,True,2026-04-14 00:49:08
104.06,1,9,2026-04-14 00:50:45,37.05898,-120.86835,133.0,0.0,169.1,-12.5,,,,,0.0,10.8,-0.8,9.8,0.0,-21.0,0.1,-0.01,1.0,99.0,2.0,24,0.0,30.08,1075.0,,,82.0,,,,,0.0,0.0,,,,,,,,,,,,,,,,,,,0.0,78.0,0.0,0.0,30.3,3.1,,3.1,29.0,,,42.0,0.0,0.0,-0.0,10.4,8.4,,,,,114.0,94.0,116.0,92.0,113.0,96.0,113.0,88.0,,,7.0,0.0,,29.0,4.0,0.0,,,0.653,0.85,+0.0,77.9,,,,,,75.2,172.4,,,,,237.2,201.2,240.8,197.6,235.4,204.8,235.4,190.4,,,172.22,0.0,237.2,162.0,97.2,0.005930555555555555,1.0963333333333334,0.0,381.2,True,2026-04-14 00:49:08
105.06,2,9,2026-04-14 00:50:46,37.05898,-120.86836,134.0,0.1,169.1,-12.5,,,,,0.0,10.8,-0.8,9.9,0.0,-21.0,0.1,-0.01,1.0,99.0,-27.0,24,0.0,30.08,1075.0,,,82.0,,,,,0.0,0.0,,,,,,,,,,,,,,,,,,,0.0,78.0,0.0,0.0,30.3,3.9,,3.9,31.3,,,42.0,0.0,0.0,-0.0,10.4,8.4,,,,,114.0,94.0,116.0,92.0,113.0,96.0,113.0,88.0,,,7.0,0.0,,31.3,4.0,0.0,,,0.653,0.85,+0.0,77.9,,,,,,75.2,172.4,,,,,237.2,201.2,240.8,197.6,235.4,204.8,235.4,190.4,,,172.22,0.0,237.2,162.0,97.2,0.006902777777777778,1.1806666666666668,0.025641025641025644,381.2,True,2026-04-14 00:49:08
106.06,2,9,2026-04-14 00:50:47,37.05897,-120.86836,139.0,0.0,169.1,-12.5,,,,,0.0,10.8,-0.8,9.9,0.0,-21.0,0.1,-0.01,1.0,99.0,12.0,24,0.0,30.08,1084.0,,,82.0,,,,,0.0,0.0,,,,,,,,,,,,,,,,,,,0.0,78.0,0.0,0.0,30.3,3.3,,3.3,31.0,,,42.0,0.0,0.0,-0.0,10.4,8.4,,,,,114.0,94.0,116.0,92.0,113.0,96.0,113.0,88.0,,,7.0,0.0,,31.0,4.0,0.0,,,0.653,0.85,+0.0,77.9,,,,,,75.2,172.4,,,,,237.2,201.2,240.8,197.6,235.4,204.8,235.4,190.4,,,172.22,0.0,237.2,162.0,97.2,0.007902777777777778,1.2650000000000001,0.0,381.2,True,2026-04-14 00:49:08
107.06,2,9,2026-04-14 00:50:48,37.05896,-120.86837,135.0,0.0,169.1,-12.5,,,,,0.0,10.8,-0.8,9.9,0.0,-21.0,0.1,-0.01,1.0,99.0,23.0,24,0.0,30.08,1083.0,,,82.0,,,,,0.0,0.0,,,,,,,,,,,,,,,,,,,0.0,78.0,0.0,0.0,30.3,3.3,,3.3,30.7,,,42.0,0.0,0.0,-0.0,10.4,8.4,,,,,114.0,94.0,116.0,92.0,113.0,96.0,112.0,88.0,,,7.0,0.0,,30.7,4.0,0.0,,,0.653,0.85,+0.0,77.9,,,,,,75.2,172.4,,,,,237.2,201.2,240.8,197.6,235.4,204.8,233.6,190.4,,,172.22,0.0,236.75,161.55,97.2,0.008819444444444444,1.2650000000000001,0.0,381.2,True,2026-04-14 00:49:08
108.06,2,9,2026-04-14 00:50:49,37.05896,-120.86837,135.0,0.0,169.1,-12.5,,,,,0.0,10.8,-0.8,9.9,0.0,-21.0,0.1,-0.01,1.0,99.0,7.0,24,0.0,30.08,1083.0,,,82.0,,,,,0.0,0.0,,,,,,,,,,,,,,,,,,,0.0,78.0,0.0,0.0,30.3,2.9,,2.9,30.4,,,42.0,0.0,0.0,-0.1,10.4,8.4,,,,,113.0,94.0,116.0,92.0,113.0,96.0,112.0,88.0,,,7.0,0.0,,30.4,4.0,0.0,,,0.653,0.85,+0.0,77.9,,,,,,75.2,172.4,,,,,235.4,201.2,240.8,197.6,235.4,204.8,233.6,190.4,,,172.22,0.0,236.29999999999998,161.09999999999997,97.2,0.009680555555555555,1.2650000000000001,0.0,381.2,True,2026-04-14 00:49:08
109.06,2,9,2026-04-14 00:50:50,37.05896,-120.86837,135.0,0.1,169.1,-12.5,,,,,0.0,10.8,-0.8,9.9,0.0,-21.0,0.1,-0.01,1.0,99.0,26.0,24,0.0,30.08,1083.0,,,82.0,,,,,0.0,0.0,,,,,,,,,,,,,,,,,,,0.0,78.0,0.0,0.0,30.3,2.5,,2.5,30.2,,,42.0,0.0,0.0,-0.1,10.4,8.4,,,,,113.0,94.0,116.0,93.0,113.0,96.0,112.0,88.0,,,7.0,0.0,,30.2,4.0,0.0,,,0.653,0.85,+0.0,77.9,,,,,,75.2,172.4,,,,,235.4,201.2,240.8,199.4,235.4,204.8,233.6,190.4,,,172.22,0.0,236.29999999999998,161.09999999999997,97.2,0.010430555555555556,1.3493333333333333,0.04,381.2,True,2026-04-14 00:49:08
110.06,2,9,2026-04-14 00:50:51,37.05896,-120.86837,135.0,0.1,169.1,-12.5,,,,,0.0,10.8,-0.8,9.8,0.0,-21.0,0.1,-0.01,1.0,99.0,-5.0,24,0.0,30.08,1075.0,,,82.0,,,,,0.0,0.0,,,,,,,,,,,,,,,,,,,0.0,78.0,0.0,0.0,30.3,2.5,,2.5,30.0,,,42.0,0.0,0.0,-0.1,10.4,8.4,,,,,114.0,94.0,116.0,93.0,113.0,96.0,112.0,88.0,,,7.0,0.0,,30.0,4.0,0.0,,,0.653,0.85,+0.0,77.9,,,,,,75.2,172.4,,,,,237.2,201.2,240.8,199.4,235.4,204.8,233.6,190.4,,,172.22,0.0,236.75,161.55,97.2,0.011125,1.518,0.04,381.2,True,2026-04-14 00:49:08
111.06,2,9,2026-04-14 00:50:52,37.05896,-120.86836,135.0,0.1,169.1,-12.5,,,,,0.0,10.9,-0.8,9.8,0.0,-21.0,0.1,-0.01,1.0,99.0,-6.0,24,0.0,30.08,1075.0,,,82.0,,,,,0.0,0.0,,,,,,,,,,,,,,,,,,,0.0,78.0,0.0,0.0,30.3,2.5,,2.5,29.8,,,42.0,0.0,0.0,-0.1,10.4,8.4,,,,,113.0,94.0,116.0,93.0,113.0,96.0,112.0,88.0,,,7.0,0.0,,29.8,4.0,0.0,,,0.653,0.85,+0.0,77.9,,,,,,75.2,172.4,,,,,235.4,201.2,240.8,199.4,235.4,204.8,233.6,190.4,,,172.22,0.0,236.29999999999998,161.09999999999997,97.2,0.011819444444444445,1.6866666666666668,0.04,381.2,True,2026-04-14 00:49:08
112.06,2,9,2026-04-14 00:50:53,37.05896,-120.86837,135.0,0.0,169.1,-12.5,,,,,0.0,10.8,-0.8,9.8,0.0,-21.0,0.1,-0.01,1.0,99.0,-12.0,24,0.0,30.08,1075.0,,,82.0,,,,,0.0,0.0,,,,,,,,,,,,,,,,,,,0.0,78.0,0.0,0.0,30.3,2.5,,2.5,29.6,,,42.0,0.0,0.0,-0.1,10.4,8.4,,,,,113.0,94.0,116.0,93.0,112.0,96.0,112.0,88.0,,,7.0,0.0,,29.6,4.0,0.0,,,0.653,0.85,+0.0,77.9,,,,,,75.2,172.4,,,,,235.4,201.2,240.8,199.4,233.6,204.8,233.6,190.4,,,172.22,0.0,235.85,160.64999999999998,97.2,0.012513888888888889,1.771,0.0,381.2,True,2026-04-14 00:49:08
113.06,2,9,2026-04-14 00:50:54,37.05896,-120.86836,135.0,0.1,169.1,-12.5,,,,,0.0,10.8,-0.8,9.8,0.0,-21.0,0.1,-0.02,1.0,99.0,-24.0,24,0.0,30.08,1084.0,,,82.0,,,,,0.0,0.0,,,,,,,,,,,,,,,,,,,0.0,75.0,0.0,0.0,30.3,2.5,,2.5,29.4,,,42.0,0.0,0.0,-0.1,10.4,8.4,,,,,112.0,92.0,115.0,92.0,112.0,95.0,111.0,87.0,,,7.0,0.0,,29.4,4.0,0.0,,,0.653,0.848,+0.0,75.0,,,,,,75.2,167.0,,,,,233.6,197.6,239.0,197.6,233.6,203.0,231.8,188.6,,,167.0,0.0,234.5,159.3,91.8,0.013208333333333334,1.8553333333333333,0.04,381.2,True,2026-04-14 00:49:08
114.06,2,9,2026-04-14 00:50:55,37.05896,-120.86837,135.0,0.0,169.1,-12.5,,,,,0.0,10.9,-0.8,9.9,0.0,-21.0,0.1,-0.01,1.0,99.0,-2.0,24,0.0,30.08,1084.0,,,82.0,,,,,0.0,0.0,,,,,,,,,,,,,,,,,,,5.0,74.0,98.0,98.0,30.2,2.3,,2.3,29.4,,,42.0,0.0,0.0,-0.3,10.4,8.4,,,,,112.0,92.0,114.0,91.0,111.0,94.0,110.0,86.0,,,6.0,0.0,,29.4,4.0,0.0,,,0.653,0.85,+4.8,73.7,,,,,,75.2,165.2,,,,,233.6,197.6,237.2,195.8,231.8,201.2,230.0,186.8,,,164.66000000000003,98.0,233.15,157.95,89.99999999999999,0.013875,1.9396666666666667,0.0,381.2,True,2026-04-14 00:49:08
115.06,2,9,2026-04-14 00:50:56,37.05896,-120.86837,136.0,0.0,169.1,-12.5,,,,,0.0,10.8,-0.8,9.9,0.0,-21.0,0.1,-0.01,1.0,99.0,12.0,24,0.0,30.08,1084.0,,,82.0,,,,,0.0,0.0,,,,,,,,,,,,,,,,,,,29.0,74.0,107.0,107.0,30.0,2.0,,2.0,29.3,,,42.0,0.0,0.0,-0.4,10.4,8.4,,,,,112.0,92.0,114.0,91.0,111.0,94.0,111.0,86.0,,,6.0,0.0,,29.3,4.0,0.0,,,0.652,0.85,+29.0,73.7,,,8.0,L,,75.2,165.2,,,,,233.6,197.6,237.2,195.8,231.8,201.2,231.8,186.8,,,164.66000000000003,107.0,233.6,158.39999999999998,89.99999999999999,0.014472222222222221,1.9396666666666667,0.0,381.2,True,2026-04-14 00:49:08
116.06,2,9,2026-04-14 00:50:57,37.05896,-120.86837,137.0,0.1,169.1,-12.5,,,,,0.0,10.8,-0.8,10.0,0.0,-21.0,0.1,-0.01,1.0,99.0,14.0,24,0.0,30.08,1084.0,,,82.0,,,,,0.0,0.0,,,,,,,,,,,,,,,,,,,32.0,74.0,107.0,107.0,30.0,1.6,,1.6,29.2,,,42.0,0.0,0.0,-0.4,10.4,8.4,,,,,112.0,92.0,114.0,91.0,111.0,94.0,110.0,86.0,,,6.0,0.0,,29.2,4.0,0.0,,,0.653,0.85,+32.3,73.7,,,13.0,L,,75.2,165.2,,,,,233.6,197.6,237.2,195.8,231.8,201.2,230.0,186.8,,,164.66000000000003,107.0,233.15,157.95,89.99999999999999,0.014972222222222222,2.024,0.0625,381.2,True,2026-04-14 00:49:08
117.06,2,9,2026-04-14 00:50:58,37.05896,-120.86837,138.0,0.1,169.1,-12.5,,,,,0.0,10.8,-0.8,10.0,0.0,-21.0,0.1,-0.01,1.0,99.0,24.0,24,0.0,30.08,1084.0,,,82.0,,,,,0.0,0.0,,,,,,,,,,,,,,,,,,,32.0,74.0,106.0,106.0,30.0,2.2,,2.2,24.9,,,42.0,0.0,0.0,-0.5,10.4,8.4,,,,,112.0,91.0,114.0,91.0,111.0,93.0,110.0,86.0,,,6.0,0.0,,24.9,4.0,0.0,,,0.653,0.85,+32.5,73.6,,,13.0,L,,75.2,165.2,,,,,233.6,195.8,237.2,195.8,231.8,199.4,230.0,186.8,,,164.48,106.0,233.15,157.95,89.99999999999999,0.0155,2.1926666666666668,0.045454545454545456,381.2,True,2026-04-14 00:49:08
