Session Time,GPS Fix Quality,Number of Satellites,GPS Date & Time,Latitude (deg),Longitude (deg),GPS Altitude (feet),Ground Speed (knots),Ground Track (deg),Mag Var (deg),Cross Track Error (NM),Destination Waypoint ID,Range to Destination (NM),Bearing to Destination (deg),System Time,Pitch (deg),Roll (deg),Magnetic Heading (deg),Indicated Airspeed (knots),Pressure Altitude (ft),Turn Rate (deg/s),Lateral Accel (g),Vertical Accel(g),Angle of Attack (%),Vertical Speed (ft/min),OAT (deg C),True Airspeed (knots),Barometer Setting (inHg),Density Altitude (ft),Wind Direction (deg),Wind Speed (knots),Heading Bug (deg),Altitude Bug (ft),Airspeed Bug (knots),Vertical Speed Bug (ft/min),Course (deg),CDI Source Type,CDI Source Port,CDI Scale (NM),CDI Deflection (%),Glideslope (%),AP Engaged,AP Roll Mode,AP Roll Force,AP Roll Position (steps),AP Roll Slip (bool),AP Pitch Force,AP Pitch Position (steps),AP Pitch Slip (bool),AP Yaw Force,AP Yaw Position,AP Yaw Slip (bool),Transponder Status,Transponder Reply (bool),Transponder Identing (bool),Transponder Code (octal),Oil Pressure (PSI),Oil Temp (deg C),RPM L,RPM R,Manifold Pressure (inHg),Fuel Flow 1 (gal/hr),Fuel Flow 2 (gal/hr),Total Fuel Flow (gal/hr),Fuel Pressure (PSI),Fuel Level L (gal),Fuel Level R (gal),Fuel Remaining (gal),Volts 1,Volts 2,Amps,Hobbs Time,Tach Time,Thermocouple 1 (deg C),Thermocouple 2 (deg C),Thermocouple 3 (deg C),Thermocouple 4 (deg C),CHT 4 (deg F),EGT 4 (deg F),CHT 3 (deg F),EGT 3 (deg F),CHT 2 (deg F),EGT 2 (deg F),CHT 1 (deg F),EGT 1 (deg F),Thermocouple 13 (deg C),Thermocouple 14 (deg C),ELEV POSITION (%),CO PPM PRESSURE (PSI),GP Input 3,FUEL PRESSURE (PSI),AILERN POSITION (%),CANOPY CONTACT (V),GP Input 7,GP Input 8,LEFT LEVEL (Sensor V),RIGHT LEVEL (Sensor V),OIL PRESSURE (PSI),OIL TEMPERATURE (deg C),GP Input 13,Contacts,Percent Power,EGT Leaning State,Unnamed: 103,RPM,Fuel Flow Integral,Max CHT,Engine Run,Flight ID
6.06,1,9,2026-01-03 22:45:42,37.08166,-121.59954,316.0,0.1,171.1,-12.6,0.0,0,0.0,0.0,0.0,11.4,0.6,229.5,0.0,328.0,-0.0,0.01,1.0,0.0,-43.0,17.0,0.0,29.88,651.0,0.0,0.0,325.0,0.0,0.0,0.0,0.0,0.0,0.0,0.0,0.0,0.0,0.0,0.0,0.0,0.0,0.0,0.0,0.0,0.0,0.0,0.0,0.0,0.0,0.0,0.0,0.0,0.0,15.0,0.0,0.0,30.0,0.0,0.0,0.0,0.0,0.0,0.0,38.7,0.0,0.0,-0.5,0.3,0.1,0.0,0.0,0.0,0.0,60.8,60.8,60.8,60.8,60.8,60.8,60.8,60.8,0.0,0.0,-2.0,254.4,0.0,0.0,2.0,4.998,0.0,0.0,0.659,0.907,0.0,15.3,0.0,0.0,0.0,0,0.0,0.0,0.0,285.8,True,2026-01-03 22:45:42 - Flight 1
7.06,1,9,2026-01-03 22:45:43,37.08165,-121.59956,309.0,0.0,171.1,-12.6,0.0,0,0.0,0.0,0.0,11.4,0.6,229.5,0.0,326.0,-0.0,0.01,1.0,0.0,-55.0,17.0,0.0,29.88,651.0,0.0,0.0,325.0,0.0,0.0,0.0,0.0,0.0,0.0,0.0,0.0,0.0,0.0,0.0,0.0,0.0,0.0,0.0,0.0,0.0,0.0,0.0,0.0,0.0,0.0,0.0,0.0,0.0,15.0,0.0,0.0,30.0,0.0,0.0,0.0,0.0,0.0,0.0,38.7,0.0,0.0,-0.5,0.3,0.1,0.0,0.0,0.0,0.0,60.8,60.8,60.8,60.8,60.8,60.8,60.8,60.8,0.0,0.0,-2.0,254.4,0.0,0.0,2.0,4.998,0.0,0.0,0.659,0.907,0.0,15.3,0.0,0.0,0.0,0,0.0,0.0,0.0,285.8,True,2026-01-03 22:45:42 - Flight 1
8.06,1,9,2026-01-03 22:45:44,37.08165,-121.59956,312.0,0.0,171.1,-12.6,0.0,0,0.0,0.0,0.0,11.4,0.6,229.5,0.0,326.0,-0.0,0.01,1.0,0.0,-27.0,17.0,0.0,29.88,651.0,0.0,0.0,325.0,0.0,0.0,0.0,0.0,0.0,0.0,0.0,0.0,0.0,0.0,0.0,0.0,0.0,0.0,0.0,0.0,0.0,0.0,0.0,0.0,0.0,0.0,0.0,0.0,0.0,15.0,0.0,0.0,30.0,0.0,0.0,0.0,0.0,0.0,0.0,38.7,0.0,0.0,-0.5,0.3,0.1,0.0,0.0,0.0,0.0,60.8,60.8,60.8,60.8,60.8,60.8,60.8,60.8,0.0,0.0,-2.0,254.4,0.0,0.0,2.0,4.998,0.0,0.0,0.659,0.906,0.0,15.3,0.0,0.0,0.0,0,0.0,0.0,0.0,285.8,True,2026-01-03 22:45:42 - Flight 1
9.06,1,9,2026-01-03 22:45:45,37.08165,-121.59957,314.0,0.0,171.1,-12.6,0.0,0,0.0,0.0,0.0,11.4,0.6,229.6,0.0,326.0,-0.0,0.01,1.0,0.0,-33.0,17.0,0.0,29.88,651.0,0.0,0.0,325.0,0.0,0.0,0.0,0.0,0.0,0.0,0.0,0.0,0.0,0.0,0.0,0.0,0.0,0.0,0.0,0.0,0.0,0.0,0.0,0.0,0.0,0.0,0.0,0.0,0.0,15.0,0.0,0.0,30.0,0.0,0.0,0.0,0.0,0.0,0.0,38.7,0.0,0.0,-0.5,0.3,0.1,0.0,0.0,0.0,0.0,60.8,60.8,60.8,60.8,60.8,60.8,60.8,60.8,0.0,0.0,-2.0,254.4,0.0,0.0,2.0,4.998,0.0,0.0,0.659,0.907,0.0,15.3,0.0,0.0,0.0,0,0.0,0.0,0.0,285.8,True,2026-01-03 22:45:42 - Flight 1
10.06,1,9,2026-01-03 22:45:46,37.08165,-121.59957,316.0,0.0,171.1,-12.6,0.0,0,0.0,0.0,0.0,11.4,0.6,229.6,0.0,326.0,-0.0,0.01,1.0,0.0,-10.0,17.0,0.0,29.88,648.0,0.0,0.0,325.0,0.0,0.0,0.0,0.0,0.0,0.0,0.0,0.0,0.0,0.0,0.0,0.0,0.0,0.0,0.0,0.0,0.0,0.0,0.0,0.0,0.0,0.0,0.0,0.0,0.0,15.0,0.0,0.0,30.0,0.0,0.0,0.0,0.0,0.0,0.0,38.7,0.0,0.0,-0.5,0.3,0.1,0.0,0.0,0.0,0.0,60.8,60.8,60.8,60.8,60.8,60.8,60.8,60.8,0.0,0.0,-2.0,254.4,0.0,0.0,2.0,4.998,0.0,0.0,0.659,0.907,0.0,15.3,0.0,0.0,0.0,0,0.0,0.0,0.0,285.8,True,2026-01-03 22:45:42 - Flight 1
11.06,1,9,2026-01-03 22:45:47,37.08165,-121.59957,319.0,0.0,171.1,-12.6,0.0,0,0.0,0.0,0.0,11.4,0.6,229.6,0.0,324.0,-0.0,0.01,1.0,0.0,-64.0,17.0,0.0,29.88,648.0,0.0,0.0,325.0,0.0,0.0,0.0,0.0,0.0,0.0,0.0,0.0,0.0,0.0,0.0,0.0,0.0,0.0,0.0,0.0,0.0,0.0,0.0,0.0,0.0,0.0,0.0,0.0,0.0,15.0,0.0,0.0,30.0,0.0,0.0,0.0,0.0,0.0,0.0,38.7,0.0,0.0,-0.6,0.3,0.1,0.0,0.0,0.0,0.0,60.8,60.8,60.8,60.8,60.8,60.8,60.8,60.8,0.0,0.0,-2.0,254.4,0.0,0.0,2.0,4.998,0.0,0.0,0.659,0.906,0.0,15.3,0.0,0.0,0.0,0,0.0,0.0,0.0,285.8,True,2026-01-03 22:45:42 - Flight 1
12.06,1,9,2026-01-03 22:45:48,37.08165,-121.59957,321.0,0.0,171.1,-12.6,0.0,0,0.0,0.0,0.0,11.4,0.6,229.6,0.0,322.0,0.0,0.01,1.0,0.0,-87.0,17.0,0.0,29.88,648.0,0.0,0.0,325.0,0.0,0.0,0.0,0.0,0.0,0.0,0.0,0.0,0.0,0.0,0.0,0.0,0.0,0.0,0.0,0.0,0.0,0.0,0.0,0.0,0.0,0.0,0.0,0.0,0.0,15.0,0.0,0.0,30.0,0.0,0.0,0.0,0.0,0.0,0.0,38.7,0.0,0.0,-0.6,0.3,0.1,0.0,0.0,0.0,0.0,60.8,60.8,60.8,60.8,60.8,60.8,60.8,60.8,0.0,0.0,-2.0,254.4,0.0,0.0,2.0,4.998,0.0,0.0,0.659,0.907,0.0,15.3,0.0,0.0,0.0,0,0.0,0.0,0.0,285.8,True,2026-01-03 22:45:42 - Flight 1
13.06,1,9,2026-01-03 22:45:49,37.08165,-121.59957,323.0,0.0,171.1,-12.6,0.0,0,0.0,0.0,0.0,11.4,0.6,229.6,0.0,322.0,0.0,0.01,1.0,0.0,-64.0,17.0,0.0,29.88,651.0,0.0,0.0,325.0,0.0,0.0,0.0,0.0,0.0,0.0,0.0,0.0,0.0,0.0,0.0,0.0,0.0,0.0,0.0,0.0,0.0,0.0,0.0,0.0,0.0,0.0,0.0,0.0,0.0,15.0,0.0,0.0,30.0,0.0,0.0,0.0,0.0,0.0,0.0,38.7,0.0,0.0,-0.6,0.3,0.1,0.0,0.0,0.0,0.0,60.8,60.8,60.8,60.8,60.8,60.8,60.8,60.8,0.0,0.0,-2.0,254.4,0.0,0.0,2.0,4.998,0.0,0.0,0.659,0.907,0.0,15.3,0.0,0.0,0.0,0,0.0,0.0,0.0,285.8,True,2026-01-03 22:45:42 - Flight 1
14.06,1,9,2026-01-03 22:45:50,37.08165,-121.59957,324.0,0.0,171.1,-12.6,0.0,0,0.0,0.0,0.0,11.4,0.6,229.6,0.0,322.0,-0.0,0.01,1.0,0.0,-55.0,17.0,0.0,29.88,651.0,0.0,0.0,325.0,0.0,0.0,0.0,0.0,0.0,0.0,0.0,0.0,0.0,0.0,0.0,0.0,0.0,0.0,0.0,0.0,0.0,0.0,0.0,0.0,0.0,0.0,0.0,0.0,0.0,15.0,0.0,0.0,30.0,0.0,0.0,0.0,0.0,0.0,0.0,38.7,0.0,0.0,-0.6,0.3,0.1,0.0,0.0,0.0,0.0,60.8,60.8,60.8,60.8,60.8,60.8,60.8,60.8,0.0,0.0,-2.0,254.4,0.0,0.0,2.0,4.998,0.0,0.0,0.659,0.906,0.0,15.3,0.0,0.0,0.0,0,0.0,0.0,0.0,285.8,True,2026-01-03 22:45:42 - Flight 1
15.06,1,9,2026-01-03 22:45:51,37.08165,-121.59958,325.0,0.0,171.1,-12.6,0.0,0,0.0,0.0,0.0,11.4,0.6,229.7,0.0,321.0,0.0,0.01,1.0,0.0,-45.0,17.0,0.0,29.88,650.0,0.0,0.0,325.0,0.0,0.0,0.0,0.0,0.0,0.0,0.0,0.0,0.0,0.0,0.0,0.0,0.0,0.0,0.0,0.0,0.0,0.0,0.0,0.0,0.0,0.0,0.0,0.0,0.0,15.0,0.0,0.0,30.0,0.0,0.0,0.0,0.0,0.0,0.0,38.7,0.0,0.0,-0.6,0.3,0.1,0.0,0.0,0.0,0.0,60.8,60.8,60.8,60.8,60.8,60.8,60.8,60.8,0.0,0.0,-2.0,254.4,0.0,0.0,2.0,4.998,0.0,0.0,0.659,0.905,0.0,15.3,0.0,0.0,0.0,0,0.0,0.0,0.0,285.8,True,2026-01-03 22:45:42 - Flight 1
16.06,1,9,2026-01-03 22:45:52,37.08165,-121.59958,326.0,0.0,171.1,-12.6,0.0,0,0.0,0.0,0.0,11.4,0.6,229.6,0.0,321.0,-0.0,0.01,1.0,0.0,-19.0,17.0,0.0,29.88,650.0,0.0,0.0,325.0,0.0,0.0,0.0,0.0,0.0,0.0,0.0,0.0,0.0,0.0,0.0,0.0,0.0,0.0,0.0,0.0,0.0,0.0,0.0,0.0,0.0,0.0,0.0,0.0,0.0,15.0,0.0,0.0,30.0,0.0,0.0,0.0,0.0,0.0,0.0,38.7,0.0,0.0,-0.6,0.3,0.1,0.0,0.0,0.0,0.0,60.8,60.8,60.8,60.8,60.8,60.8,60.8,60.8,0.0,0.0,-2.0,254.4,0.0,0.0,2.0,4.998,0.0,0.0,0.659,0.905,0.0,15.3,0.0,0.0,0.0,0,0.0,0.0,0.0,285.8,True,2026-01-03 22:45:42 - Flight 1
17.06,1,9,2026-01-03 22:45:53,37.08165,-121.59958,327.0,0.0,171.1,-12.6,0.0,0,0.0,0.0,0.0,11.3,0.6,229.6,0.0,321.0,-0.0,0.01,1.0,0.0,-3.0,17.0,0.0,29.88,650.0,0.0,0.0,325.0,0.0,0.0,0.0,0.0,0.0,0.0,0.0,0.0,0.0,0.0,0.0,0.0,0.0,0.0,0.0,0.0,0.0,0.0,0.0,0.0,0.0,0.0,0.0,0.0,0.0,15.0,0.0,0.0,30.0,0.0,0.0,0.0,0.0,0.0,0.0,38.7,0.0,0.0,-0.6,0.3,0.1,0.0,0.0,0.0,0.0,60.8,60.8,60.8,60.8,60.8,60.8,60.8,60.8,0.0,0.0,-2.0,254.4,0.0,0.0,2.0,4.998,0.0,0.0,0.659,0.905,0.0,15.3,0.0,0.0,0.0,0,0.0,0.0,0.0,285.8,True,2026-01-03 22:45:42 - Flight 1
18.06,1,9,2026-01-03 22:45:54,37.08165,-121.59958,329.0,0.0,171.1,-12.6,0.0,0,0.0,0.0,0.0,11.3,0.6,229.6,0.0,321.0,0.0,0.01,1.0,0.0,6.0,17.0,0.0,29.88,651.0,0.0,0.0,325.0,0.0,0.0,0.0,0.0,0.0,0.0,0.0,0.0,0.0,0.0,0.0,0.0,0.0,0.0,0.0,0.0,0.0,0.0,0.0,0.0,0.0,0.0,0.0,0.0,0.0,15.0,0.0,0.0,30.0,0.0,0.0,0.0,0.0,0.0,0.0,38.7,0.0,0.0,-0.6,0.3,0.1,0.0,0.0,0.0,0.0,60.8,60.8,60.8,60.8,60.8,60.8,60.8,60.8,0.0,0.0,-2.0,254.4,0.0,0.0,2.0,4.998,0.0,0.0,0.659,0.905,0.0,15.3,0.0,0.0,0.0,0,0.0,0.0,0.0,285.8,True,2026-01-03 22:45:42 - Flight 1
19.06,1,9,2026-01-03 22:45:55,37.08165,-121.59958,331.0,0.0,171.1,-12.6,0.0,0,0.0,0.0,0.0,11.3,0.6,229.6,0.0,321.0,0.0,0.01,1.0,0.0,-10.0,17.0,0.0,29.88,650.0,0.0,0.0,325.0,0.0,0.0,0.0,0.0,0.0,0.0,0.0,0.0,0.0,0.0,0.0,0.0,0.0,0.0,0.0,0.0,0.0,0.0,0.0,0.0,0.0,0.0,0.0,0.0,0.0,15.0,0.0,0.0,30.0,0.0,0.0,0.0,0.0,0.0,0.0,38.7,0.0,0.0,-0.6,0.3,0.1,0.0,0.0,0.0,0.0,60.8,60.8,60.8,60.8,60.8,60.8,60.8,60.8,0.0,0.0,-2.0,254.4,0.0,0.0,2.0,4.998,0.0,0.0,0.659,0.905,0.0,15.3,0.0,0.0,0.0,0,0.0,0.0,0.0,285.8,True,2026-01-03 22:45:42 - Flight 1
20.06,1,9,2026-01-03 22:45:56,37.08165,-121.59958,333.0,0.0,171.1,-12.6,0.0,0,0.0,0.0,0.0,11.3,0.6,229.6,0.0,321.0,-0.0,0.01,1.0,0.0,24.0,17.0,0.0,29.88,650.0,0.0,0.0,325.0,0.0,0.0,0.0,0.0,0.0,0.0,0.0,0.0,0.0,0.0,0.0,0.0,0.0,0.0,0.0,0.0,0.0,0.0,0.0,0.0,0.0,0.0,0.0,0.0,0.0,15.0,0.0,0.0,30.0,0.0,0.0,0.0,0.0,0.0,0.0,38.7,0.0,0.0,-0.6,0.3,0.1,0.0,0.0,0.0,0.0,60.8,60.8,60.8,60.8,60.8,60.8,60.8,60.8,0.0,0.0,-2.0,254.4,0.0,0.0,2.0,4.998,0.0,0.0,0.659,0.902,0.0,15.3,0.0,0.0,0.0,0,0.0,0.0,0.0,285.8,True,2026-01-03 22:45:42 - Flight 1
21.06,1,9,2026-01-03 22:45:57,37.08165,-121.59959,334.0,0.0,171.1,-12.6,0.0,0,0.0,0.0,0.0,11.3,0.6,229.6,0.0,321.0,-0.0,0.01,1.0,0.0,26.0,17.0,0.0,29.88,650.0,0.0,0.0,325.0,0.0,0.0,0.0,0.0,0.0,0.0,0.0,0.0,0.0,0.0,0.0,0.0,0.0,0.0,0.0,0.0,0.0,0.0,0.0,0.0,0.0,0.0,0.0,0.0,0.0,15.0,0.0,0.0,30.0,0.0,0.0,0.0,0.0,0.0,0.0,38.7,0.0,0.0,-0.6,0.3,0.1,0.0,0.0,0.0,0.0,60.8,60.8,60.8,60.8,60.8,60.8,60.8,60.8,0.0,0.0,-2.0,254.4,0.0,0.0,2.0,4.998,0.0,0.0,0.659,0.9,0.0,15.3,0.0,0.0,0.0,0,0.0,0.0,0.0,285.8,True,2026-01-03 22:45:42 - Flight 1
22.06,1,9,2026-01-03 22:45:58,37.08165,-121.59959,335.0,0.0,171.1,-12.6,0.0,0,0.0,0.0,0.0,11.3,0.6,229.6,0.0,321.0,-0.0,0.01,1.0,0.0,-18.0,17.0,0.0,29.88,650.0,0.0,0.0,325.0,0.0,0.0,0.0,0.0,0.0,0.0,0.0,0.0,0.0,0.0,0.0,0.0,0.0,0.0,0.0,0.0,0.0,0.0,0.0,0.0,0.0,0.0,0.0,0.0,0.0,15.0,0.0,0.0,30.0,0.0,0.0,0.0,0.0,0.0,0.0,38.7,0.0,0.0,-0.6,0.3,0.1,0.0,0.0,0.0,0.0,60.8,62.6,60.8,62.6,60.8,62.6,60.8,62.6,0.0,0.0,-2.0,254.4,0.0,0.0,2.0,4.998,0.0,0.0,0.659,0.902,0.0,15.3,0.0,0.0,0.0,0,0.0,0.0,0.0,285.8,True,2026-01-03 22:45:42 - Flight 1
23.06,1,9,2026-01-03 22:45:59,37.08165,-121.59959,336.0,0.0,171.1,-12.6,0.0,0,0.0,0.0,0.0,11.3,0.6,229.6,0.0,321.0,0.0,0.01,1.0,0.0,20.0,17.0,0.0,29.88,650.0,0.0,0.0,325.0,0.0,0.0,0.0,0.0,0.0,0.0,0.0,0.0,0.0,0.0,0.0,0.0,0.0,0.0,0.0,0.0,0.0,0.0,0.0,0.0,0.0,0.0,0.0,0.0,0.0,15.0,0.0,0.0,30.0,0.0,0.0,0.0,0.0,0.0,0.0,38.7,0.0,0.0,-0.6,0.3,0.1,0.0,0.0,0.0,0.0,60.8,62.6,60.8,62.6,60.8,62.6,60.8,62.6,0.0,0.0,-2.0,254.4,0.0,0.0,2.0,4.998,0.0,0.0,0.659,0.901,0.0,15.3,0.0,0.0,0.0,0,0.0,0.0,0.0,285.8,True,2026-01-03 22:45:42 - Flight 1
24.06,1,9,2026-01-03 22:46:00,37.08165,-121.59959,337.0,0.0,171.1,-12.6,0.0,0,0.0,0.0,0.0,11.3,0.6,229.5,0.0,321.0,-0.0,0.01,1.0,0.0,12.0,17.0,0.0,29.88,650.0,0.0,0.0,325.0,0.0,0.0,0.0,0.0,0.0,0.0,0.0,0.0,0.0,0.0,0.0,0.0,0.0,0.0,0.0,0.0,0.0,0.0,0.0,0.0,0.0,0.0,0.0,0.0,0.0,15.0,0.0,0.0,30.0,0.0,0.0,0.0,0.0,0.0,0.0,38.7,0.0,0.0,-0.6,0.3,0.1,0.0,0.0,0.0,0.0,60.8,62.6,60.8,62.6,60.8,62.6,60.8,62.6,0.0,0.0,-2.0,254.4,0.0,0.0,2.0,4.998,0.0,0.0,0.659,0.901,0.0,15.3,0.0,0.0,0.0,0,0.0,0.0,0.0,285.8,True,2026-01-03 22:45:42 - Flight 1
25.06,1,9,2026-01-03 22:46:01,37.08165,-121.59959,338.0,0.0,171.1,-12.6,0.0,0,0.0,0.0,0.0,11.4,0.6,229.6,0.0,321.0,0.0,0.01,1.0,0.0,-22.0,17.0,0.0,29.88,650.0,0.0,0.0,325.0,0.0,0.0,0.0,0.0,0.0,0.0,0.0,0.0,0.0,0.0,0.0,0.0,0.0,0.0,0.0,0.0,0.0,0.0,0.0,0.0,0.0,0.0,0.0,0.0,0.0,15.0,0.0,0.0,30.0,0.0,0.0,0.0,0.0,0.0,0.0,38.7,0.0,0.0,-0.6,0.3,0.1,0.0,0.0,0.0,0.0,60.8,62.6,60.8,62.6,60.8,62.6,60.8,62.6,0.0,0.0,-2.0,254.4,0.0,0.0,2.0,4.998,0.0,0.0,0.659,0.901,0.0,15.3,0.0,0.0,0.0,0,0.0,0.0,0.0,285.8,True,2026-01-03 22:45:42 - Flight 1
26.06,1,9,2026-01-03 22:46:02,37.08165,-121.59959,339.0,0.0,171.1,-12.6,0.0,0,0.0,0.0,0.0,11.4,0.6,229.6,0.0,320.0,0.0,0.01,1.0,0.0,-53.0,17.0,0.0,29.88,649.0,0.0,0.0,325.0,0.0,0.0,0.0,0.0,0.0,0.0,0.0,0.0,0.0,0.0,0.0,0.0,0.0,0.0,0.0,0.0,0.0,0.0,0.0,0.0,0.0,0.0,0.0,0.0,0.0,15.0,0.0,0.0,30.0,0.0,0.0,0.0,0.0,0.0,0.0,38.7,0.0,0.0,-0.6,0.3,0.1,0.0,0.0,0.0,0.0,60.8,62.6,60.8,62.6,60.8,62.6,60.8,62.6,0.0,0.0,-2.0,254.4,0.0,0.0,2.0,4.998,0.0,0.0,0.659,0.9,0.0,15.3,0.0,0.0,0.0,0,0.0,0.0,0.0,285.8,True,2026-01-03 22:45:42 - Flight 1
27.06,1,9,2026-01-03 22:46:03,37.08165,-121.59959,339.0,0.0,171.1,-12.6,0.0,0,0.0,0.0,0.0,11.4,0.5,229.7,0.0,319.0,-0.0,0.01,1.0,0.0,-41.0,17.0,0.0,29.88,649.0,0.0,0.0,325.0,0.0,0.0,0.0,0.0,0.0,0.0,0.0,0.0,0.0,0.0,0.0,0.0,0.0,0.0,0.0,0.0,0.0,0.0,0.0,0.0,0.0,0.0,0.0,0.0,0.0,15.0,0.0,0.0,30.0,0.0,0.0,0.0,0.0,0.0,0.0,38.7,0.0,0.0,-0.6,0.3,0.1,0.0,0.0,0.0,0.0,60.8,62.6,60.8,62.6,60.8,62.6,60.8,62.6,0.0,0.0,-2.0,254.4,0.0,0.0,2.0,4.998,0.0,0.0,0.659,0.9,0.0,15.3,0.0,0.0,0.0,0,0.0,0.0,0.0,285.8,True,2026-01-03 22:45:42 - Flight 1
28.06,1,9,2026-01-03 22:46:04,37.08165,-121.59959,340.0,0.0,171.1,-12.6,0.0,0,0.0,0.0,0.0,11.4,0.5,229.7,0.0,319.0,0.0,0.01,1.0,0.0,-35.0,17.0,0.0,29.88,649.0,0.0,0.0,325.0,0.0,0.0,0.0,0.0,0.0,0.0,0.0,0.0,0.0,0.0,0.0,0.0,0.0,0.0,0.0,0.0,0.0,0.0,0.0,0.0,0.0,0.0,0.0,0.0,0.0,15.0,0.0,0.0,30.0,0.0,0.0,0.0,0.0,0.0,0.0,38.7,0.0,0.0,-0.6,0.3,0.1,0.0,0.0,0.0,0.0,60.8,62.6,60.8,62.6,60.8,62.6,60.8,62.6,0.0,0.0,-2.0,254.4,0.0,0.0,2.0,4.998,0.0,0.0,0.659,0.9,0.0,15.3,0.0,0.0,0.0,0,0.0,0.0,0.0,285.8,True,2026-01-03 22:45:42 - Flight 1
29.06,1,9,2026-01-03 22:46:05,37.08165,-121.59959,340.0,0.0,171.1,-12.6,0.0,0,0.0,0.0,0.0,11.4,0.6,229.7,0.0,319.0,-0.0,0.01,1.0,0.0,-17.0,17.0,0.0,29.88,648.0,0.0,0.0,325.0,0.0,0.0,0.0,0.0,0.0,0.0,0.0,0.0,0.0,0.0,0.0,0.0,0.0,0.0,0.0,0.0,0.0,0.0,0.0,0.0,0.0,0.0,0.0,0.0,0.0,15.0,0.0,0.0,30.0,0.0,0.0,0.0,0.0,0.0,0.0,38.7,0.0,0.0,-0.6,0.3,0.1,0.0,0.0,0.0,0.0,60.8,62.6,60.8,62.6,60.8,62.6,60.8,62.6,0.0,0.0,-2.0,254.4,0.0,0.0,2.0,4.998,0.0,0.0,0.659,0.898,0.0,15.3,0.0,0.0,0.0,0,0.0,0.0,0.0,285.8,True,2026-01-03 22:45:42 - Flight 1
30.06,1,9,2026-01-03 22:46:06,37.08165,-121.59959,340.0,0.0,171.1,-12.6,0.0,0,0.0,0.0,0.0,11.4,0.6,229.7,0.0,317.0,0.0,0.01,1.0,0.0,-54.0,17.0,0.0,29.88,648.0,0.0,0.0,325.0,0.0,0.0,0.0,0.0,0.0,0.0,0.0,0.0,0.0,0.0,0.0,0.0,0.0,0.0,0.0,0.0,0.0,0.0,0.0,0.0,0.0,0.0,0.0,0.0,0.0,15.0,0.0,0.0,30.0,0.0,0.0,0.0,0.0,0.0,0.0,38.7,0.0,0.0,-0.6,0.3,0.1,0.0,0.0,0.0,0.0,60.8,62.6,60.8,62.6,60.8,62.6,60.8,62.6,0.0,0.0,-2.0,254.4,0.0,0.0,2.0,4.998,0.0,0.0,0.659,0.898,0.0,15.3,0.0,0.0,0.0,0,0.0,0.0,0.0,285.8,True,2026-01-03 22:45:42 - Flight 1
31.06,1,9,2026-01-03 22:46:07,37.08165,-121.59959,341.0,0.0,171.1,-12.6,0.0,0,0.0,0.0,0.0,11.4,0.6,229.7,0.0,317.0,-0.0,0.01,1.0,0.0,-32.0,17.0,0.0,29.88,648.0,0.0,0.0,325.0,0.0,0.0,0.0,0.0,0.0,0.0,0.0,0.0,0.0,0.0,0.0,0.0,0.0,0.0,0.0,0.0,0.0,0.0,0.0,0.0,0.0,0.0,0.0,0.0,0.0,15.0,0.0,0.0,30.0,0.0,0.0,0.0,0.0,0.0,0.0,38.7,0.0,0.0,-0.6,0.3,0.1,0.0,0.0,0.0,0.0,60.8,62.6,60.8,62.6,60.8,62.6,60.8,62.6,0.0,0.0,-2.0,254.3,0.0,0.0,2.0,4.998,0.0,0.0,0.659,0.898,0.0,15.3,0.0,0.0,0.0,0,0.0,0.0,0.0,285.8,True,2026-01-03 22:45:42 - Flight 1
32.06,1,9,2026-01-03 22:46:08,37.08165,-121.59959,340.0,0.0,171.1,-12.6,0.0,0,0.0,0.0,0.0,11.4,0.6,229.8,0.0,315.0,0.0,0.01,1.0,0.0,-68.0,17.0,0.0,29.88,647.0,0.0,0.0,325.0,0.0,0.0,0.0,0.0,0.0,0.0,0.0,0.0,0.0,0.0,0.0,0.0,0.0,0.0,0.0,0.0,0.0,0.0,0.0,0.0,0.0,0.0,0.0,0.0,0.0,15.0,0.0,0.0,30.0,0.0,0.0,0.0,0.0,0.0,0.0,38.7,0.0,0.0,-0.6,0.3,0.1,0.0,0.0,0.0,0.0,60.8,62.6,60.8,62.6,60.8,62.6,60.8,62.6,0.0,0.0,-2.0,254.3,0.0,0.0,2.0,4.998,0.0,0.0,0.659,0.898,0.0,15.3,0.0,0.0,0.0,0,0.0,0.0,0.0,285.8,True,2026-01-03 22:45:42 - Flight 1
33.06,1,9,2026-01-03 22:46:09,37.08165,-121.59959,340.0,0.0,171.1,-12.6,0.0,0,0.0,0.0,0.0,11.4,0.5,229.7,0.0,314.0,0.0,0.01,1.0,0.0,-68.0,17.0,0.0,29.88,647.0,0.0,0.0,325.0,0.0,0.0,0.0,0.0,0.0,0.0,0.0,0.0,0.0,0.0,0.0,0.0,0.0,0.0,0.0,0.0,0.0,0.0,0.0,0.0,0.0,0.0,0.0,0.0,0.0,15.0,0.0,0.0,30.0,0.0,0.0,0.0,0.0,0.0,0.0,38.7,0.0,0.0,-0.6,0.3,0.1,0.0,0.0,0.0,0.0,60.8,62.6,60.8,62.6,60.8,62.6,60.8,62.6,0.0,0.0,-2.0,254.3,0.0,0.0,2.0,4.998,0.0,0.0,0.659,0.9,0.0,15.3,0.0,0.0,0.0,0,0.0,0.0,0.0,285.8,True,2026-01-03 22:45:42 - Flight 1
34.06,1,9,2026-01-03 22:46:10,37.08165,-121.59959,341.0,0.0,171.1,-12.6,0.0,0,0.0,0.0,0.0,11.4,0.5,229.7,0.0,313.0,-0.0,0.01,1.0,0.0,-66.0,17.0,0.0,29.88,647.0,0.0,0.0,325.0,0.0,0.0,0.0,0.0,0.0,0.0,0.0,0.0,0.0,0.0,0.0,0.0,0.0,0.0,0.0,0.0,0.0,0.0,0.0,0.0,0.0,0.0,0.0,0.0,0.0,15.0,0.0,0.0,30.0,0.0,0.0,0.0,0.0,0.0,0.0,38.7,0.0,0.0,-0.6,0.3,0.1,0.0,0.0,0.0,0.0,60.8,62.6,60.8,62.6,60.8,62.6,60.8,62.6,0.0,0.0,-2.0,254.3,0.0,0.0,2.0,4.998,0.0,0.0,0.659,0.902,0.0,15.3,0.0,0.0,0.0,0,0.0,0.0,0.0,285.8,True,2026-01-03 22:45:42 - Flight 1
35.06,1,9,2026-01-03 22:46:11,37.08165,-121.59959,340.0,0.1,171.1,-12.6,0.0,0,0.0,0.0,0.0,11.4,0.5,229.7,0.0,312.0,-0.0,0.01,1.0,0.0,-80.0,17.0,0.0,29.88,642.0,0.0,0.0,325.0,0.0,0.0,0.0,0.0,0.0,0.0,0.0,0.0,0.0,0.0,0.0,0.0,0.0,0.0,0.0,0.0,0.0,0.0,0.0,0.0,0.0,0.0,0.0,0.0,0.0,15.0,0.0,0.0,30.0,0.0,0.0,0.0,0.0,0.0,0.0,38.7,0.0,0.0,-0.6,0.3,0.1,0.0,0.0,0.0,0.0,60.8,62.6,60.8,62.6,60.8,62.6,60.8,62.6,0.0,0.0,-2.0,254.3,0.0,0.0,2.0,4.998,0.0,0.0,0.659,0.902,0.0,15.3,0.0,0.0,0.0,0,0.0,0.0,0.0,285.8,True,2026-01-03 22:45:42 - Flight 1
36.06,1,9,2026-01-03 22:46:12,37.08165,-121.59959,340.0,0.0,171.1,-12.6,0.0,0,0.0,0.0,0.0,11.4,0.6,229.7,0.0,309.0,-0.0,0.01,1.0,0.0,-105.0,17.0,0.0,29.88,642.0,0.0,0.0,325.0,0.0,0.0,0.0,0.0,0.0,0.0,0.0,0.0,0.0,0.0,0.0,0.0,0.0,0.0,0.0,0.0,0.0,0.0,0.0,0.0,0.0,0.0,0.0,0.0,0.0,15.0,0.0,0.0,30.0,0.0,0.0,0.0,0.0,0.0,0.0,38.7,0.0,0.0,-0.6,0.3,0.1,0.0,0.0,0.0,0.0,60.8,62.6,60.8,62.6,60.8,62.6,60.8,62.6,0.0,0.0,-2.0,254.3,0.0,0.0,2.0,4.998,0.0,0.0,0.659,0.902,0.0,15.3,0.0,0.0,0.0,0,0.0,0.0,0.0,285.8,True,2026-01-03 22:45:42 - Flight 1
37.06,1,9,2026-01-03 22:46:13,37.08165,-121.59959,340.0,0.0,171.1,-12.6,0.0,0,0.0,0.0,0.0,11.4,0.5,229.7,0.0,307.0,-0.0,0.01,1.0,0.0,-98.0,17.0,0.0,29.88,642.0,0.0,0.0,325.0,0.0,0.0,0.0,0.0,0.0,0.0,0.0,0.0,0.0,0.0,0.0,0.0,0.0,0.0,0.0,0.0,0.0,0.0,0.0,0.0,0.0,0.0,0.0,0.0,0.0,15.0,0.0,0.0,30.0,0.0,0.0,0.0,0.0,0.0,0.0,38.7,0.0,0.0,-0.6,0.3,0.1,0.0,0.0,0.0,0.0,60.8,62.6,60.8,62.6,60.8,62.6,60.8,62.6,0.0,0.0,-2.0,254.3,0.0,0.0,2.0,4.998,0.0,0.0,0.659,0.902,0.0,15.3,0.0,0.0,0.0,0,0.0,0.0,0.0,285.8,True,2026-01-03 22:45:42 - Flight 1
38.06,1,9,2026-01-03 22:46:14,37.08165,-121.59959,339.0,0.1,171.1,-12.6,0.0,0,0.0,0.0,0.0,11.4,0.5,229.7,0.0,306.0,-0.0,0.01,1.0,0.0,-105.0,17.0,0.0,29.88,634.0,0.0,0.0,325.0,0.0,0.0,0.0,0.0,0.0,0.0,0.0,0.0,0.0,0.0,0.0,0.0,0.0,0.0,0.0,0.0,0.0,0.0,0.0,0.0,0.0,0.0,0.0,0.0,0.0,15.0,0.0,0.0,30.0,0.0,0.0,0.0,0.0,0.0,0.0,38.7,0.0,0.0,-0.6,0.3,0.1,0.0,0.0,0.0,0.0,60.8,62.6,60.8,62.6,60.8,62.6,60.8,62.6,0.0,0.0,-2.0,254.3,0.0,0.0,2.0,4.998,0.0,0.0,0.659,0.902,0.0,15.3,0.0,0.0,0.0,0,0.0,0.0,0.0,285.8,True,2026-01-03 22:45:42 - Flight 1
39.06,1,9,2026-01-03 22:46:15,37.08166,-121.59959,339.0,0.1,171.1,-12.6,0.0,0,0.0,0.0,0.0,11.5,0.5,229.8,0.0,305.0,0.0,0.01,1.0,0.0,-77.0,17.0,0.0,29.88,634.0,0.0,0.0,325.0,0.0,0.0,0.0,0.0,0.0,0.0,0.0,0.0,0.0,0.0,0.0,0.0,0.0,0.0,0.0,0.0,0.0,0.0,0.0,0.0,0.0,0.0,0.0,0.0,0.0,15.0,0.0,0.0,30.0,0.0,0.0,0.0,0.0,0.0,0.0,38.7,0.0,0.0,-0.6,0.3,0.1,0.0,0.0,0.0,0.0,60.8,62.6,60.8,62.6,60.8,62.6,60.8,62.6,0.0,0.0,-2.0,254.3,0.0,0.0,2.0,4.998,0.0,0.0,0.659,0.903,0.0,15.3,0.0,0.0,0.0,0,0.0,0.0,0.0,285.8,True,2026-01-03 22:45:42 - Flight 1
40.06,1,9,2026-01-03 22:46:16,37.08166,-121.59959,338.0,0.0,171.1,-12.6,0.0,0,0.0,0.0,0.0,11.4,0.5,229.8,0.0,303.0,0.0,0.01,1.0,0.0,-72.0,17.0,0.0,29.88,634.0,0.0,0.0,325.0,0.0,0.0,0.0,0.0,0.0,0.0,0.0,0.0,0.0,0.0,0.0,0.0,0.0,0.0,0.0,0.0,0.0,0.0,0.0,0.0,0.0,0.0,0.0,0.0,0.0,15.0,0.0,0.0,30.0,0.0,0.0,0.0,0.0,0.0,0.0,38.7,0.0,0.0,-0.6,0.3,0.1,0.0,0.0,0.0,0.0,60.8,62.6,60.8,62.6,60.8,62.6,60.8,62.6,0.0,0.0,-2.0,254.3,0.0,0.0,2.0,4.998,0.0,0.0,0.659,0.905,0.0,15.3,0.0,0.0,0.0,0,0.0,0.0,0.0,285.8,True,2026-01-03 22:45:42 - Flight 1
41.06,1,9,2026-01-03 22:46:17,37.08166,-121.59959,338.0,0.0,171.1,-12.6,0.0,0,0.0,0.0,0.0,11.5,0.5,229.8,0.0,303.0,-0.0,0.01,1.0,0.0,-59.0,17.0,0.0,29.88,630.0,0.0,0.0,325.0,0.0,0.0,0.0,0.0,0.0,0.0,0.0,0.0,0.0,0.0,0.0,0.0,0.0,0.0,0.0,0.0,0.0,0.0,0.0,0.0,0.0,0.0,0.0,0.0,0.0,15.0,0.0,0.0,30.0,0.0,0.0,0.0,0.0,0.0,0.0,38.7,0.0,0.0,-0.6,0.3,0.1,0.0,0.0,0.0,0.0,60.8,62.6,60.8,62.6,60.8,62.6,60.8,62.6,0.0,0.0,-2.0,254.3,0.0,0.0,2.0,4.998,0.0,0.0,0.659,0.908,0.0,15.3,0.0,0.0,0.0,0,0.0,0.0,0.0,285.8,True,2026-01-03 22:45:42 - Flight 1
42.06,1,9,2026-01-03 22:46:18,37.08166,-121.59959,338.0,0.0,171.1,-12.6,0.0,0,0.0,0.0,0.0,11.5,0.5,229.8,0.0,303.0,-0.0,0.01,1.0,0.0,-21.0,17.0,0.0,29.88,630.0,0.0,0.0,325.0,0.0,0.0,0.0,0.0,0.0,0.0,0.0,0.0,0.0,0.0,0.0,0.0,0.0,0.0,0.0,0.0,0.0,0.0,0.0,0.0,0.0,0.0,0.0,0.0,0.0,15.0,0.0,0.0,30.0,0.0,0.0,0.0,0.0,0.0,0.0,38.7,0.0,0.0,-0.6,0.3,0.1,0.0,0.0,0.0,0.0,60.8,62.6,60.8,62.6,60.8,62.6,60.8,62.6,0.0,0.0,-2.0,236.7,0.0,0.0,2.0,4.998,0.0,0.0,0.659,0.907,0.0,15.3,0.0,0.0,0.0,0,0.0,0.0,0.0,285.8,True,2026-01-03 22:45:42 - Flight 1
43.06,1,9,2026-01-03 22:46:19,37.08166,-121.59959,337.0,0.0,171.1,-12.6,0.0,0,0.0,0.0,0.0,11.4,0.5,229.8,0.0,303.0,-0.0,0.01,1.0,0.0,-28.0,17.0,0.0,29.88,630.0,0.0,0.0,325.0,0.0,0.0,0.0,0.0,0.0,0.0,0.0,0.0,0.0,0.0,0.0,0.0,0.0,0.0,0.0,0.0,0.0,0.0,0.0,0.0,0.0,0.0,0.0,0.0,0.0,15.0,0.0,0.0,30.0,0.0,0.0,0.0,0.0,0.0,0.0,38.7,0.0,0.0,-0.6,0.3,0.1,0.0,0.0,0.0,0.0,60.8,62.6,60.8,62.6,60.8,62.6,60.8,62.6,0.0,0.0,-2.0,184.2,0.0,0.0,2.0,4.998,0.0,0.0,0.659,0.906,0.0,15.3,0.0,0.0,0.0,0,0.0,0.0,0.0,285.8,True,2026-01-03 22:45:42 - Flight 1
44.06,1,9,2026-01-03 22:46:20,37.08166,-121.59959,337.0,0.0,171.1,-12.6,0.0,0,0.0,0.0,0.0,11.4,0.5,229.8,0.0,303.0,-0.0,0.01,1.0,0.0,-15.0,17.0,0.0,29.88,630.0,0.0,0.0,325.0,0.0,0.0,0.0,0.0,0.0,0.0,0.0,0.0,0.0,0.0,0.0,0.0,0.0,0.0,0.0,0.0,0.0,0.0,0.0,0.0,0.0,0.0,0.0,0.0,0.0,15.0,0.0,0.0,30.0,0.0,0.0,0.0,0.0,0.0,0.0,38.7,0.0,0.0,-0.6,0.3,0.1,0.0,0.0,0.0,0.0,60.8,62.6,60.8,62.6,60.8,62.6,60.8,62.6,0.0,0.0,-2.0,143.4,0.0,0.0,2.0,4.998,0.0,0.0,0.659,0.906,0.0,15.3,0.0,0.0,0.0,0,0.0,0.0,0.0,285.8,True,2026-01-03 22:45:42 - Flight 1
45.06,1,9,2026-01-03 22:46:21,37.08165,-121.59959,336.0,0.0,171.1,-12.6,0.0,0,0.0,0.0,0.0,11.4,0.6,229.7,0.0,302.0,-0.0,0.01,1.0,0.0,-30.0,17.0,0.0,29.88,630.0,0.0,0.0,325.0,0.0,0.0,0.0,0.0,0.0,0.0,0.0,0.0,0.0,0.0,0.0,0.0,0.0,0.0,0.0,0.0,0.0,0.0,0.0,0.0,0.0,0.0,0.0,0.0,0.0,15.0,0.0,0.0,30.0,0.0,0.0,0.0,0.0,0.0,0.0,38.7,0.0,0.0,-0.6,0.3,0.1,0.0,0.0,0.0,0.0,60.8,62.6,60.8,62.6,60.8,62.6,60.8,62.6,0.0,0.0,-2.0,111.7,0.0,0.0,2.0,4.998,0.0,0.0,0.659,0.906,0.0,15.3,0.0,0.0,0.0,0,0.0,0.0,0.0,285.8,True,2026-01-03 22:45:42 - Flight 1
46.06,1,9,2026-01-03 22:46:22,37.08165,-121.59959,335.0,0.0,171.1,-12.6,0.0,0,0.0,0.0,0.0,11.4,0.5,229.8,0.0,300.0,-0.0,0.01,1.0,0.0,-68.0,17.0,0.0,29.88,630.0,0.0,0.0,325.0,0.0,0.0,0.0,0.0,0.0,0.0,0.0,0.0,0.0,0.0,0.0,0.0,0.0,0.0,0.0,0.0,0.0,0.0,0.0,0.0,0.0,0.0,0.0,0.0,0.0,15.0,0.0,0.0,30.0,0.0,0.0,0.0,0.0,0.0,0.0,38.7,0.0,0.0,-0.6,0.3,0.1,0.0,0.0,0.0,0.0,60.8,62.6,60.8,62.6,60.8,62.6,60.8,62.6,0.0,0.0,-2.0,87.0,0.0,0.0,2.0,4.998,0.0,0.0,0.659,0.906,0.0,15.3,0.0,0.0,0.0,0,0.0,0.0,0.0,285.8,True,2026-01-03 22:45:42 - Flight 1
47.06,1,9,2026-01-03 22:46:23,37.08165,-121.59959,335.0,0.0,171.1,-12.6,0.0,0,0.0,0.0,0.0,11.4,0.5,229.8,0.0,300.0,-0.0,0.01,1.0,0.0,-46.0,17.0,0.0,29.88,626.0,0.0,0.0,325.0,0.0,0.0,0.0,0.0,0.0,0.0,0.0,0.0,0.0,0.0,0.0,0.0,0.0,0.0,0.0,0.0,0.0,0.0,0.0,0.0,0.0,0.0,0.0,0.0,0.0,15.0,0.0,0.0,30.0,0.0,0.0,0.0,0.0,0.0,0.0,38.7,0.0,0.0,-0.6,0.3,0.1,0.0,0.0,0.0,0.0,60.8,62.6,60.8,62.6,60.8,62.6,60.8,62.6,0.0,0.0,-2.0,67.8,0.0,0.0,2.0,4.998,0.0,0.0,0.659,0.903,0.0,15.3,0.0,0.0,0.0,0,0.0,0.0,0.0,285.8,True,2026-01-03 22:45:42 - Flight 1
48.06,1,9,2026-01-03 22:46:24,37.08165,-121.59958,334.0,0.0,171.1,-12.6,0.0,0,0.0,0.0,0.0,11.4,0.6,229.7,0.0,300.0,-0.0,0.01,1.0,0.0,-44.0,17.0,0.0,29.88,626.0,0.0,0.0,325.0,0.0,0.0,0.0,0.0,0.0,0.0,0.0,0.0,0.0,0.0,0.0,0.0,0.0,0.0,0.0,0.0,0.0,0.0,0.0,0.0,0.0,0.0,0.0,0.0,0.0,15.0,0.0,0.0,30.0,0.0,0.0,0.0,0.0,0.0,0.0,38.7,0.0,0.0,-0.6,0.3,0.1,0.0,0.0,0.0,0.0,60.8,62.6,60.8,62.6,60.8,62.6,60.8,62.6,0.0,0.0,-2.0,52.9,0.0,0.0,2.0,4.998,0.0,0.0,0.659,0.897,0.0,15.3,0.0,0.0,0.0,0,0.0,0.0,0.0,285.8,True,2026-01-03 22:45:42 - Flight 1
49.06,1,9,2026-01-03 22:46:25,37.08165,-121.59958,334.0,0.0,171.1,-12.6,0.0,0,0.0,0.0,0.0,11.5,0.6,229.8,0.0,299.0,0.0,0.01,1.0,0.0,-31.0,17.0,0.0,29.88,626.0,0.0,0.0,325.0,0.0,0.0,0.0,0.0,0.0,0.0,0.0,0.0,0.0,0.0,0.0,0.0,0.0,0.0,0.0,0.0,0.0,0.0,0.0,0.0,0.0,0.0,0.0,0.0,0.0,15.0,0.0,0.0,30.0,0.0,0.0,0.0,0.0,0.0,0.0,38.7,0.0,0.0,-0.6,0.3,0.1,0.0,0.0,0.0,0.0,60.8,62.6,60.8,62.6,60.8,62.6,60.8,62.6,0.0,0.0,-2.0,41.4,0.0,0.0,2.0,4.998,0.0,0.0,0.659,0.897,0.0,15.3,0.0,0.0,0.0,0,0.0,0.0,0.0,285.8,True,2026-01-03 22:45:42 - Flight 1
50.06,1,9,2026-01-03 22:46:26,37.08165,-121.59958,333.0,0.0,171.1,-12.6,0.0,0,0.0,0.0,0.0,11.5,0.6,229.8,0.0,299.0,0.0,0.01,1.0,0.0,-9.0,17.0,0.0,29.88,625.0,0.0,0.0,325.0,0.0,0.0,0.0,0.0,0.0,0.0,0.0,0.0,0.0,0.0,0.0,0.0,0.0,0.0,0.0,0.0,0.0,0.0,0.0,0.0,0.0,0.0,0.0,0.0,0.0,15.0,0.0,0.0,30.0,0.0,0.0,0.0,0.0,0.0,0.0,38.7,0.0,0.0,-0.6,0.3,0.1,0.0,0.0,0.0,0.0,60.8,62.6,60.8,62.6,60.8,62.6,60.8,62.6,0.0,0.0,-2.0,32.4,0.0,0.0,2.0,4.998,0.0,0.0,0.659,0.897,0.0,15.3,0.0,0.0,0.0,0,0.0,0.0,0.0,285.8,True,2026-01-03 22:45:42 - Flight 1
51.06,1,9,2026-01-03 22:46:27,37.08165,-121.59958,332.0,0.0,171.1,-12.6,0.0,0,0.0,0.0,0.0,11.5,0.6,229.8,0.0,299.0,0.0,0.01,1.0,0.0,16.0,17.0,0.0,29.88,625.0,0.0,0.0,325.0,0.0,0.0,0.0,0.0,0.0,0.0,0.0,0.0,0.0,0.0,0.0,0.0,0.0,0.0,0.0,0.0,0.0,0.0,0.0,0.0,0.0,0.0,0.0,0.0,0.0,15.0,0.0,0.0,30.0,0.0,0.0,0.0,0.0,0.0,0.0,38.7,0.0,0.0,-0.6,0.3,0.1,0.0,0.0,0.0,0.0,60.8,62.6,60.8,62.6,60.8,62.6,60.8,62.6,0.0,0.0,-2.0,25.4,0.0,0.0,2.0,4.998,0.0,0.0,0.659,0.898,0.0,15.3,0.0,0.0,0.0,0,0.0,0.0,0.0,285.8,True,2026-01-03 22:45:42 - Flight 1
52.06,1,9,2026-01-03 22:46:28,37.08165,-121.59958,332.0,0.0,171.1,-12.6,0.0,0,0.0,0.0,0.0,11.5,0.5,229.8,0.0,299.0,0.0,0.01,1.0,0.0,41.0,17.0,0.0,29.88,626.0,0.0,0.0,325.0,0.0,0.0,0.0,0.0,0.0,0.0,0.0,0.0,0.0,0.0,0.0,0.0,0.0,0.0,0.0,0.0,0.0,0.0,0.0,0.0,0.0,0.0,0.0,0.0,0.0,15.0,0.0,0.0,30.0,0.0,0.0,0.0,0.0,0.0,0.0,38.7,0.0,0.0,-0.6,0.3,0.1,0.0,0.0,0.0,0.0,60.8,62.6,60.8,62.6,60.8,62.6,60.8,62.6,0.0,0.0,-2.0,19.9,0.0,0.0,2.0,4.998,0.0,0.0,0.659,0.898,0.0,15.3,0.0,0.0,0.0,0,0.0,0.0,0.0,285.8,True,2026-01-03 22:45:42 - Flight 1
53.06,1,9,2026-01-03 22:46:29,37.08165,-121.59958,331.0,0.0,171.1,-12.6,0.0,0,0.0,0.0,0.0,11.5,0.6,229.8,0.0,299.0,0.0,0.01,1.0,0.0,34.0,17.0,0.0,29.88,626.0,0.0,0.0,325.0,0.0,0.0,0.0,0.0,0.0,0.0,0.0,0.0,0.0,0.0,0.0,0.0,0.0,0.0,0.0,0.0,0.0,0.0,0.0,0.0,0.0,0.0,0.0,0.0,0.0,15.0,0.0,0.0,30.0,0.0,0.0,0.0,0.0,0.0,0.0,38.7,0.0,0.0,-0.6,0.3,0.1,0.0,0.0,0.0,0.0,60.8,62.6,60.8,62.6,60.8,62.6,60.8,62.6,0.0,0.0,-2.0,15.7,0.0,0.0,2.0,4.998,0.0,0.0,0.659,0.898,0.0,15.3,0.0,0.0,0.0,0,0.0,0.0,0.0,285.8,True,2026-01-03 22:45:42 - Flight 1
54.06,1,9,2026-01-03 22:46:30,37.08165,-121.59958,330.0,0.0,171.1,-12.6,0.0,0,0.0,0.0,0.0,11.5,0.6,229.8,0.0,299.0,0.0,0.01,1.0,0.0,40.0,17.0,0.0,29.88,626.0,0.0,0.0,325.0,0.0,0.0,0.0,0.0,0.0,0.0,0.0,0.0,0.0,0.0,0.0,0.0,0.0,0.0,0.0,0.0,0.0,0.0,0.0,0.0,0.0,0.0,0.0,0.0,0.0,15.0,0.0,0.0,30.0,0.0,0.0,0.0,0.0,0.0,0.0,38.7,0.0,0.0,-0.6,0.3,0.1,0.0,0.0,0.0,0.0,60.8,62.6,60.8,62.6,60.8,62.6,60.8,62.6,0.0,0.0,-2.0,12.4,0.0,0.0,2.0,4.998,0.0,0.0,0.659,0.898,0.0,15.3,0.0,0.0,0.0,0,0.0,0.0,0.0,285.8,True,2026-01-03 22:45:42 - Flight 1
55.06,1,9,2026-01-03 22:46:31,37.08165,-121.59958,330.0,0.0,171.1,-12.6,0.0,0,0.0,0.0,0.0,11.5,0.6,229.8,0.0,299.0,0.0,0.01,1.0,0.0,46.0,17.0,0.0,29.88,625.0,0.0,0.0,325.0,0.0,0.0,0.0,0.0,0.0,0.0,0.0,0.0,0.0,0.0,0.0,0.0,0.0,0.0,0.0,0.0,0.0,0.0,0.0,0.0,0.0,0.0,0.0,0.0,0.0,15.0,0.0,0.0,30.0,0.0,0.0,0.0,0.0,0.0,0.0,38.7,0.0,0.0,-0.6,0.3,0.1,0.0,0.0,0.0,0.0,60.8,62.6,60.8,62.6,60.8,62.6,60.8,62.6,0.0,0.0,-2.0,9.9,0.0,0.0,2.0,4.998,0.0,0.0,0.659,0.9,0.0,15.3,0.0,0.0,0.0,0,0.0,0.0,0.0,285.8,True,2026-01-03 22:45:42 - Flight 1
56.06,1,9,2026-01-03 22:46:32,37.08165,-121.59958,329.0,0.0,171.1,-12.6,0.0,0,0.0,0.0,0.0,11.5,0.6,229.8,0.0,299.0,0.0,0.01,1.0,0.0,55.0,17.0,0.0,29.88,626.0,0.0,0.0,325.0,0.0,0.0,0.0,0.0,0.0,0.0,0.0,0.0,0.0,0.0,0.0,0.0,0.0,0.0,0.0,0.0,0.0,0.0,0.0,0.0,0.0,0.0,0.0,0.0,0.0,15.0,0.0,0.0,30.0,0.0,0.0,0.0,0.0,0.0,0.0,38.7,0.0,0.0,-0.6,0.3,0.1,0.0,0.0,0.0,0.0,60.8,62.6,60.8,62.6,60.8,62.6,60.8,62.6,0.0,0.0,-2.0,7.9,0.0,0.0,2.0,4.998,0.0,0.0,0.659,0.9,0.0,15.3,0.0,0.0,0.0,0,0.0,0.0,0.0,285.8,True,2026-01-03 22:45:42 - Flight 1
57.06,1,9,2026-01-03 22:46:33,37.08165,-121.59958,329.0,0.0,171.1,-12.6,0.0,0,0.0,0.0,0.0,11.4,0.5,229.8,0.0,299.0,0.0,0.01,1.0,0.0,22.0,17.0,0.0,29.88,626.0,0.0,0.0,325.0,0.0,0.0,0.0,0.0,0.0,0.0,0.0,0.0,0.0,0.0,0.0,0.0,0.0,0.0,0.0,0.0,0.0,0.0,0.0,0.0,0.0,0.0,0.0,0.0,0.0,15.0,0.0,0.0,30.0,0.0,0.0,0.0,0.0,0.0,0.0,38.7,0.0,0.0,-0.6,0.3,0.1,0.0,0.0,0.0,0.0,60.8,62.6,60.8,62.6,60.8,62.6,60.8,62.6,0.0,0.0,-2.0,6.3,0.0,0.0,2.0,4.998,0.0,0.0,0.659,0.898,0.0,15.3,0.0,0.0,0.0,0,0.0,0.0,0.0,285.8,True,2026-01-03 22:45:42 - Flight 1
58.06,1,9,2026-01-03 22:46:34,37.08165,-121.59957,328.0,0.0,171.1,-12.6,0.0,0,0.0,0.0,0.0,11.5,0.5,229.8,0.0,299.0,0.0,0.01,1.0,0.0,38.0,17.0,0.0,29.88,626.0,0.0,0.0,325.0,0.0,0.0,0.0,0.0,0.0,0.0,0.0,0.0,0.0,0.0,0.0,0.0,0.0,0.0,0.0,0.0,0.0,0.0,0.0,0.0,0.0,0.0,0.0,0.0,0.0,15.0,0.0,0.0,30.0,0.0,0.0,0.0,0.0,0.0,0.0,38.7,0.0,0.0,-0.6,0.3,0.1,0.0,0.0,0.0,0.0,60.8,62.6,60.8,62.6,60.8,62.6,60.8,62.6,0.0,0.0,-2.0,5.1,0.0,0.0,2.0,4.998,0.0,0.0,0.659,0.901,0.0,15.3,0.0,0.0,0.0,0,0.0,0.0,0.0,285.8,True,2026-01-03 22:45:42 - Flight 1
59.06,1,9,2026-01-03 22:46:35,37.08165,-121.59957,328.0,0.0,171.1,-12.6,0.0,0,0.0,0.0,0.0,11.5,0.5,229.8,0.0,299.0,0.0,0.01,1.0,0.0,53.0,17.0,0.0,29.88,634.0,0.0,0.0,325.0,0.0,0.0,0.0,0.0,0.0,0.0,0.0,0.0,0.0,0.0,0.0,0.0,0.0,0.0,0.0,0.0,0.0,0.0,0.0,0.0,0.0,0.0,0.0,0.0,0.0,15.0,0.0,0.0,30.0,0.0,0.0,0.0,0.0,0.0,0.0,38.7,0.0,0.0,-0.6,0.3,0.1,0.0,0.0,0.0,0.0,60.8,62.6,60.8,62.6,60.8,62.6,60.8,62.6,0.0,0.0,-2.0,4.2,0.0,0.0,2.0,4.998,0.0,0.0,0.659,0.9,0.0,15.3,0.0,0.0,0.0,0,0.0,0.0,0.0,285.8,True,2026-01-03 22:45:42 - Flight 1
60.06,1,9,2026-01-03 22:46:36,37.08165,-121.59957,327.0,0.0,171.1,-12.6,0.0,0,0.0,0.0,0.0,11.5,0.5,229.8,0.0,299.0,0.0,0.01,1.0,0.0,14.0,17.0,0.0,29.88,634.0,0.0,0.0,325.0,0.0,0.0,0.0,0.0,0.0,0.0,0.0,0.0,0.0,0.0,0.0,0.0,0.0,0.0,0.0,0.0,0.0,0.0,0.0,0.0,0.0,0.0,0.0,0.0,0.0,15.0,0.0,0.0,30.0,0.0,0.0,0.0,0.0,0.0,0.0,38.7,0.0,0.0,-0.6,0.3,0.1,0.0,0.0,0.0,0.0,60.8,62.6,60.8,62.6,60.8,62.6,60.8,62.6,0.0,0.0,-2.0,3.5,0.0,0.0,2.0,4.998,0.0,0.0,0.659,0.901,0.0,15.3,0.0,0.0,0.0,0,0.0,0.0,0.0,285.8,True,2026-01-03 22:45:42 - Flight 1
61.06,1,9,2026-01-03 22:46:37,37.08165,-121.59957,327.0,0.0,171.1,-12.6,0.0,0,0.0,0.0,0.0,11.5,0.5,229.8,0.0,299.0,0.0,0.01,1.0,0.0,22.0,17.0,0.0,29.88,634.0,0.0,0.0,325.0,0.0,0.0,0.0,0.0,0.0,0.0,0.0,0.0,0.0,0.0,0.0,0.0,0.0,0.0,0.0,0.0,0.0,0.0,0.0,0.0,0.0,0.0,0.0,0.0,0.0,15.0,0.0,0.0,30.0,0.0,0.0,0.0,0.0,0.0,0.0,38.7,0.0,0.0,-0.6,0.3,0.1,0.0,0.0,0.0,0.0,60.8,62.6,60.8,62.6,60.8,62.6,60.8,62.6,0.0,0.0,-2.0,2.9,0.0,0.0,2.0,4.998,0.0,0.0,0.659,0.901,0.0,15.3,0.0,0.0,0.0,0,0.0,0.0,0.0,285.8,True,2026-01-03 22:45:42 - Flight 1
62.06,1,9,2026-01-03 22:46:38,37.08165,-121.59957,326.0,0.0,171.1,-12.6,0.0,0,0.0,0.0,0.0,11.4,0.6,229.8,0.0,299.0,0.0,0.01,1.0,0.0,29.0,17.0,0.0,29.88,634.0,0.0,0.0,325.0,0.0,0.0,0.0,0.0,0.0,0.0,0.0,0.0,0.0,0.0,0.0,0.0,0.0,0.0,0.0,0.0,0.0,0.0,0.0,0.0,0.0,0.0,0.0,0.0,0.0,15.0,0.0,0.0,30.0,0.0,0.0,0.0,0.0,0.0,0.0,38.7,0.0,0.0,-0.6,0.3,0.1,0.0,0.0,0.0,0.0,60.8,62.6,60.8,62.6,60.8,62.6,60.8,62.6,0.0,0.0,-2.0,2.5,0.0,0.0,2.0,4.998,0.0,0.0,0.659,0.901,0.0,15.3,0.0,0.0,0.0,0,0.0,0.0,0.0,285.8,True,2026-01-03 22:45:42 - Flight 1
63.06,1,9,2026-01-03 22:46:39,37.08165,-121.59957,326.0,0.0,171.1,-12.6,0.0,0,0.0,0.0,0.0,11.5,0.6,229.8,0.0,299.0,-0.0,0.01,1.0,0.0,-5.0,17.0,0.0,29.88,634.0,0.0,0.0,325.0,0.0,0.0,0.0,0.0,0.0,0.0,0.0,0.0,0.0,0.0,0.0,0.0,0.0,0.0,0.0,0.0,0.0,0.0,0.0,0.0,0.0,0.0,0.0,0.0,0.0,15.0,0.0,0.0,30.0,0.0,0.0,0.0,0.0,0.0,0.0,38.7,0.0,0.0,-0.6,0.3,0.1,0.0,0.0,0.0,0.0,60.8,62.6,60.8,62.6,60.8,62.6,60.8,62.6,0.0,0.0,-2.0,2.2,0.0,0.0,2.0,4.998,0.0,0.0,0.659,0.901,0.0,15.3,0.0,0.0,0.0,0,0.0,0.0,0.0,285.8,True,2026-01-03 22:45:42 - Flight 1
64.06,1,9,2026-01-03 22:46:40,37.08165,-121.59957,325.0,0.0,171.1,-12.6,0.0,0,0.0,0.0,0.0,11.5,0.6,229.8,0.0,299.0,0.0,0.01,1.0,0.0,3.0,17.0,0.0,29.88,634.0,0.0,0.0,325.0,0.0,0.0,0.0,0.0,0.0,0.0,0.0,0.0,0.0,0.0,0.0,0.0,0.0,0.0,0.0,0.0,0.0,0.0,0.0,0.0,0.0,0.0,0.0,0.0,0.0,15.0,0.0,0.0,30.0,0.0,0.0,0.0,0.0,0.0,0.0,38.7,0.0,0.0,-0.6,0.3,0.1,0.0,0.0,0.0,0.0,60.8,62.6,60.8,62.6,60.8,62.6,60.8,62.6,0.0,0.0,-2.0,1.9,0.0,0.0,2.0,4.998,0.0,0.0,0.659,0.902,0.0,15.3,0.0,0.0,0.0,0,0.0,0.0,0.0,285.8,True,2026-01-03 22:45:42 - Flight 1
65.06,1,9,2026-01-03 22:46:41,37.08165,-121.59957,325.0,0.0,171.1,-12.6,0.0,0,0.0,0.0,0.0,11.5,0.5,229.8,0.0,299.0,0.0,0.01,1.0,0.0,-20.0,17.0,0.0,29.88,634.0,0.0,0.0,325.0,0.0,0.0,0.0,0.0,0.0,0.0,0.0,0.0,0.0,0.0,0.0,0.0,0.0,0.0,0.0,0.0,0.0,0.0,0.0,0.0,0.0,0.0,0.0,0.0,0.0,15.0,0.0,0.0,30.0,0.0,0.0,0.0,0.0,0.0,0.0,38.7,0.0,0.0,-0.6,0.3,0.1,0.0,0.0,0.0,0.0,60.8,62.6,60.8,62.6,60.8,62.6,60.8,62.6,0.0,0.0,-2.0,1.7,0.0,0.0,2.0,0.0,0.0,0.0,0.659,0.902,0.0,15.3,0.0,0.0,0.0,0,0.0,0.0,0.0,285.8,True,2026-01-03 22:45:42 - Flight 1
66.06,1,9,2026-01-03 22:46:42,37.08165,-121.59957,325.0,0.0,171.1,-12.6,0.0,0,0.0,0.0,0.0,11.5,0.5,229.8,0.0,299.0,0.0,0.01,1.0,0.0,-18.0,17.0,0.0,29.88,634.0,0.0,0.0,325.0,0.0,0.0,0.0,0.0,0.0,0.0,0.0,0.0,0.0,0.0,0.0,0.0,0.0,0.0,0.0,0.0,0.0,0.0,0.0,0.0,0.0,0.0,0.0,0.0,0.0,15.0,0.0,0.0,30.0,0.0,0.0,0.0,0.0,0.0,0.0,38.7,0.0,0.0,-0.6,0.3,0.1,0.0,0.0,0.0,0.0,60.8,62.6,60.8,62.6,60.8,62.6,60.8,62.6,0.0,0.0,-2.0,1.5,0.0,0.0,2.0,0.0,0.0,0.0,0.659,0.902,0.0,15.3,0.0,0.0,0.0,0,0.0,0.0,0.0,285.8,True,2026-01-03 22:45:42 - Flight 1
67.06,1,9,2026-01-03 22:46:43,37.08165,-121.59956,311.0,0.0,171.1,-12.6,0.0,0,0.0,0.0,0.0,11.5,0.5,229.9,0.0,299.0,-0.0,0.01,1.0,0.0,-18.0,17.0,0.0,29.88,634.0,0.0,0.0,325.0,0.0,0.0,0.0,0.0,0.0,0.0,0.0,0.0,0.0,0.0,0.0,0.0,0.0,0.0,0.0,0.0,0.0,0.0,0.0,0.0,0.0,0.0,0.0,0.0,0.0,15.0,0.0,0.0,30.0,0.0,0.0,0.0,0.0,0.0,0.0,38.7,0.0,0.0,-0.6,0.3,0.1,0.0,0.0,0.0,0.0,60.8,62.6,60.8,62.6,60.8,62.6,60.8,62.6,0.0,0.0,-2.0,1.4,0.0,0.0,2.0,0.0,0.0,0.0,0.659,0.903,0.0,15.3,0.0,0.0,0.0,0,0.0,0.0,0.0,285.8,True,2026-01-03 22:45:42 - Flight 1
68.06,1,9,2026-01-03 22:46:44,37.08165,-121.59956,312.0,0.0,171.1,-12.6,0.0,0,0.0,0.0,0.0,11.5,0.5,229.9,0.0,299.0,0.0,0.01,1.0,0.0,-28.0,17.0,0.0,29.88,636.0,0.0,0.0,325.0,0.0,0.0,0.0,0.0,0.0,0.0,0.0,0.0,0.0,0.0,0.0,0.0,0.0,0.0,0.0,0.0,0.0,0.0,0.0,0.0,0.0,0.0,0.0,0.0,0.0,15.0,0.0,0.0,30.0,0.0,0.0,0.0,0.0,0.0,0.0,38.7,0.0,0.0,-0.6,0.3,0.1,0.0,0.0,0.0,0.0,60.8,62.6,60.8,62.6,60.8,62.6,60.8,62.6,0.0,0.0,-2.0,1.3,0.0,0.0,2.0,0.0,0.0,0.0,0.659,0.903,0.0,15.3,0.0,0.0,0.0,0,0.0,0.0,0.0,285.8,True,2026-01-03 22:45:42 - Flight 1
69.06,1,9,2026-01-03 22:46:45,37.08165,-121.59956,313.0,0.0,171.1,-12.6,0.0,0,0.0,0.0,0.0,11.5,0.6,229.9,0.0,299.0,-0.0,0.01,1.0,0.0,-31.0,17.0,0.0,29.88,634.0,0.0,0.0,325.0,0.0,0.0,0.0,0.0,0.0,0.0,0.0,0.0,0.0,0.0,0.0,0.0,0.0,0.0,0.0,0.0,0.0,0.0,0.0,0.0,0.0,0.0,0.0,0.0,0.0,15.0,0.0,0.0,30.0,0.0,0.0,0.0,0.0,0.0,0.0,38.7,0.0,0.0,-0.6,0.3,0.1,0.0,0.0,0.0,0.0,60.8,62.6,60.8,62.6,60.8,62.6,60.8,62.6,0.0,0.0,-2.0,1.2,0.0,0.0,2.0,0.0,0.0,0.0,0.659,0.905,0.0,15.3,0.0,0.0,0.0,0,0.0,0.0,0.0,285.8,True,2026-01-03 22:45:42 - Flight 1
70.06,1,9,2026-01-03 22:46:46,37.08165,-121.59956,314.0,0.0,171.1,-12.6,0.0,0,0.0,0.0,0.0,11.5,0.6,229.8,0.0,299.0,-0.0,0.01,1.0,0.0,-11.0,17.0,0.0,29.88,634.0,0.0,0.0,325.0,0.0,0.0,0.0,0.0,0.0,0.0,0.0,0.0,0.0,0.0,0.0,0.0,0.0,0.0,0.0,0.0,0.0,0.0,0.0,0.0,0.0,0.0,0.0,0.0,0.0,15.0,0.0,0.0,30.0,0.0,0.0,0.0,0.0,0.0,0.0,38.7,0.0,0.0,-0.6,0.3,0.1,0.0,0.0,0.0,0.0,60.8,62.6,60.8,62.6,60.8,62.6,60.8,62.6,0.0,0.0,-2.0,1.2,0.0,0.0,2.0,0.0,0.0,0.0,0.659,0.905,0.0,15.3,0.0,0.0,0.0,0,0.0,0.0,0.0,285.8,True,2026-01-03 22:45:42 - Flight 1
71.06,1,9,2026-01-03 22:46:47,37.08165,-121.59956,315.0,0.0,171.1,-12.6,0.0,0,0.0,0.0,0.0,11.5,0.6,229.9,0.0,299.0,-0.0,0.01,1.0,0.0,-42.0,17.0,0.0,29.88,634.0,0.0,0.0,325.0,0.0,0.0,0.0,0.0,0.0,0.0,0.0,0.0,0.0,0.0,0.0,0.0,0.0,0.0,0.0,0.0,0.0,0.0,0.0,0.0,0.0,0.0,0.0,0.0,0.0,15.0,0.0,0.0,30.0,0.0,0.0,0.0,0.0,0.0,0.0,38.7,0.0,0.0,-0.6,0.3,0.1,0.0,0.0,0.0,0.0,60.8,62.6,60.8,62.6,60.8,62.6,60.8,62.6,0.0,0.0,-2.0,1.1,0.0,0.0,2.0,0.0,0.0,0.0,0.659,0.907,0.0,15.3,0.0,0.0,0.0,0,0.0,0.0,0.0,285.8,True,2026-01-03 22:45:42 - Flight 1
72.06,1,9,2026-01-03 22:46:48,37.08165,-121.59956,317.0,0.0,171.1,-12.6,0.0,0,0.0,0.0,0.0,11.5,0.5,229.9,0.0,299.0,-0.0,0.01,1.0,0.0,-34.0,17.0,0.0,29.88,636.0,0.0,0.0,325.0,0.0,0.0,0.0,0.0,0.0,0.0,0.0,0.0,0.0,0.0,0.0,0.0,0.0,0.0,0.0,0.0,0.0,0.0,0.0,0.0,0.0,0.0,0.0,0.0,0.0,15.0,0.0,0.0,30.0,0.0,0.0,0.0,0.0,0.0,0.0,38.7,0.0,0.0,-0.6,0.3,0.1,0.0,0.0,0.0,0.0,60.8,62.6,60.8,62.6,60.8,62.6,60.8,62.6,0.0,0.0,-2.0,1.1,0.0,0.0,2.0,0.0,0.0,0.0,0.659,0.907,0.0,15.3,0.0,0.0,0.0,0,0.0,0.0,0.0,285.8,True,2026-01-03 22:45:42 - Flight 1
73.06,1,9,2026-01-03 22:46:49,37.08165,-121.59956,319.0,0.0,171.1,-12.6,0.0,0,0.0,0.0,0.0,11.5,0.5,229.8,0.0,299.0,-0.0,0.01,1.0,0.0,-49.0,17.0,0.0,29.88,636.0,0.0,0.0,325.0,0.0,0.0,0.0,0.0,0.0,0.0,0.0,0.0,0.0,0.0,0.0,0.0,0.0,0.0,0.0,0.0,0.0,0.0,0.0,0.0,0.0,0.0,0.0,0.0,0.0,15.0,0.0,0.0,30.0,0.0,0.0,0.0,0.0,0.0,0.0,38.7,0.0,0.0,-0.6,0.3,0.1,0.0,0.0,0.0,0.0,60.8,62.6,60.8,62.6,60.8,62.6,60.8,62.6,0.0,0.0,-2.0,1.1,0.0,0.0,2.0,0.0,0.0,0.0,0.659,0.908,0.0,15.3,0.0,0.0,0.0,0,0.0,0.0,0.0,285.8,True,2026-01-03 22:45:42 - Flight 1
74.06,1,9,2026-01-03 22:46:50,37.08165,-121.59956,320.0,0.0,171.1,-12.6,0.0,0,0.0,0.0,0.0,11.5,0.5,229.9,0.0,299.0,0.0,0.01,1.0,0.0,-27.0,17.0,0.0,29.88,634.0,0.0,0.0,325.0,0.0,0.0,0.0,0.0,0.0,0.0,0.0,0.0,0.0,0.0,0.0,0.0,0.0,0.0,0.0,0.0,0.0,0.0,0.0,0.0,0.0,0.0,0.0,0.0,0.0,15.0,0.0,0.0,30.0,0.0,0.0,0.0,0.0,0.0,0.0,38.7,0.0,0.0,-0.6,0.3,0.1,0.0,0.0,0.0,0.0,60.8,62.6,60.8,62.6,60.8,62.6,60.8,62.6,0.0,0.0,-2.0,1.0,0.0,0.0,2.0,0.0,0.0,0.0,0.659,0.909,0.0,15.3,0.0,0.0,0.0,0,0.0,0.0,0.0,285.8,True,2026-01-03 22:45:42 - Flight 1
75.06,1,9,2026-01-03 22:46:51,37.08165,-121.59957,321.0,0.1,171.1,-12.6,0.0,0,0.0,0.0,0.0,11.4,0.5,229.8,0.0,299.0,-0.0,0.01,1.0,0.0,-21.0,17.0,0.0,29.88,634.0,0.0,0.0,325.0,0.0,0.0,0.0,0.0,0.0,0.0,0.0,0.0,0.0,0.0,0.0,0.0,0.0,0.0,0.0,0.0,0.0,0.0,0.0,0.0,0.0,0.0,0.0,0.0,0.0,15.0,0.0,0.0,30.0,0.0,0.0,0.0,0.0,0.0,0.0,38.7,0.0,0.0,-0.6,0.3,0.1,0.0,0.0,0.0,0.0,60.8,62.6,60.8,62.6,60.8,62.6,60.8,62.6,0.0,0.0,-2.0,1.0,0.0,0.0,2.0,0.0,0.0,0.0,0.658,0.912,0.0,15.3,0.0,0.0,0.0,0,0.0,0.0,0.0,285.8,True,2026-01-03 22:45:42 - Flight 1
76.06,1,9,2026-01-03 22:46:52,37.08165,-121.59957,323.0,0.0,171.1,-12.6,0.0,0,0.0,0.0,0.0,11.5,0.6,229.8,0.0,299.0,-0.0,0.01,1.0,0.0,-22.0,17.0,0.0,29.88,634.0,0.0,0.0,325.0,0.0,0.0,0.0,0.0,0.0,0.0,0.0,0.0,0.0,0.0,0.0,0.0,0.0,0.0,0.0,0.0,0.0,0.0,0.0,0.0,0.0,0.0,0.0,0.0,0.0,15.0,0.0,0.0,30.0,0.0,0.0,0.0,0.0,0.0,0.0,38.7,0.0,0.0,-0.6,0.3,0.1,0.0,0.0,0.0,0.0,60.8,62.6,60.8,62.6,60.8,62.6,60.8,62.6,0.0,0.0,-2.0,1.0,0.0,0.0,2.0,0.0,0.0,0.0,0.659,0.913,0.0,15.3,0.0,0.0,0.0,0,0.0,0.0,0.0,285.8,True,2026-01-03 22:45:42 - Flight 1
77.06,1,9,2026-01-03 22:46:53,37.08165,-121.59957,324.0,0.0,171.1,-12.6,0.0,0,0.0,0.0,0.0,11.5,0.6,229.8,0.0,299.0,-0.0,0.01,1.0,0.0,-38.0,17.0,0.0,29.88,636.0,0.0,0.0,325.0,0.0,0.0,0.0,0.0,0.0,0.0,0.0,0.0,0.0,0.0,0.0,0.0,0.0,0.0,0.0,0.0,0.0,0.0,0.0,0.0,0.0,0.0,0.0,0.0,0.0,15.0,0.0,0.0,30.0,0.0,0.0,0.0,0.0,0.0,0.0,38.7,0.0,0.0,-0.6,0.3,0.1,0.0,0.0,0.0,0.0,60.8,62.6,60.8,62.6,60.8,62.6,60.8,62.6,0.0,0.0,-2.0,1.0,0.0,0.0,2.0,0.0,0.0,0.0,0.659,0.914,0.0,15.3,0.0,0.0,0.0,0,0.0,0.0,0.0,285.8,True,2026-01-03 22:45:42 - Flight 1
78.06,1,9,2026-01-03 22:46:54,37.08165,-121.59957,325.0,0.0,171.1,-12.6,0.0,0,0.0,0.0,0.0,11.5,0.6,229.7,0.0,299.0,-0.0,0.01,1.0,0.0,-65.0,17.0,0.0,29.88,636.0,0.0,0.0,325.0,0.0,0.0,0.0,0.0,0.0,0.0,0.0,0.0,0.0,0.0,0.0,0.0,0.0,0.0,0.0,0.0,0.0,0.0,0.0,0.0,0.0,0.0,0.0,0.0,0.0,15.0,0.0,0.0,30.0,0.0,0.0,0.0,0.0,0.0,0.0,38.7,0.0,0.0,-0.6,0.3,0.1,0.0,0.0,0.0,0.0,60.8,62.6,60.8,62.6,60.8,62.6,60.8,62.6,0.0,0.0,-2.0,1.0,0.0,0.0,2.0,0.0,0.0,0.0,0.659,0.916,0.0,15.3,0.0,0.0,0.0,0,0.0,0.0,0.0,285.8,True,2026-01-03 22:45:42 - Flight 1
79.06,1,9,2026-01-03 22:46:55,37.08165,-121.59958,326.0,0.0,171.1,-12.6,0.0,0,0.0,0.0,0.0,11.5,0.6,229.8,0.0,298.0,-0.0,0.01,1.0,0.0,-41.0,17.0,0.0,29.88,636.0,0.0,0.0,325.0,0.0,0.0,0.0,0.0,0.0,0.0,0.0,0.0,0.0,0.0,0.0,0.0,0.0,0.0,0.0,0.0,0.0,0.0,0.0,0.0,0.0,0.0,0.0,0.0,0.0,15.0,0.0,0.0,30.0,0.0,0.0,0.0,0.0,0.0,0.0,38.7,0.0,0.0,-0.6,0.3,0.1,0.0,0.0,0.0,0.0,60.8,62.6,60.8,62.6,60.8,62.6,60.8,62.6,0.0,0.0,-2.0,1.0,0.0,0.0,2.0,0.0,0.0,0.0,0.659,0.918,0.0,15.3,0.0,0.0,0.0,0,0.0,0.0,0.0,285.8,True,2026-01-03 22:45:42 - Flight 1
80.06,1,9,2026-01-03 22:46:56,37.08165,-121.59958,327.0,0.0,171.1,-12.6,0.0,0,0.0,0.0,0.0,11.5,0.6,229.7,0.0,298.0,-0.0,0.01,1.0,0.0,-50.0,17.0,0.0,29.88,633.0,0.0,0.0,325.0,0.0,0.0,0.0,0.0,0.0,0.0,0.0,0.0,0.0,0.0,0.0,0.0,0.0,0.0,0.0,0.0,0.0,0.0,0.0,0.0,0.0,0.0,0.0,0.0,0.0,15.0,0.0,0.0,30.0,0.0,0.0,0.0,0.0,0.0,0.0,38.7,0.0,0.0,-0.6,0.3,0.1,0.0,0.0,0.0,0.0,60.8,62.6,60.8,62.6,60.8,62.6,60.8,62.6,0.0,0.0,-2.0,1.0,0.0,0.0,2.0,0.0,0.0,0.0,0.658,0.919,0.0,15.3,0.0,0.0,0.0,0,0.0,0.0,0.0,285.8,True,2026-01-03 22:45:42 - Flight 1
81.06,1,9,2026-01-03 22:46:57,37.08165,-121.59958,327.0,0.0,171.1,-12.6,0.0,0,0.0,0.0,0.0,11.5,0.6,229.8,0.0,297.0,-0.0,0.01,1.0,0.0,-38.0,17.0,0.0,29.88,633.0,0.0,0.0,325.0,0.0,0.0,0.0,0.0,0.0,0.0,0.0,0.0,0.0,0.0,0.0,0.0,0.0,0.0,0.0,0.0,0.0,0.0,0.0,0.0,0.0,0.0,0.0,0.0,0.0,15.0,0.0,0.0,30.0,0.0,0.0,0.0,0.0,0.0,0.0,38.7,0.0,0.0,-0.6,0.3,0.1,0.0,0.0,0.0,0.0,60.8,62.6,60.8,62.6,60.8,62.6,60.8,62.6,0.0,0.0,-2.0,1.0,0.0,0.0,2.0,0.0,0.0,0.0,0.658,0.919,0.0,15.3,0.0,0.0,0.0,0,0.0,0.0,0.0,285.8,True,2026-01-03 22:45:42 - Flight 1
82.06,1,9,2026-01-03 22:46:58,37.08165,-121.59962,360.0,0.0,171.1,-12.6,0.0,0,0.0,0.0,0.0,11.5,0.6,229.8,0.0,297.0,0.0,0.01,1.0,0.0,-22.0,17.0,0.0,29.88,633.0,0.0,0.0,325.0,0.0,0.0,0.0,0.0,0.0,0.0,0.0,0.0,0.0,0.0,0.0,0.0,0.0,0.0,0.0,0.0,0.0,0.0,0.0,0.0,0.0,0.0,0.0,0.0,0.0,15.0,0.0,0.0,30.0,0.0,0.0,0.0,0.0,0.0,0.0,38.7,0.0,0.0,-0.6,0.3,0.1,0.0,0.0,0.0,0.0,60.8,62.6,60.8,62.6,60.8,62.6,60.8,62.6,0.0,0.0,-2.0,1.0,0.0,0.0,2.0,0.0,0.0,0.0,0.658,0.922,0.0,15.3,0.0,0.0,0.0,0,0.0,0.0,0.0,285.8,True,2026-01-03 22:45:42 - Flight 1
83.06,1,9,2026-01-03 22:46:59,37.08165,-121.59962,359.0,0.0,171.1,-12.6,0.0,0,0.0,0.0,0.0,11.5,0.6,229.8,0.0,297.0,0.0,0.01,1.0,0.0,-12.0,17.0,0.0,29.88,632.0,0.0,0.0,325.0,0.0,0.0,0.0,0.0,0.0,0.0,0.0,0.0,0.0,0.0,0.0,0.0,0.0,0.0,0.0,0.0,0.0,0.0,0.0,0.0,0.0,0.0,0.0,0.0,0.0,15.0,0.0,0.0,30.0,0.0,0.0,0.0,0.0,0.0,0.0,38.7,0.0,0.0,-0.6,0.3,0.1,0.0,0.0,0.0,0.0,60.8,62.6,60.8,62.6,60.8,62.6,60.8,62.6,0.0,0.0,-2.0,1.0,0.0,0.0,2.0,0.0,0.0,0.0,0.659,0.925,0.0,15.3,0.0,0.0,0.0,0,0.0,0.0,0.0,285.8,True,2026-01-03 22:45:42 - Flight 1
84.06,1,9,2026-01-03 22:47:00,37.08165,-121.59962,357.0,0.0,171.1,-12.6,0.0,0,0.0,0.0,0.0,11.5,0.6,229.8,0.0,297.0,-0.0,0.01,1.0,0.0,-8.0,17.0,0.0,29.88,632.0,0.0,0.0,325.0,0.0,0.0,0.0,0.0,0.0,0.0,0.0,0.0,0.0,0.0,0.0,0.0,0.0,0.0,0.0,0.0,0.0,0.0,0.0,0.0,0.0,0.0,0.0,0.0,0.0,15.0,0.0,0.0,30.0,0.0,0.0,0.0,0.0,0.0,0.0,38.7,0.0,0.0,-0.6,0.3,0.1,0.0,0.0,0.0,0.0,60.8,62.6,60.8,62.6,60.8,62.6,60.8,62.6,0.0,0.0,-2.0,1.0,0.0,0.0,2.0,0.0,0.0,0.0,0.659,0.928,0.0,15.3,0.0,0.0,0.0,0,0.0,0.0,0.0,285.8,True,2026-01-03 22:45:42 - Flight 1
85.06,1,9,2026-01-03 22:47:01,37.08165,-121.59962,355.0,0.0,171.1,-12.6,0.0,0,0.0,0.0,0.0,11.5,0.6,229.8,0.0,297.0,0.0,0.01,1.0,0.0,5.0,17.0,0.0,29.88,632.0,0.0,0.0,325.0,0.0,0.0,0.0,0.0,0.0,0.0,0.0,0.0,0.0,0.0,0.0,0.0,0.0,0.0,0.0,0.0,0.0,0.0,0.0,0.0,0.0,0.0,0.0,0.0,0.0,15.0,0.0,0.0,30.0,0.0,0.0,0.0,0.0,0.0,0.0,38.7,0.0,0.0,-0.6,0.3,0.1,0.0,0.0,0.0,0.0,60.8,62.6,60.8,62.6,60.8,62.6,60.8,62.6,0.0,0.0,-2.0,1.0,0.0,0.0,2.0,0.0,0.0,0.0,0.659,0.928,0.0,15.3,0.0,0.0,0.0,0,0.0,0.0,0.0,285.8,True,2026-01-03 22:45:42 - Flight 1
86.06,1,9,2026-01-03 22:47:02,37.08165,-121.59962,353.0,0.0,171.1,-12.6,0.0,0,0.0,0.0,0.0,11.5,0.6,229.9,0.0,297.0,0.0,0.01,1.0,0.0,25.0,17.0,0.0,29.88,632.0,0.0,0.0,325.0,0.0,0.0,0.0,0.0,0.0,0.0,0.0,0.0,0.0,0.0,0.0,0.0,0.0,0.0,0.0,0.0,0.0,0.0,0.0,0.0,0.0,0.0,0.0,0.0,0.0,15.0,0.0,0.0,30.0,0.0,0.0,0.0,0.0,0.0,0.0,38.7,0.0,0.0,-0.6,0.3,0.1,0.0,0.0,0.0,0.0,60.8,62.6,60.8,62.6,60.8,62.6,60.8,62.6,0.0,0.0,-2.0,1.0,0.0,0.0,2.0,0.0,0.0,0.0,0.658,0.931,0.0,15.3,0.0,0.0,0.0,0,0.0,0.0,0.0,285.8,True,2026-01-03 22:45:42 - Flight 1
87.06,1,9,2026-01-03 22:47:03,37.08165,-121.59961,351.0,0.0,171.1,-12.6,0.0,0,0.0,0.0,0.0,11.5,0.6,229.8,0.0,297.0,0.0,0.01,1.0,0.0,33.0,17.0,0.0,29.88,632.0,0.0,0.0,325.0,0.0,0.0,0.0,0.0,0.0,0.0,0.0,0.0,0.0,0.0,0.0,0.0,0.0,0.0,0.0,0.0,0.0,0.0,0.0,0.0,0.0,0.0,0.0,0.0,0.0,15.0,0.0,0.0,30.0,0.0,0.0,0.0,0.0,0.0,0.0,38.7,0.0,0.0,-0.6,0.3,0.1,0.0,0.0,0.0,0.0,60.8,62.6,60.8,62.6,60.8,62.6,60.8,62.6,0.0,0.0,-2.0,0.0,0.0,0.0,2.0,0.0,0.0,0.0,0.659,0.933,0.0,15.3,0.0,0.0,0.0,0,0.0,0.0,0.0,285.8,True,2026-01-03 22:45:42 - Flight 1
88.06,1,9,2026-01-03 22:47:04,37.08165,-121.59961,349.0,0.0,171.1,-12.6,0.0,0,0.0,0.0,0.0,11.5,0.6,229.8,0.0,297.0,-0.0,0.01,1.0,0.0,33.0,17.0,0.0,29.88,632.0,0.0,0.0,325.0,0.0,0.0,0.0,0.0,0.0,0.0,0.0,0.0,0.0,0.0,0.0,0.0,0.0,0.0,0.0,0.0,0.0,0.0,0.0,0.0,0.0,0.0,0.0,0.0,0.0,15.0,0.0,0.0,30.0,0.0,0.0,0.0,0.0,0.0,0.0,38.7,0.0,0.0,-0.6,0.3,0.1,0.0,0.0,0.0,0.0,60.8,62.6,60.8,62.6,60.8,62.6,60.8,62.6,0.0,0.0,-2.0,0.0,0.0,0.0,2.0,0.0,0.0,0.0,0.658,0.935,0.0,15.3,0.0,0.0,0.0,0,0.0,0.0,0.0,285.8,True,2026-01-03 22:45:42 - Flight 1
89.06,1,9,2026-01-03 22:47:05,37.08165,-121.59961,347.0,0.0,171.1,-12.6,0.0,0,0.0,0.0,0.0,11.5,0.6,229.8,0.0,297.0,0.0,0.01,1.0,0.0,22.0,17.0,0.0,29.88,632.0,0.0,0.0,325.0,0.0,0.0,0.0,0.0,0.0,0.0,0.0,0.0,0.0,0.0,0.0,0.0,0.0,0.0,0.0,0.0,0.0,0.0,0.0,0.0,0.0,0.0,0.0,0.0,0.0,15.0,0.0,0.0,30.0,0.0,0.0,0.0,0.0,0.0,0.0,38.7,0.0,0.0,-0.6,0.3,0.1,0.0,0.0,0.0,0.0,60.8,62.6,60.8,62.6,60.8,62.6,60.8,62.6,0.0,0.0,-2.0,0.0,0.0,0.0,2.0,0.0,0.0,0.0,0.658,0.936,0.0,15.3,0.0,0.0,0.0,0,0.0,0.0,0.0,285.8,True,2026-01-03 22:45:42 - Flight 1
90.06,1,9,2026-01-03 22:47:06,37.08165,-121.59960,345.0,0.0,171.1,-12.6,0.0,0,0.0,0.0,0.0,11.5,0.6,229.8,0.0,297.0,-0.0,0.01,1.0,0.0,55.0,17.0,0.0,29.88,632.0,0.0,0.0,325.0,0.0,0.0,0.0,0.0,0.0,0.0,0.0,0.0,0.0,0.0,0.0,0.0,0.0,0.0,0.0,0.0,0.0,0.0,0.0,0.0,0.0,0.0,0.0,0.0,0.0,15.0,0.0,0.0,30.0,0.0,0.0,0.0,0.0,0.0,0.0,38.7,0.0,0.0,-0.6,0.3,0.1,0.0,0.0,0.0,0.0,60.8,62.6,60.8,62.6,60.8,62.6,60.8,62.6,0.0,0.0,-2.0,0.0,0.0,0.0,2.0,0.0,0.0,0.0,0.658,0.936,0.0,15.3,0.0,0.0,0.0,0,0.0,0.0,0.0,285.8,True,2026-01-03 22:45:42 - Flight 1
91.06,1,9,2026-01-03 22:47:07,37.08165,-121.59960,343.0,0.1,171.1,-12.6,0.0,0,0.0,0.0,0.0,11.5,0.6,229.8,0.0,297.0,-0.0,0.01,1.0,0.0,24.0,17.0,0.0,29.88,632.0,0.0,0.0,325.0,0.0,0.0,0.0,0.0,0.0,0.0,0.0,0.0,0.0,0.0,0.0,0.0,0.0,0.0,0.0,0.0,0.0,0.0,0.0,0.0,0.0,0.0,0.0,0.0,0.0,15.0,0.0,0.0,30.0,0.0,0.0,0.0,0.0,0.0,0.0,38.7,0.0,0.0,-0.6,0.3,0.1,0.0,0.0,0.0,0.0,60.8,62.6,60.8,62.6,60.8,62.6,60.8,62.6,0.0,0.0,-2.0,0.0,0.0,0.0,2.0,0.0,0.0,0.0,0.659,0.935,0.0,15.3,0.0,0.0,0.0,0,0.0,0.0,0.0,285.8,True,2026-01-03 22:45:42 - Flight 1
92.06,1,9,2026-01-03 22:47:08,37.08165,-121.59959,341.0,0.0,171.1,-12.6,0.0,0,0.0,0.0,0.0,11.5,0.6,229.8,0.0,297.0,-0.0,0.01,1.0,0.0,8.0,17.0,0.0,29.88,632.0,0.0,0.0,325.0,0.0,0.0,0.0,0.0,0.0,0.0,0.0,0.0,0.0,0.0,0.0,0.0,0.0,0.0,0.0,0.0,0.0,0.0,0.0,0.0,0.0,0.0,0.0,0.0,0.0,15.0,0.0,0.0,30.0,0.0,0.0,0.0,0.0,0.0,0.0,38.7,0.0,0.0,-0.6,0.3,0.1,0.0,0.0,0.0,0.0,60.8,62.6,60.8,62.6,60.8,62.6,60.8,62.6,0.0,0.0,-2.0,0.0,0.0,0.0,2.0,0.0,0.0,0.0,0.659,0.936,0.0,15.3,0.0,0.0,0.0,0,0.0,0.0,0.0,285.8,True,2026-01-03 22:45:42 - Flight 1
93.06,1,9,2026-01-03 22:47:09,37.08165,-121.59959,340.0,0.0,171.1,-12.6,0.0,0,0.0,0.0,0.0,11.5,0.6,229.8,0.0,297.0,-0.0,0.01,1.0,0.0,-1.0,17.0,0.0,29.88,632.0,0.0,0.0,325.0,0.0,0.0,0.0,0.0,0.0,0.0,0.0,0.0,0.0,0.0,0.0,0.0,0.0,0.0,0.0,0.0,0.0,0.0,0.0,0.0,0.0,0.0,0.0,0.0,0.0,15.0,0.0,0.0,30.0,0.0,0.0,0.0,0.0,0.0,0.0,38.7,0.0,0.0,-0.6,0.3,0.1,0.0,0.0,0.0,0.0,60.8,62.6,60.8,62.6,60.8,62.6,60.8,62.6,0.0,0.0,-2.0,0.0,0.0,0.0,2.0,0.0,0.0,0.0,0.658,0.938,0.0,15.3,0.0,0.0,0.0,0,0.0,0.0,0.0,285.8,True,2026-01-03 22:45:42 - Flight 1
94.06,1,9,2026-01-03 22:47:10,37.08165,-121.59959,338.0,0.0,171.1,-12.6,0.0,0,0.0,0.0,0.0,11.5,0.7,229.8,0.0,297.0,0.0,0.0,0.9,0.0,52.0,17.0,0.0,29.88,632.0,0.0,0.0,325.0,0.0,0.0,0.0,0.0,0.0,0.0,0.0,0.0,0.0,0.0,0.0,0.0,0.0,0.0,0.0,0.0,0.0,0.0,0.0,0.0,0.0,0.0,0.0,0.0,0.0,15.0,0.0,0.0,30.0,0.0,0.0,0.0,0.0,0.0,0.0,38.7,0.0,0.0,-0.6,0.3,0.1,0.0,0.0,0.0,0.0,60.8,62.6,60.8,62.6,60.8,62.6,60.8,62.6,0.0,0.0,-2.0,0.0,0.0,0.0,2.0,0.0,0.0,0.0,0.658,0.936,0.0,15.3,0.0,0.0,0.0,0,0.0,0.0,0.0,285.8,True,2026-01-03 22:45:42 - Flight 1
95.06,1,9,2026-01-03 22:47:11,37.08165,-121.59959,336.0,0.0,171.1,-12.6,0.0,0,0.0,0.0,0.0,11.5,0.7,229.7,0.0,297.0,-0.0,0.01,0.9,0.0,9.0,17.0,0.0,29.88,632.0,0.0,0.0,325.0,0.0,0.0,0.0,0.0,0.0,0.0,0.0,0.0,0.0,0.0,0.0,0.0,0.0,0.0,0.0,0.0,0.0,0.0,0.0,0.0,0.0,0.0,0.0,0.0,0.0,15.0,0.0,0.0,30.0,0.0,0.0,0.0,0.0,0.0,0.0,38.7,0.0,0.0,-0.6,0.3,0.1,0.0,0.0,0.0,0.0,60.8,62.6,60.8,62.6,60.8,62.6,60.8,62.6,0.0,0.0,-2.0,0.0,0.0,0.0,2.0,0.0,0.0,0.0,0.658,0.936,0.0,15.3,0.0,0.0,0.0,0,0.0,0.0,0.0,285.8,True,2026-01-03 22:45:42 - Flight 1
96.06,1,9,2026-01-03 22:47:12,37.08165,-121.59958,334.0,0.0,171.1,-12.6,0.0,0,0.0,0.0,0.0,11.5,0.6,229.7,0.0,297.0,-0.0,0.01,1.0,0.0,11.0,17.0,0.0,29.88,632.0,0.0,0.0,325.0,0.0,0.0,0.0,0.0,0.0,0.0,0.0,0.0,0.0,0.0,0.0,0.0,0.0,0.0,0.0,0.0,0.0,0.0,0.0,0.0,0.0,0.0,0.0,0.0,0.0,15.0,0.0,0.0,30.0,0.0,0.0,0.0,0.0,0.0,0.0,38.7,0.0,0.0,-0.6,0.3,0.1,0.0,0.0,0.0,0.0,60.8,62.6,60.8,62.6,60.8,62.6,60.8,62.6,0.0,0.0,-2.0,0.0,0.0,0.0,2.0,0.0,0.0,0.0,0.658,0.938,0.0,15.3,0.0,0.0,0.0,0,0.0,0.0,0.0,285.8,True,2026-01-03 22:45:42 - Flight 1
97.06,1,9,2026-01-03 22:47:13,37.08165,-121.59958,326.0,0.0,171.1,-12.6,0.0,0,0.0,0.0,0.0,11.5,0.6,229.7,0.0,297.0,-0.0,0.01,1.0,0.0,19.0,17.0,0.0,29.88,632.0,0.0,0.0,325.0,0.0,0.0,0.0,0.0,0.0,0.0,0.0,0.0,0.0,0.0,0.0,0.0,0.0,0.0,0.0,0.0,0.0,0.0,0.0,0.0,0.0,0.0,0.0,0.0,0.0,15.0,0.0,0.0,30.0,0.0,0.0,0.0,0.0,0.0,0.0,38.7,0.0,0.0,-0.6,0.3,0.1,0.0,0.0,0.0,0.0,60.8,62.6,60.8,62.6,60.8,62.6,60.8,62.6,0.0,0.0,-2.0,0.0,0.0,0.0,2.0,0.0,0.0,0.0,0.658,0.939,0.0,15.3,0.0,0.0,0.0,0,0.0,0.0,0.0,285.8,True,2026-01-03 22:45:42 - Flight 1
98.06,1,9,2026-01-03 22:47:14,37.08165,-121.59958,324.0,0.0,171.1,-12.6,0.0,0,0.0,0.0,0.0,11.5,0.6,229.7,0.0,297.0,-0.0,0.01,1.0,0.0,-2.0,17.0,0.0,29.88,632.0,0.0,0.0,325.0,0.0,0.0,0.0,0.0,0.0,0.0,0.0,0.0,0.0,0.0,0.0,0.0,0.0,0.0,0.0,0.0,0.0,0.0,0.0,0.0,0.0,0.0,0.0,0.0,0.0,15.0,0.0,0.0,30.0,0.0,0.0,0.0,0.0,0.0,0.0,38.7,0.0,0.0,-0.6,0.3,0.1,0.0,0.0,0.0,0.0,60.8,62.6,60.8,62.6,60.8,62.6,60.8,62.6,0.0,0.0,-2.0,0.0,0.0,0.0,2.0,0.0,0.0,0.0,0.658,0.94,0.0,15.3,0.0,0.0,0.0,0,0.0,0.0,0.0,285.8,True,2026-01-03 22:45:42 - Flight 1
99.06,1,9,2026-01-03 22:47:15,37.08165,-121.59958,323.0,0.0,171.1,-12.6,0.0,0,0.0,0.0,0.0,11.5,0.6,229.7,0.0,297.0,-0.0,0.01,1.0,0.0,12.0,17.0,0.0,29.88,634.0,0.0,0.0,325.0,0.0,0.0,0.0,0.0,0.0,0.0,0.0,0.0,0.0,0.0,0.0,0.0,0.0,0.0,0.0,0.0,0.0,0.0,0.0,0.0,0.0,0.0,0.0,0.0,0.0,15.0,0.0,0.0,30.0,0.0,0.0,0.0,0.0,0.0,0.0,38.7,0.0,0.0,-0.6,0.3,0.1,0.0,0.0,0.0,0.0,60.8,62.6,60.8,62.6,60.8,62.6,60.8,62.6,0.0,0.0,-2.0,0.0,0.0,0.0,2.0,0.0,0.0,0.0,0.658,0.942,0.0,15.3,0.0,0.0,0.0,0,0.0,0.0,0.0,285.8,True,2026-01-03 22:45:42 - Flight 1
100.06,1,9,2026-01-03 22:47:16,37.08165,-121.59957,321.0,0.0,171.1,-12.6,0.0,0,0.0,0.0,0.0,11.5,0.5,229.7,0.0,297.0,-0.0,0.01,1.0,0.0,17.0,17.0,0.0,29.88,634.0,0.0,0.0,325.0,0.0,0.0,0.0,0.0,0.0,0.0,0.0,0.0,0.0,0.0,0.0,0.0,0.0,0.0,0.0,0.0,0.0,0.0,0.0,0.0,0.0,0.0,0.0,0.0,0.0,15.0,0.0,0.0,30.0,0.0,0.0,0.0,0.0,0.0,0.0,38.7,0.0,0.0,-0.6,0.3,0.1,0.0,0.0,0.0,0.0,60.8,62.6,60.8,62.6,60.8,62.6,60.8,62.6,0.0,0.0,-2.0,0.0,0.0,0.0,2.0,0.0,0.0,0.0,0.658,0.942,0.0,15.3,0.0,0.0,0.0,0,0.0,0.0,0.0,285.8,True,2026-01-03 22:45:42 - Flight 1
101.06,1,9,2026-01-03 22:47:17,37.08165,-121.59957,320.0,0.0,171.1,-12.6,0.0,0,0.0,0.0,0.0,11.4,0.5,229.7,0.0,297.0,-0.0,0.01,1.0,0.0,24.0,17.0,0.0,29.88,634.0,0.0,0.0,325.0,0.0,0.0,0.0,0.0,0.0,0.0,0.0,0.0,0.0,0.0,0.0,0.0,0.0,0.0,0.0,0.0,0.0,0.0,0.0,0.0,0.0,0.0,0.0,0.0,0.0,15.0,0.0,0.0,30.0,0.0,0.0,0.0,0.0,0.0,0.0,38.7,0.0,0.0,-0.6,0.3,0.1,0.0,0.0,0.0,0.0,60.8,62.6,60.8,62.6,60.8,62.6,60.8,62.6,0.0,0.0,-2.0,0.0,0.0,0.0,2.0,0.0,0.0,0.0,0.658,0.945,0.0,15.3,0.0,0.0,0.0,0,0.0,0.0,0.0,285.8,True,2026-01-03 22:45:42 - Flight 1
102.06,1,9,2026-01-03 22:47:18,37.08165,-121.59957,318.0,0.0,171.1,-12.6,0.0,0,0.0,0.0,0.0,11.4,0.5,229.7,0.0,297.0,0.0,0.01,1.0,0.0,22.0,17.0,0.0,29.88,634.0,0.0,0.0,325.0,0.0,0.0,0.0,0.0,0.0,0.0,0.0,0.0,0.0,0.0,0.0,0.0,0.0,0.0,0.0,0.0,0.0,0.0,0.0,0.0,0.0,0.0,0.0,0.0,0.0,15.0,0.0,0.0,30.0,0.0,0.0,0.0,0.0,0.0,0.0,38.7,0.0,0.0,-0.6,0.3,0.1,0.0,0.0,0.0,0.0,60.8,62.6,60.8,62.6,60.8,62.6,60.8,62.6,0.0,0.0,-2.0,0.0,0.0,0.0,2.0,0.0,0.0,0.0,0.658,0.947,0.0,15.3,0.0,0.0,0.0,0,0.0,0.0,0.0,285.8,True,2026-01-03 22:45:42 - Flight 1
103.06,1,9,2026-01-03 22:47:19,37.08165,-121.59957,317.0,0.0,171.1,-12.6,0.0,0,0.0,0.0,0.0,11.5,0.6,229.8,0.0,297.0,-0.0,0.01,1.0,0.0,31.0,17.0,0.0,29.88,634.0,0.0,0.0,325.0,0.0,0.0,0.0,0.0,0.0,0.0,0.0,0.0,0.0,0.0,0.0,0.0,0.0,0.0,0.0,0.0,0.0,0.0,0.0,0.0,0.0,0.0,0.0,0.0,0.0,15.0,0.0,0.0,30.0,0.0,0.0,0.0,0.0,0.0,0.0,38.7,0.0,0.0,-0.6,0.3,0.1,0.0,0.0,0.0,0.0,60.8,62.6,60.8,62.6,60.8,62.6,60.8,62.6,0.0,0.0,-2.0,0.0,0.0,0.0,2.0,0.0,0.0,0.0,0.658,0.951,0.0,15.3,0.0,0.0,0.0,0,0.0,0.0,0.0,285.8,True,2026-01-03 22:45:42 - Flight 1
104.06,1,9,2026-01-03 22:47:20,37.08165,-121.59956,315.0,0.0,171.1,-12.6,0.0,0,0.0,0.0,0.0,11.5,0.5,229.8,0.0,297.0,0.0,0.01,1.0,0.0,17.0,17.0,0.0,29.88,634.0,0.0,0.0,325.0,0.0,0.0,0.0,0.0,0.0,0.0,0.0,0.0,0.0,0.0,0.0,0.0,0.0,0.0,0.0,0.0,0.0,0.0,0.0,0.0,0.0,0.0,0.0,0.0,0.0,15.0,0.0,0.0,30.0,0.0,0.0,0.0,0.0,0.0,0.0,38.7,0.0,0.0,-0.6,0.3,0.1,0.0,0.0,0.0,0.0,60.8,62.6,60.8,62.6,60.8,62.6,60.8,62.6,0.0,0.0,-2.0,0.0,0.0,0.0,2.0,0.0,0.0,0.0,0.658,0.951,0.0,15.3,0.0,0.0,0.0,0,0.0,0.0,0.0,285.8,True,2026-01-03 22:45:42 - Flight 1
105.06,1,9,2026-01-03 22:47:21,37.08165,-121.59956,314.0,0.1,171.1,-12.6,0.0,0,0.0,0.0,0.0,11.5,0.5,229.8,0.0,298.0,-0.0,0.01,1.0,0.0,36.0,17.0,0.0,29.88,635.0,0.0,0.0,325.0,0.0,0.0,0.0,0.0,0.0,0.0,0.0,0.0,0.0,0.0,0.0,0.0,0.0,0.0,0.0,0.0,0.0,0.0,0.0,0.0,0.0,0.0,0.0,0.0,0.0,15.0,0.0,0.0,30.0,0.0,0.0,0.0,0.0,0.0,0.0,38.7,0.0,0.0,-0.6,0.3,0.1,0.0,0.0,0.0,0.0,60.8,62.6,60.8,62.6,60.8,62.6,60.8,62.6,0.0,0.0,-2.0,0.0,0.0,0.0,2.0,0.0,0.0,0.0,0.658,0.948,0.0,15.3,0.0,0.0,0.0,0,0.0,0.0,0.0,285.8,True,2026-01-03 22:45:42 - Flight 1
106.06,1,9,2026-01-03 22:47:22,37.08165,-121.59956,312.0,0.0,171.1,-12.6,0.0,0,0.0,0.0,0.0,11.5,0.6,229.9,0.0,298.0,-0.0,0.01,1.0,0.0,38.0,17.0,0.0,29.88,635.0,0.0,0.0,325.0,0.0,0.0,0.0,0.0,0.0,0.0,0.0,0.0,0.0,0.0,0.0,0.0,0.0,0.0,0.0,0.0,0.0,0.0,0.0,0.0,0.0,0.0,0.0,0.0,0.0,15.0,0.0,0.0,30.0,0.0,0.0,0.0,0.0,0.0,0.0,38.7,0.0,0.0,-0.6,0.3,0.1,0.0,0.0,0.0,0.0,60.8,62.6,60.8,62.6,60.8,62.6,60.8,62.6,0.0,0.0,-2.0,0.0,0.0,0.0,2.0,0.0,0.0,0.0,0.658,0.952,0.0,15.3,0.0,0.0,0.0,0,0.0,0.0,0.0,285.8,True,2026-01-03 22:45:42 - Flight 1
107.06,1,9,2026-01-03 22:47:23,37.08165,-121.59956,311.0,0.0,171.1,-12.6,0.0,0,0.0,0.0,0.0,11.5,0.6,229.9,0.0,299.0,0.0,0.01,1.0,0.0,25.0,17.0,0.0,29.88,636.0,0.0,0.0,325.0,0.0,0.0,0.0,0.0,0.0,0.0,0.0,0.0,0.0,0.0,0.0,0.0,0.0,0.0,0.0,0.0,0.0,0.0,0.0,0.0,0.0,0.0,0.0,0.0,0.0,15.0,0.0,0.0,30.0,0.0,0.0,0.0,0.1,0.0,0.0,38.7,0.0,0.0,-0.6,0.3,0.1,0.0,0.0,0.0,0.0,60.8,62.6,60.8,62.6,60.8,62.6,60.8,62.6,0.0,0.0,-2.0,0.0,0.0,0.1,2.0,0.0,0.0,0.0,0.658,0.957,0.0,15.3,0.0,0.0,0.0,0,0.0,0.0,0.0,285.8,True,2026-01-03 22:45:42 - Flight 1
108.06,1,9,2026-01-03 22:47:24,37.08165,-121.59956,310.0,0.0,171.1,-12.6,0.0,0,0.0,0.0,0.0,11.6,0.6,229.9,0.0,299.0,0.0,0.01,1.0,0.0,16.0,17.0,0.0,29.88,636.0,0.0,0.0,325.0,0.0,0.0,0.0,0.0,0.0,0.0,0.0,0.0,0.0,0.0,0.0,0.0,0.0,0.0,0.0,0.0,0.0,0.0,0.0,0.0,0.0,0.0,0.0,0.0,0.0,15.0,0.0,0.0,30.0,1.6,0.0,1.6,11.7,0.0,0.0,38.7,0.0,0.0,-0.6,0.3,0.1,0.0,0.0,0.0,0.0,60.8,62.6,60.8,62.6,60.8,62.6,60.8,62.6,0.0,0.0,-2.0,0.0,0.0,11.7,2.0,0.0,0.0,0.0,0.658,0.955,0.0,15.3,0.0,0.0,0.0,0,0.0,0.0,0.00022222222222222223,285.8,True,2026-01-03 22:45:42 - Flight 1
109.06,1,9,2026-01-03 22:47:25,37.08165,-121.59956,309.0,0.0,171.1,-12.6,0.0,0,0.0,0.0,0.0,11.5,0.6,229.9,0.0,299.0,0.0,0.01,1.0,0.0,8.0,17.0,0.0,29.88,636.0,0.0,0.0,325.0,0.0,0.0,0.0,0.0,0.0,0.0,0.0,0.0,0.0,0.0,0.0,0.0,0.0,0.0,0.0,0.0,0.0,0.0,0.0,0.0,0.0,0.0,0.0,0.0,0.0,15.0,0.0,0.0,30.0,2.0,0.0,2.0,29.4,0.0,0.0,38.7,0.0,0.0,-0.6,0.3,0.1,0.0,0.0,0.0,0.0,60.8,62.6,60.8,62.6,60.8,62.6,60.8,62.6,0.0,0.0,-2.0,0.0,0.0,29.4,2.0,0.0,0.0,0.0,0.658,0.958,0.0,15.3,0.0,0.0,0.0,0,0.0,0.0,0.0007222222222222222,285.8,True,2026-01-03 22:45:42 - Flight 1
110.06,2,9,2026-01-03 22:47:26,37.08165,-121.59956,314.0,0.0,171.1,-12.6,0.0,0,0.0,0.0,0.0,11.5,0.5,229.9,0.0,299.0,0.0,0.01,1.0,0.0,39.0,17.0,0.0,29.88,644.0,0.0,0.0,325.0,0.0,0.0,0.0,0.0,0.0,0.0,0.0,0.0,0.0,0.0,0.0,0.0,0.0,0.0,0.0,0.0,0.0,0.0,0.0,0.0,0.0,0.0,0.0,0.0,0.0,15.0,0.0,0.0,30.0,2.2,0.0,2.2,31.2,0.0,0.0,38.7,0.0,0.0,-0.5,0.3,0.1,0.0,0.0,0.0,0.0,60.8,62.6,60.8,62.6,60.8,62.6,60.8,62.6,0.0,0.0,-2.0,0.0,0.0,31.2,2.0,0.0,0.0,0.0,0.658,0.958,0.0,15.3,0.0,0.0,0.0,0,0.0,0.0,0.0013055555555555555,285.8,True,2026-01-03 22:45:42 - Flight 1
111.06,2,9,2026-01-03 22:47:27,37.08165,-121.59956,313.0,0.0,171.1,-12.6,0.0,0,0.0,0.0,0.0,11.5,0.6,229.9,0.0,300.0,0.0,0.01,1.0,0.0,15.0,17.0,0.0,29.88,644.0,0.0,0.0,325.0,0.0,0.0,0.0,0.0,0.0,0.0,0.0,0.0,0.0,0.0,0.0,0.0,0.0,0.0,0.0,0.0,0.0,0.0,0.0,0.0,0.0,0.0,0.0,0.0,0.0,15.0,0.0,0.0,30.0,2.6,0.0,2.6,32.1,0.0,0.0,38.7,0.0,0.0,-0.5,0.3,0.1,0.0,0.0,0.0,0.0,60.8,62.6,60.8,62.6,60.8,62.6,60.8,62.6,0.0,0.0,-2.0,0.0,0.0,32.1,2.0,0.0,0.0,0.0,0.658,0.957,0.0,15.3,0.0,0.0,0.0,0,0.0,0.0,0.0019722222222222224,285.8,True,2026-01-03 22:45:42 - Flight 1
112.06,2,9,2026-01-03 22:47:28,37.08165,-121.59951,278.0,0.0,171.1,-12.6,0.0,0,0.0,0.0,0.0,11.5,0.6,229.9,0.0,300.0,0.0,0.01,1.0,0.0,12.0,17.0,0.0,29.88,644.0,0.0,0.0,325.0,0.0,0.0,0.0,0.0,0.0,0.0,0.0,0.0,0.0,0.0,0.0,0.0,0.0,0.0,0.0,0.0,0.0,0.0,0.0,0.0,0.0,0.0,0.0,0.0,0.0,15.0,0.0,0.0,30.0,2.9,0.0,2.9,25.1,0.0,0.0,38.7,0.0,0.0,-0.6,0.3,0.1,0.0,0.0,0.0,0.0,60.8,62.6,60.8,62.6,60.8,62.6,60.8,62.6,0.0,0.0,-2.0,0.0,0.0,25.1,2.0,0.0,0.0,0.0,0.658,0.957,0.0,15.3,0.0,0.0,0.0,0,0.0,0.0,0.0027361111111111115,285.8,True,2026-01-03 22:45:42 - Flight 1
113.06,2,9,2026-01-03 22:47:29,37.08165,-121.59951,278.0,0.0,171.1,-12.6,0.0,0,0.0,0.0,0.0,11.5,0.6,229.8,0.0,300.0,0.0,0.01,1.0,0.0,-2.0,17.0,0.0,29.88,646.0,0.0,0.0,325.0,0.0,0.0,0.0,0.0,0.0,0.0,0.0,0.0,0.0,0.0,0.0,0.0,0.0,0.0,0.0,0.0,0.0,0.0,0.0,0.0,0.0,0.0,0.0,0.0,0.0,15.0,0.0,0.0,30.0,3.2,0.0,3.2,24.1,0.0,0.0,38.7,0.0,0.0,-0.6,0.3,0.1,0.0,0.0,0.0,0.0,60.8,62.6,60.8,62.6,60.8,62.6,60.8,62.6,0.0,0.0,-2.0,0.0,0.0,24.1,2.0,0.0,0.0,0.0,0.658,0.961,0.0,15.3,0.0,0.0,0.0,0,0.0,0.0,0.0035833333333333338,285.8,True,2026-01-03 22:45:42 - Flight 1
114.06,2,9,2026-01-03 22:47:30,37.08165,-121.59951,278.0,0.0,171.1,-12.6,0.0,0,0.0,0.0,0.0,11.5,0.6,229.7,0.0,300.0,-0.0,0.01,1.0,0.0,4.0,17.0,0.0,29.88,646.0,0.0,0.0,325.0,0.0,0.0,0.0,0.0,0.0,0.0,0.0,0.0,0.0,0.0,0.0,0.0,0.0,0.0,0.0,0.0,0.0,0.0,0.0,0.0,0.0,0.0,0.0,0.0,0.0,15.0,0.0,0.0,30.0,2.6,0.0,2.6,24.1,0.0,0.0,38.7,0.0,0.0,-0.6,0.3,0.1,0.0,0.0,0.0,0.0,60.8,62.6,60.8,62.6,60.8,62.6,60.8,62.6,0.0,0.0,-2.0,0.0,0.0,24.1,2.0,0.0,0.0,0.0,0.658,0.958,0.0,15.3,0.0,0.0,0.0,0,0.0,0.0,0.004388888888888889,285.8,True,2026-01-03 22:45:42 - Flight 1
