Session Time,GPS Fix Quality,Number of Satellites,GPS Date & Time,Latitude (deg),Longitude (deg),GPS Altitude (feet),Ground Speed (knots),Ground Track (deg),Mag Var (deg),Cross Track Error (NM),Destination Waypoint ID,Range to Destination (NM),Bearing to Destination (deg),System Time,Pitch (deg),Roll (deg),Magnetic Heading (deg),Indicated Airspeed (knots),Pressure Altitude (ft),Turn Rate (deg/s),Lateral Accel (g),Vertical Accel(g),Angle of Attack (%),Vertical Speed (ft/min),OAT (deg C),True Airspeed (knots),Barometer Setting (inHg),Density Altitude (ft),Wind Direction (deg),Wind Speed (knots),Heading Bug (deg),Altitude Bug (ft),Airspeed Bug (knots),Vertical Speed Bug (ft/min),Course (deg),CDI Source Type,CDI Source Port,CDI Scale (NM),CDI Deflection (%),Glideslope (%),AP Engaged,AP Roll Mode,AP Roll Force,AP Roll Position (steps),AP Roll Slip (bool),AP Pitch Force,AP Pitch Position (steps),AP Pitch Slip (bool),AP Yaw Force,AP Yaw Position,AP Yaw Slip (bool),Transponder Status,Transponder Reply (bool),Transponder Identing (bool),Transponder Code (octal),Oil Pressure (PSI),Oil Temp (deg C),RPM L,RPM R,Manifold Pressure (inHg),Fuel Flow 1 (gal/hr),Fuel Flow 2 (gal/hr),Total Fuel Flow (gal/hr),Fuel Pressure (PSI),Fuel Level L (gal),Fuel Level R (gal),Fuel Remaining (gal),Volts 1,Volts 2,Amps,Hobbs Time,Tach Time,Thermocouple 1 (deg C),Thermocouple 2 (deg C),Thermocouple 3 (deg C),Thermocouple 4 (deg C),CHT 4 (deg F),EGT 4 (deg F),CHT 3 (deg F),EGT 3 (deg F),CHT 2 (deg F),EGT 2 (deg F),CHT 1 (deg F),EGT 1 (deg F),Thermocouple 13 (deg C),Thermocouple 14 (deg C),ELEV POSITION (%),CO PPM PRESSURE (PSI),GP Input 3,FUEL PRESSURE (PSI),AILERN POSITION (%),CANOPY CONTACT (V),GP Input 7,GP Input 8,LEFT LEVEL (Sensor V),RIGHT LEVEL (Sensor V),OIL PRESSURE (PSI),OIL TEMPERATURE (deg C),GP Input 13,Contacts,Percent Power,EGT Leaning State,Unnamed: 103,RPM,Fuel Flow Integral,Max CHT,Engine Run,Flight ID
0.06,1,8,2026-02-01 00:45:19,37.08159,-121.59958,309.0,0.0,231.1,-12.7,0.0,0,0.0,0.0,0.0,0.0,0.0,0.0,0.0,0.0,0.0,0.0,0.0,0.0,0.0,21.0,0.0,0.0,0.0,0.0,0.0,241.0,0.0,110.0,0.0,0.0,0.0,0.0,0.0,0.0,0.0,0.0,0.0,0.0,0.0,0.0,0.0,0.0,0.0,0.0,0.0,0.0,0.0,0.0,0.0,0.0,0.0,0.0,0.0,0.0,0.0,0.0,0.0,0.0,0.0,0.0,0.0,37.4,0.0,0.0,0.0,0.9,0.3,0.0,0.0,0.0,0.0,0.0,0.0,0.0,0.0,0.0,0.0,0.0,0.0,0.0,0.0,0.0,0.0,0.0,0.0,0.0,0.0,0.0,0.0,0.0,0.0,0.0,0.0,0.0,0.0,0.0,0,0.0,0.0,0.0,419.0,True,2026-02-01 00:45:19 - Flight 5
1.06,1,8,2026-02-01 00:45:20,37.08159,-121.59958,310.0,0.0,231.1,-12.6,0.0,0,0.0,0.0,0.0,10.5,-2.1,53.0,0.0,139.0,-0.0,-0.04,1.0,0.0,-115.0,21.0,0.0,30.44,876.0,0.0,0.0,241.0,0.0,110.0,0.0,0.0,0.0,0.0,0.0,0.0,0.0,0.0,0.0,0.0,0.0,0.0,0.0,0.0,0.0,0.0,0.0,0.0,0.0,0.0,0.0,0.0,0.0,0.0,0.0,0.0,0.0,0.0,0.0,0.0,0.0,0.0,0.0,37.4,0.0,0.0,-0.5,0.9,0.3,0.0,0.0,0.0,0.0,64.4,66.2,64.4,66.2,64.4,66.2,64.4,66.2,0.0,0.0,-6.0,254.4,0.0,0.8,-8.0,4.998,0.0,0.0,0.654,0.791,0.0,56.5,0.0,0.0,0.0,0,0.0,0.0,0.0,419.0,True,2026-02-01 00:45:19 - Flight 5
2.06,1,8,2026-02-01 00:45:21,37.08159,-121.59958,311.0,0.0,231.1,-12.6,0.0,0,0.0,0.0,0.0,10.5,-2.1,53.1,0.0,138.0,-0.0,-0.04,1.0,0.0,-82.0,21.0,0.0,30.44,876.0,0.0,0.0,241.0,0.0,110.0,0.0,0.0,0.0,0.0,0.0,0.0,0.0,0.0,0.0,0.0,0.0,0.0,0.0,0.0,0.0,0.0,0.0,0.0,0.0,0.0,0.0,0.0,0.0,0.0,0.0,0.0,0.0,0.0,0.0,0.0,0.0,0.0,0.0,37.4,0.0,0.0,-0.5,0.9,0.3,0.0,0.0,0.0,0.0,64.4,66.2,64.4,66.2,64.4,66.2,64.4,66.2,0.0,0.0,-6.0,254.4,0.0,0.8,-8.0,4.998,0.0,0.0,0.654,0.791,0.0,56.5,0.0,0.0,0.0,0,0.0,0.0,0.0,419.0,True,2026-02-01 00:45:19 - Flight 5
3.06,1,8,2026-02-01 00:45:22,37.08158,-121.59958,311.0,0.0,231.1,-12.6,0.0,0,0.0,0.0,0.0,10.6,-2.1,53.1,0.0,137.0,0.0,-0.04,1.0,0.0,-84.0,21.0,0.0,30.44,876.0,0.0,0.0,241.0,0.0,110.0,0.0,0.0,0.0,0.0,0.0,0.0,0.0,0.0,0.0,0.0,0.0,0.0,0.0,0.0,0.0,0.0,0.0,0.0,0.0,0.0,0.0,0.0,0.0,0.0,0.0,0.0,0.0,0.0,0.0,0.0,0.0,0.0,0.0,37.4,0.0,0.0,-0.5,0.9,0.3,0.0,0.0,0.0,0.0,64.4,66.2,64.4,66.2,64.4,66.2,64.4,66.2,0.0,0.0,-6.0,254.4,0.0,0.8,-8.0,4.998,0.0,0.0,0.654,0.803,0.0,0.0,0.0,0.0,0.0,0,0.0,0.0,0.0,419.0,True,2026-02-01 00:45:19 - Flight 5
4.06,1,8,2026-02-01 00:45:24,37.08158,-121.59958,313.0,0.0,231.1,-12.6,0.0,0,0.0,0.0,0.0,10.6,-2.1,53.1,0.0,135.0,0.0,-0.04,1.0,0.0,-62.0,21.0,0.0,30.44,872.0,0.0,0.0,241.0,0.0,110.0,0.0,0.0,0.0,0.0,0.0,0.0,0.0,0.0,0.0,0.0,0.0,0.0,0.0,0.0,0.0,0.0,0.0,0.0,0.0,0.0,0.0,0.0,0.0,0.0,0.0,0.0,0.0,0.0,0.0,0.0,0.0,0.0,0.0,37.4,0.0,0.0,-0.5,0.9,0.3,0.0,0.0,0.0,0.0,64.4,66.2,64.4,66.2,64.4,66.2,64.4,66.2,0.0,0.0,-6.0,254.4,0.0,0.8,-8.0,4.998,0.0,0.0,0.654,0.8,0.0,17.3,0.0,0.0,0.0,0,0.0,0.0,0.0,419.0,True,2026-02-01 00:45:19 - Flight 5
5.06,1,8,2026-02-01 00:45:24,37.08158,-121.59959,314.0,0.0,231.1,-12.6,0.0,0,0.0,0.0,0.0,10.6,-2.1,53.1,0.0,135.0,0.0,-0.04,1.0,0.0,-72.0,21.0,0.0,30.44,872.0,0.0,0.0,241.0,0.0,0.0,0.0,0.0,0.0,0.0,0.0,0.0,0.0,0.0,0.0,0.0,0.0,0.0,0.0,0.0,0.0,0.0,0.0,0.0,0.0,0.0,0.0,0.0,0.0,17.0,0.0,0.0,30.2,0.0,0.0,0.0,0.8,0.0,0.0,37.4,0.0,0.0,-0.5,0.9,0.3,0.0,0.0,0.0,0.0,64.4,66.2,64.4,66.2,64.4,66.2,64.4,66.2,0.0,0.0,-6.0,254.4,0.0,0.8,-8.0,4.998,0.0,0.0,0.653,0.797,0.0,17.3,0.0,0.0,0.0,0,0.0,0.0,0.0,419.0,True,2026-02-01 00:45:19 - Flight 5
6.06,1,8,2026-02-01 00:45:25,37.08158,-121.59959,316.0,0.0,231.1,-12.6,0.0,0,0.0,0.0,0.0,10.6,-2.2,53.1,0.0,133.0,0.0,-0.04,1.0,0.0,-52.0,21.0,0.0,30.44,872.0,0.0,0.0,241.0,0.0,0.0,0.0,0.0,0.0,0.0,0.0,0.0,0.0,0.0,0.0,0.0,0.0,0.0,0.0,0.0,0.0,0.0,0.0,0.0,0.0,0.0,0.0,0.0,0.0,17.0,0.0,0.0,30.2,0.0,0.0,0.0,0.8,0.0,0.0,37.4,0.0,0.0,-0.5,0.9,0.3,0.0,0.0,0.0,0.0,64.4,66.2,64.4,66.2,64.4,66.2,66.2,66.2,0.0,0.0,-6.0,254.4,0.0,0.8,-8.0,4.998,0.0,0.0,0.653,0.806,0.0,17.3,0.0,0.0,0.0,0,0.0,0.0,0.0,419.0,True,2026-02-01 00:45:19 - Flight 5
7.06,1,8,2026-02-01 00:45:26,37.08158,-121.59959,317.0,0.0,231.1,-12.6,0.0,0,0.0,0.0,0.0,10.7,-2.2,53.0,0.0,133.0,0.0,-0.04,1.0,0.0,-52.0,21.0,0.0,30.44,868.0,0.0,0.0,241.0,0.0,0.0,0.0,0.0,0.0,0.0,0.0,0.0,0.0,0.0,0.0,0.0,0.0,0.0,0.0,0.0,0.0,0.0,0.0,0.0,0.0,0.0,0.0,0.0,0.0,17.0,0.0,0.0,30.2,0.0,0.0,0.0,0.8,0.0,0.0,37.4,0.0,0.0,-0.5,0.9,0.3,0.0,0.0,0.0,0.0,64.4,66.2,64.4,66.2,66.2,66.2,66.2,66.2,0.0,0.0,-6.0,254.4,0.0,0.8,-8.0,4.998,0.0,0.0,0.654,0.8,0.0,17.3,0.0,0.0,0.0,0,0.0,0.0,0.0,419.0,True,2026-02-01 00:45:19 - Flight 5
8.06,1,8,2026-02-01 00:45:27,37.08158,-121.59959,319.0,0.0,231.1,-12.6,0.0,0,0.0,0.0,0.0,10.7,-2.2,53.0,0.0,133.0,-0.0,-0.04,1.0,0.0,-50.0,21.0,0.0,30.44,868.0,0.0,0.0,241.0,0.0,0.0,0.0,0.0,0.0,0.0,0.0,0.0,0.0,0.0,0.0,0.0,0.0,0.0,0.0,0.0,0.0,0.0,0.0,0.0,0.0,0.0,0.0,0.0,0.0,17.0,0.0,0.0,30.2,0.0,0.0,0.0,0.8,0.0,0.0,37.4,0.0,0.0,-0.6,0.9,0.3,0.0,0.0,0.0,0.0,64.4,66.2,64.4,66.2,66.2,66.2,66.2,66.2,0.0,0.0,-6.0,254.4,0.0,0.8,-8.0,4.998,0.0,0.0,0.654,0.818,0.0,17.3,0.0,0.0,0.0,0,0.0,0.0,0.0,419.0,True,2026-02-01 00:45:19 - Flight 5
9.06,1,8,2026-02-01 00:45:28,37.08158,-121.59959,320.0,0.0,231.1,-12.6,0.0,0,0.0,0.0,0.0,10.7,-2.3,52.9,0.0,130.0,-0.0,-0.04,1.0,0.0,-88.0,21.0,0.0,30.44,868.0,0.0,0.0,241.0,0.0,0.0,0.0,0.0,0.0,0.0,0.0,0.0,0.0,0.0,0.0,0.0,0.0,0.0,0.0,0.0,0.0,0.0,0.0,0.0,0.0,0.0,0.0,0.0,0.0,17.0,0.0,0.0,30.2,0.0,0.0,0.0,0.8,0.0,0.0,37.4,0.0,0.0,-0.6,0.9,0.3,0.0,0.0,0.0,0.0,64.4,66.2,64.4,66.2,66.2,66.2,66.2,66.2,0.0,0.0,-6.0,254.4,0.0,0.8,-8.0,4.998,0.0,0.0,0.654,0.804,0.0,17.3,0.0,0.0,0.0,0,0.0,0.0,0.0,419.0,True,2026-02-01 00:45:19 - Flight 5
10.06,1,8,2026-02-01 00:45:29,37.08158,-121.59959,322.0,0.0,231.1,-12.6,0.0,0,0.0,0.0,0.0,10.7,-2.2,52.9,0.0,129.0,0.0,-0.04,1.0,0.0,-79.0,21.0,0.0,30.44,863.0,0.0,0.0,241.0,0.0,0.0,0.0,0.0,0.0,0.0,0.0,0.0,0.0,0.0,0.0,0.0,0.0,0.0,0.0,0.0,0.0,0.0,0.0,0.0,0.0,0.0,0.0,0.0,0.0,17.0,0.0,0.0,30.2,0.0,0.0,0.0,0.8,0.0,0.0,37.4,0.0,0.0,-0.6,0.9,0.3,0.0,0.0,0.0,0.0,64.4,66.2,64.4,66.2,66.2,66.2,66.2,66.2,0.0,0.0,-6.0,254.4,0.0,0.8,-8.0,4.998,0.0,0.0,0.653,0.806,0.0,17.3,0.0,0.0,0.0,0,0.0,0.0,0.0,419.0,True,2026-02-01 00:45:19 - Flight 5
11.06,1,8,2026-02-01 00:45:30,37.08158,-121.59959,323.0,0.0,231.1,-12.6,0.0,0,0.0,0.0,0.0,10.7,-2.2,52.9,0.0,129.0,-0.0,-0.04,1.0,0.0,-69.0,21.0,0.0,30.44,863.0,0.0,0.0,241.0,0.0,0.0,0.0,0.0,0.0,0.0,0.0,0.0,0.0,0.0,0.0,0.0,0.0,0.0,0.0,0.0,0.0,0.0,0.0,0.0,0.0,0.0,0.0,0.0,0.0,17.0,0.0,0.0,30.2,0.0,0.0,0.0,0.8,0.0,0.0,37.4,0.0,0.0,-0.6,0.9,0.3,0.0,0.0,0.0,0.0,64.4,66.2,64.4,66.2,66.2,66.2,66.2,66.2,0.0,0.0,-6.0,254.3,0.0,0.8,-8.0,4.998,0.0,0.0,0.654,0.801,0.0,17.3,0.0,0.0,0.0,0,0.0,0.0,0.0,419.0,True,2026-02-01 00:45:19 - Flight 5
12.06,1,8,2026-02-01 00:45:31,37.08158,-121.59959,325.0,0.0,231.1,-12.6,0.0,0,0.0,0.0,0.0,10.7,-2.2,52.9,0.0,128.0,-0.0,-0.04,1.0,0.0,-41.0,21.0,0.0,30.44,863.0,0.0,0.0,241.0,0.0,0.0,0.0,0.0,0.0,0.0,0.0,0.0,0.0,0.0,0.0,0.0,0.0,0.0,0.0,0.0,0.0,0.0,0.0,0.0,0.0,0.0,0.0,0.0,0.0,17.0,0.0,0.0,30.2,0.0,0.0,0.0,0.8,0.0,0.0,37.4,0.0,0.0,-0.6,0.9,0.3,0.0,0.0,0.0,0.0,64.4,66.2,64.4,66.2,66.2,66.2,66.2,66.2,0.0,0.0,-6.0,254.3,0.0,0.8,-8.0,4.998,0.0,0.0,0.654,0.797,0.0,17.3,0.0,0.0,0.0,0,0.0,0.0,0.0,419.0,True,2026-02-01 00:45:19 - Flight 5
13.06,1,8,2026-02-01 00:45:32,37.08159,-121.59960,326.0,0.0,231.1,-12.6,0.0,0,0.0,0.0,0.0,10.7,-2.2,52.8,0.0,127.0,-0.0,-0.04,1.0,0.0,-58.0,21.0,0.0,30.44,861.0,0.0,0.0,241.0,0.0,0.0,0.0,0.0,0.0,0.0,0.0,0.0,0.0,0.0,0.0,0.0,0.0,0.0,0.0,0.0,0.0,0.0,0.0,0.0,0.0,0.0,0.0,0.0,0.0,17.0,0.0,0.0,30.2,0.0,0.0,0.0,0.8,0.0,0.0,37.4,0.0,0.0,-0.6,0.9,0.3,0.0,0.0,0.0,0.0,64.4,66.2,64.4,66.2,66.2,66.2,66.2,66.2,0.0,0.0,-6.0,254.3,0.0,0.8,-8.0,4.998,0.0,0.0,0.654,0.796,0.0,17.3,0.0,0.0,0.0,0,0.0,0.0,0.0,419.0,True,2026-02-01 00:45:19 - Flight 5
14.06,1,8,2026-02-01 00:45:33,37.08159,-121.59960,327.0,0.1,231.1,-12.6,0.0,0,0.0,0.0,0.0,10.7,-2.3,52.8,0.0,127.0,-0.0,-0.03,1.0,0.0,-47.0,21.0,0.0,30.44,861.0,0.0,0.0,241.0,0.0,0.0,0.0,0.0,0.0,0.0,0.0,0.0,0.0,0.0,0.0,0.0,0.0,0.0,0.0,0.0,0.0,0.0,0.0,0.0,0.0,0.0,0.0,0.0,0.0,17.0,0.0,0.0,30.2,0.0,0.0,0.0,0.8,0.0,0.0,37.4,0.0,0.0,-0.6,0.9,0.3,0.0,0.0,0.0,0.0,64.4,66.2,64.4,66.2,66.2,66.2,66.2,66.2,0.0,0.0,-6.0,254.3,0.0,0.8,-8.0,4.998,0.0,0.0,0.653,0.795,0.0,17.3,0.0,0.0,0.0,0,0.0,0.0,0.0,419.0,True,2026-02-01 00:45:19 - Flight 5
15.06,1,8,2026-02-01 00:45:34,37.08159,-121.59960,329.0,0.1,231.1,-12.6,0.0,0,0.0,0.0,0.0,10.7,-2.2,52.9,0.0,126.0,0.0,-0.04,1.0,0.0,-47.0,21.0,0.0,30.44,861.0,0.0,0.0,241.0,0.0,0.0,0.0,0.0,0.0,0.0,0.0,0.0,0.0,0.0,0.0,0.0,0.0,0.0,0.0,0.0,0.0,0.0,0.0,0.0,0.0,0.0,0.0,0.0,0.0,17.0,0.0,0.0,30.2,0.0,0.0,0.0,0.8,0.0,0.0,37.4,0.0,0.0,-0.6,0.9,0.3,0.0,0.0,0.0,0.0,64.4,66.2,64.4,66.2,66.2,66.2,66.2,66.2,0.0,0.0,-6.0,254.3,0.0,0.8,-8.0,4.998,0.0,0.0,0.656,0.793,0.0,17.3,0.0,0.0,0.0,0,0.0,0.0,0.0,419.0,True,2026-02-01 00:45:19 - Flight 5
16.06,1,8,2026-02-01 00:45:35,37.08159,-121.59960,330.0,0.0,231.1,-12.6,0.0,0,0.0,0.0,0.0,10.7,-2.2,52.8,0.0,126.0,-0.0,-0.04,1.0,0.0,-25.0,21.0,0.0,30.44,859.0,0.0,0.0,241.0,0.0,0.0,0.0,0.0,0.0,0.0,0.0,0.0,0.0,0.0,0.0,0.0,0.0,0.0,0.0,0.0,0.0,0.0,0.0,0.0,0.0,0.0,0.0,0.0,0.0,17.0,0.0,0.0,30.2,0.0,0.0,0.0,0.8,0.0,0.0,37.4,0.0,0.0,-0.6,0.9,0.3,0.0,0.0,0.0,0.0,64.4,66.2,64.4,66.2,66.2,66.2,66.2,66.2,0.0,0.0,-6.0,254.3,0.0,0.8,-8.0,4.998,0.0,0.0,0.656,0.792,0.0,17.3,0.0,0.0,0.0,0,0.0,0.0,0.0,419.0,True,2026-02-01 00:45:19 - Flight 5
17.06,1,8,2026-02-01 00:45:36,37.08159,-121.59961,331.0,0.0,231.1,-12.6,0.0,0,0.0,0.0,0.0,10.7,-2.2,52.9,0.0,126.0,-0.0,-0.04,1.0,0.0,-2.0,21.0,0.0,30.44,860.0,0.0,0.0,241.0,0.0,0.0,0.0,0.0,0.0,0.0,0.0,0.0,0.0,0.0,0.0,0.0,0.0,0.0,0.0,0.0,0.0,0.0,0.0,0.0,0.0,0.0,0.0,0.0,0.0,17.0,0.0,0.0,30.2,0.0,0.0,0.0,0.8,0.0,0.0,37.4,0.0,0.0,-0.6,0.9,0.3,0.0,0.0,0.0,0.0,64.4,66.2,64.4,66.2,66.2,66.2,66.2,66.2,0.0,0.0,-6.0,254.3,0.0,0.8,-8.0,4.998,0.0,0.0,0.654,0.793,0.0,17.3,0.0,0.0,0.0,0,0.0,0.0,0.0,419.0,True,2026-02-01 00:45:19 - Flight 5
18.06,1,8,2026-02-01 00:45:37,37.08159,-121.59961,331.0,0.0,231.1,-12.6,0.0,0,0.0,0.0,0.0,10.7,-2.2,52.9,0.0,126.0,-0.0,-0.04,1.0,0.0,6.0,21.0,0.0,30.44,860.0,0.0,0.0,241.0,0.0,0.0,0.0,0.0,0.0,0.0,0.0,0.0,0.0,0.0,0.0,0.0,0.0,0.0,0.0,0.0,0.0,0.0,0.0,0.0,0.0,0.0,0.0,0.0,0.0,17.0,0.0,0.0,30.2,0.0,0.0,0.0,0.8,0.0,0.0,37.4,0.0,0.0,-0.6,0.9,0.3,0.0,0.0,0.0,0.0,64.4,66.2,64.4,66.2,64.4,66.2,66.2,66.2,0.0,0.0,-6.0,254.3,0.0,0.8,-8.0,4.998,0.0,0.0,0.656,0.792,0.0,17.3,0.0,0.0,0.0,0,0.0,0.0,0.0,419.0,True,2026-02-01 00:45:19 - Flight 5
19.06,1,8,2026-02-01 00:45:38,37.08159,-121.59961,332.0,0.2,231.1,-12.6,0.0,0,0.0,0.0,0.0,10.7,-2.2,52.9,0.0,126.0,-0.0,-0.04,1.0,0.0,-15.0,21.0,0.0,30.44,860.0,0.0,0.0,241.0,0.0,0.0,0.0,0.0,0.0,0.0,0.0,0.0,0.0,0.0,0.0,0.0,0.0,0.0,0.0,0.0,0.0,0.0,0.0,0.0,0.0,0.0,0.0,0.0,0.0,17.0,0.0,0.0,30.2,0.0,0.0,0.0,0.8,0.0,0.0,37.4,0.0,0.0,-0.6,0.9,0.3,0.0,0.0,0.0,0.0,64.4,66.2,64.4,66.2,66.2,66.2,66.2,66.2,0.0,0.0,-6.0,254.3,0.0,0.8,-8.0,4.998,0.0,0.0,0.654,0.792,0.0,17.3,0.0,0.0,0.0,0,0.0,0.0,0.0,419.0,True,2026-02-01 00:45:19 - Flight 5
20.06,1,8,2026-02-01 00:45:39,37.08159,-121.59961,333.0,0.0,231.1,-12.6,0.0,0,0.0,0.0,0.0,10.7,-2.2,52.9,0.0,125.0,-0.0,-0.04,1.0,0.0,-18.0,21.0,0.0,30.44,859.0,0.0,0.0,241.0,0.0,0.0,0.0,0.0,0.0,0.0,0.0,0.0,0.0,0.0,0.0,0.0,0.0,0.0,0.0,0.0,0.0,0.0,0.0,0.0,0.0,0.0,0.0,0.0,0.0,17.0,0.0,0.0,30.2,0.0,0.0,0.0,0.8,0.0,0.0,37.4,0.0,0.0,-0.6,0.9,0.3,0.0,0.0,0.0,0.0,64.4,66.2,64.4,66.2,66.2,66.2,66.2,66.2,0.0,0.0,-6.0,254.3,0.0,0.8,-8.0,4.998,0.0,0.0,0.654,0.791,0.0,17.3,0.0,0.0,0.0,0,0.0,0.0,0.0,419.0,True,2026-02-01 00:45:19 - Flight 5
21.06,1,8,2026-02-01 00:45:40,37.08159,-121.59961,333.0,0.0,231.1,-12.6,0.0,0,0.0,0.0,0.0,10.7,-2.2,52.9,0.0,125.0,-0.0,-0.04,1.0,0.0,-7.0,21.0,0.0,30.44,859.0,0.0,0.0,241.0,0.0,0.0,0.0,0.0,0.0,0.0,0.0,0.0,0.0,0.0,0.0,0.0,0.0,0.0,0.0,0.0,0.0,0.0,0.0,0.0,0.0,0.0,0.0,0.0,0.0,17.0,0.0,0.0,30.2,0.0,0.0,0.0,0.8,0.0,0.0,37.4,0.0,0.0,-0.6,0.9,0.3,0.0,0.0,0.0,0.0,64.4,66.2,64.4,66.2,66.2,66.2,66.2,66.2,0.0,0.0,-6.0,254.3,0.0,0.8,-8.0,4.998,0.0,0.0,0.654,0.791,0.0,17.3,0.0,0.0,0.0,0,0.0,0.0,0.0,419.0,True,2026-02-01 00:45:19 - Flight 5
22.06,1,8,2026-02-01 00:45:41,37.08159,-121.59961,333.0,0.0,231.1,-12.6,0.0,0,0.0,0.0,0.0,10.7,-2.2,52.9,0.0,125.0,0.0,-0.04,1.0,0.0,-22.0,21.0,0.0,30.44,859.0,0.0,0.0,241.0,0.0,0.0,0.0,0.0,0.0,0.0,0.0,0.0,0.0,0.0,0.0,0.0,0.0,0.0,0.0,0.0,0.0,0.0,0.0,0.0,0.0,0.0,0.0,0.0,0.0,17.0,0.0,0.0,30.2,0.0,0.0,0.0,0.8,0.0,0.0,37.4,0.0,0.0,-0.6,0.9,0.3,0.0,0.0,0.0,0.0,64.4,66.2,64.4,66.2,66.2,66.2,66.2,66.2,0.0,0.0,-6.0,254.3,0.0,0.8,-8.0,4.998,0.0,0.0,0.656,0.786,0.0,17.3,0.0,0.0,0.0,0,0.0,0.0,0.0,419.0,True,2026-02-01 00:45:19 - Flight 5
23.06,1,8,2026-02-01 00:45:42,37.08159,-121.59961,334.0,0.0,231.1,-12.6,0.0,0,0.0,0.0,0.0,10.7,-2.2,52.9,0.0,124.0,-0.0,-0.04,1.0,0.0,-36.0,21.0,0.0,30.44,867.0,0.0,0.0,241.0,0.0,0.0,0.0,0.0,0.0,0.0,0.0,0.0,0.0,0.0,0.0,0.0,0.0,0.0,0.0,0.0,0.0,0.0,0.0,0.0,0.0,0.0,0.0,0.0,0.0,17.0,0.0,0.0,30.2,0.0,0.0,0.0,0.8,0.0,0.0,37.4,0.0,0.0,-0.6,0.9,0.3,0.0,0.0,0.0,0.0,64.4,66.2,64.4,66.2,64.4,66.2,66.2,66.2,0.0,0.0,-6.0,254.3,0.0,0.8,-8.0,4.998,0.0,0.0,0.654,0.787,0.0,17.3,0.0,0.0,0.0,0,0.0,0.0,0.0,419.0,True,2026-02-01 00:45:19 - Flight 5
24.06,1,8,2026-02-01 00:45:43,37.08159,-121.59961,334.0,0.0,231.1,-12.6,0.0,0,0.0,0.0,0.0,10.7,-2.2,52.9,0.0,122.0,0.0,-0.04,1.0,0.0,-72.0,21.0,0.0,30.44,865.0,0.0,0.0,241.0,0.0,0.0,0.0,0.0,0.0,0.0,0.0,0.0,0.0,0.0,0.0,0.0,0.0,0.0,0.0,0.0,0.0,0.0,0.0,0.0,0.0,0.0,0.0,0.0,0.0,17.0,0.0,0.0,30.2,0.0,0.0,0.0,0.8,0.0,0.0,37.4,0.0,0.0,-0.6,0.9,0.3,0.0,0.0,0.0,0.0,64.4,66.2,64.4,66.2,64.4,66.2,66.2,66.2,0.0,0.0,-6.0,254.3,0.0,0.8,-8.0,4.998,0.0,0.0,0.656,0.787,0.0,17.3,0.0,0.0,0.0,0,0.0,0.0,0.0,419.0,True,2026-02-01 00:45:19 - Flight 5
25.06,1,8,2026-02-01 00:45:44,37.08159,-121.59961,334.0,0.0,231.1,-12.6,0.0,0,0.0,0.0,0.0,10.6,-2.2,52.9,0.0,121.0,0.0,-0.04,1.0,0.0,-57.0,21.0,0.0,30.44,862.0,0.0,0.0,241.0,0.0,0.0,0.0,0.0,0.0,0.0,0.0,0.0,0.0,0.0,0.0,0.0,0.0,0.0,0.0,0.0,0.0,0.0,0.0,0.0,0.0,0.0,0.0,0.0,0.0,17.0,0.0,0.0,30.2,0.0,0.0,0.0,0.8,0.0,0.0,37.4,0.0,0.0,-0.6,0.9,0.3,0.0,0.0,0.0,0.0,64.4,66.2,64.4,66.2,66.2,66.2,66.2,66.2,0.0,0.0,-6.0,254.3,0.0,0.8,-8.0,4.998,0.0,0.0,0.656,0.786,0.0,17.3,0.0,0.0,0.0,0,0.0,0.0,0.0,419.0,True,2026-02-01 00:45:19 - Flight 5
26.06,1,8,2026-02-01 00:45:45,37.08159,-121.59961,334.0,0.0,231.1,-12.6,0.0,0,0.0,0.0,0.0,10.7,-2.2,52.9,0.0,121.0,0.0,-0.04,1.0,0.0,-15.0,21.0,0.0,30.44,862.0,0.0,0.0,241.0,0.0,0.0,0.0,0.0,0.0,0.0,0.0,0.0,0.0,0.0,0.0,0.0,0.0,0.0,0.0,0.0,0.0,0.0,0.0,0.0,0.0,0.0,0.0,0.0,0.0,17.0,0.0,0.0,30.2,0.0,0.0,0.0,0.8,0.0,0.0,37.4,0.0,0.0,-0.6,0.9,0.3,0.0,0.0,0.0,0.0,64.4,66.2,64.4,66.2,66.2,66.2,66.2,66.2,0.0,0.0,-6.0,254.3,0.0,0.8,-8.0,4.998,0.0,0.0,0.654,0.784,0.0,17.3,0.0,0.0,0.0,0,0.0,0.0,0.0,419.0,True,2026-02-01 00:45:19 - Flight 5
27.06,1,8,2026-02-01 00:45:46,37.08159,-121.59961,334.0,0.0,231.1,-12.6,0.0,0,0.0,0.0,0.0,10.6,-2.2,52.9,0.0,121.0,0.0,-0.04,1.0,0.0,-42.0,21.0,0.0,30.44,862.0,0.0,0.0,241.0,0.0,0.0,0.0,0.0,0.0,0.0,0.0,0.0,0.0,0.0,0.0,0.0,0.0,0.0,0.0,0.0,0.0,0.0,0.0,0.0,0.0,0.0,0.0,0.0,0.0,17.0,0.0,0.0,30.2,0.0,0.0,0.0,0.8,0.0,0.0,37.4,0.0,0.0,-0.6,0.9,0.3,0.0,0.0,0.0,0.0,64.4,66.2,64.4,66.2,64.4,66.2,66.2,66.2,0.0,0.0,-6.0,254.3,0.0,0.8,-8.0,4.998,0.0,0.0,0.654,0.784,0.0,17.3,0.0,0.0,0.0,0,0.0,0.0,0.0,419.0,True,2026-02-01 00:45:19 - Flight 5
28.06,1,8,2026-02-01 00:45:47,37.08159,-121.59961,334.0,0.0,231.1,-12.6,0.0,0,0.0,0.0,0.0,10.6,-2.3,52.9,0.0,120.0,0.0,-0.04,1.0,0.0,-44.0,21.0,0.0,30.44,862.0,0.0,0.0,241.0,0.0,0.0,0.0,0.0,0.0,0.0,0.0,0.0,0.0,0.0,0.0,0.0,0.0,0.0,0.0,0.0,0.0,0.0,0.0,0.0,0.0,0.0,0.0,0.0,0.0,17.0,0.0,0.0,30.2,0.0,0.0,0.0,0.8,0.0,0.0,37.4,0.0,0.0,-0.6,0.9,0.3,0.0,0.0,0.0,0.0,64.4,66.2,64.4,66.2,66.2,66.2,66.2,66.2,0.0,0.0,-6.0,254.3,0.0,0.8,-8.0,4.998,0.0,0.0,0.656,0.784,0.0,17.3,0.0,0.0,0.0,0,0.0,0.0,0.0,419.0,True,2026-02-01 00:45:19 - Flight 5
29.06,1,8,2026-02-01 00:45:48,37.08159,-121.59960,333.0,0.0,231.1,-12.6,0.0,0,0.0,0.0,0.0,10.7,-2.2,53.0,0.0,118.0,0.0,-0.04,1.0,0.0,-72.0,21.0,0.0,30.44,862.0,0.0,0.0,241.0,0.0,0.0,0.0,0.0,0.0,0.0,0.0,0.0,0.0,0.0,0.0,0.0,0.0,0.0,0.0,0.0,0.0,0.0,0.0,0.0,0.0,0.0,0.0,0.0,0.0,17.0,0.0,0.0,30.2,0.0,0.0,0.0,0.8,0.0,0.0,37.4,0.0,0.0,-0.6,0.9,0.3,0.0,0.0,0.0,0.0,64.4,66.2,64.4,66.2,64.4,66.2,66.2,66.2,0.0,0.0,-6.0,254.3,0.0,0.8,-8.0,4.998,0.0,0.0,0.654,0.782,0.0,17.3,0.0,0.0,0.0,0,0.0,0.0,0.0,419.0,True,2026-02-01 00:45:19 - Flight 5
30.06,1,8,2026-02-01 00:45:49,37.08159,-121.59960,333.0,0.0,231.1,-12.6,0.0,0,0.0,0.0,0.0,10.7,-2.2,52.9,0.0,116.0,0.0,-0.04,1.0,0.0,-90.0,21.0,0.0,30.44,862.0,0.0,0.0,241.0,0.0,0.0,0.0,0.0,0.0,0.0,0.0,0.0,0.0,0.0,0.0,0.0,0.0,0.0,0.0,0.0,0.0,0.0,0.0,0.0,0.0,0.0,0.0,0.0,0.0,17.0,0.0,0.0,30.2,0.0,0.0,0.0,0.8,0.0,0.0,37.4,0.0,0.0,-0.6,0.9,0.3,0.0,0.0,0.0,0.0,64.4,66.2,64.4,66.2,64.4,66.2,66.2,66.2,0.0,0.0,-6.0,254.3,0.0,0.8,-8.0,4.998,0.0,0.0,0.654,0.781,0.0,17.3,0.0,0.0,0.0,0,0.0,0.0,0.0,419.0,True,2026-02-01 00:45:19 - Flight 5
31.06,1,8,2026-02-01 00:45:50,37.08159,-121.59960,333.0,0.0,231.1,-12.6,0.0,0,0.0,0.0,0.0,10.7,-2.3,52.9,0.0,113.0,-0.0,-0.04,1.0,0.0,-135.0,21.0,0.0,30.44,855.0,0.0,0.0,241.0,0.0,0.0,0.0,0.0,0.0,0.0,0.0,0.0,0.0,0.0,0.0,0.0,0.0,0.0,0.0,0.0,0.0,0.0,0.0,0.0,0.0,0.0,0.0,0.0,0.0,17.0,0.0,0.0,30.2,0.0,0.0,0.0,0.8,0.0,0.0,37.4,0.0,0.0,-0.6,0.9,0.3,0.0,0.0,0.0,0.0,64.4,66.2,64.4,66.2,64.4,66.2,66.2,66.2,0.0,0.0,-6.0,254.3,0.0,0.8,-8.0,4.998,0.0,0.0,0.656,0.78,0.0,17.3,0.0,0.0,0.0,0,0.0,0.0,0.0,419.0,True,2026-02-01 00:45:19 - Flight 5
32.06,1,8,2026-02-01 00:45:51,37.08159,-121.59960,332.0,0.0,231.1,-12.6,0.0,0,0.0,0.0,0.0,10.7,-2.2,52.9,0.0,112.0,-0.0,-0.04,1.0,0.0,-92.0,21.0,0.0,30.44,855.0,0.0,0.0,241.0,0.0,0.0,0.0,0.0,0.0,0.0,0.0,0.0,0.0,0.0,0.0,0.0,0.0,0.0,0.0,0.0,0.0,0.0,0.0,0.0,0.0,0.0,0.0,0.0,0.0,17.0,0.0,0.0,30.2,0.0,0.0,0.0,0.8,0.0,0.0,37.4,0.0,0.0,-0.6,0.9,0.3,0.0,0.0,0.0,0.0,64.4,66.2,64.4,66.2,66.2,66.2,66.2,66.2,0.0,0.0,-6.0,254.3,0.0,0.8,-8.0,4.998,0.0,0.0,0.656,0.779,0.0,17.3,0.0,0.0,0.0,0,0.0,0.0,0.0,419.0,True,2026-02-01 00:45:19 - Flight 5
33.06,1,8,2026-02-01 00:45:52,37.08159,-121.59960,332.0,0.0,231.1,-12.6,0.0,0,0.0,0.0,0.0,10.7,-2.2,52.9,0.0,111.0,0.0,-0.04,1.0,0.0,-67.0,21.0,0.0,30.44,855.0,0.0,0.0,241.0,0.0,0.0,0.0,0.0,0.0,0.0,0.0,0.0,0.0,0.0,0.0,0.0,0.0,0.0,0.0,0.0,0.0,0.0,0.0,0.0,0.0,0.0,0.0,0.0,0.0,17.0,0.0,0.0,30.2,0.0,0.0,0.0,0.8,0.0,0.0,37.4,0.0,0.0,-0.6,0.9,0.3,0.0,0.0,0.0,0.0,64.4,66.2,64.4,66.2,64.4,66.2,66.2,66.2,0.0,0.0,-6.0,254.3,0.0,0.8,-8.0,4.998,0.0,0.0,0.656,0.78,0.0,17.3,0.0,0.0,0.0,0,0.0,0.0,0.0,419.0,True,2026-02-01 00:45:19 - Flight 5
34.06,1,8,2026-02-01 00:45:53,37.08159,-121.59960,331.0,0.0,231.1,-12.6,0.0,0,0.0,0.0,0.0,10.6,-2.2,52.9,0.0,111.0,0.0,-0.04,1.0,0.0,-55.0,21.0,0.0,30.44,851.0,0.0,0.0,241.0,0.0,0.0,0.0,0.0,0.0,0.0,0.0,0.0,0.0,0.0,0.0,0.0,0.0,0.0,0.0,0.0,0.0,0.0,0.0,0.0,0.0,0.0,0.0,0.0,0.0,17.0,0.0,0.0,30.2,0.0,0.0,0.0,0.8,0.0,0.0,37.4,0.0,0.0,-0.6,0.9,0.3,0.0,0.0,0.0,0.0,64.4,66.2,64.4,66.2,64.4,66.2,66.2,66.2,0.0,0.0,-6.0,254.3,0.0,0.8,-8.0,4.998,0.0,0.0,0.654,0.78,0.0,17.3,0.0,0.0,0.0,0,0.0,0.0,0.0,419.0,True,2026-02-01 00:45:19 - Flight 5
35.06,1,8,2026-02-01 00:45:54,37.08159,-121.59960,331.0,0.0,231.1,-12.6,0.0,0,0.0,0.0,0.0,10.6,-2.3,52.9,0.0,109.0,0.0,-0.04,1.0,0.0,-86.0,21.0,0.0,30.44,851.0,0.0,0.0,241.0,0.0,0.0,0.0,0.0,0.0,0.0,0.0,0.0,0.0,0.0,0.0,0.0,0.0,0.0,0.0,0.0,0.0,0.0,0.0,0.0,0.0,0.0,0.0,0.0,0.0,17.0,0.0,0.0,30.2,0.0,0.0,0.0,0.8,0.0,0.0,37.4,0.0,0.0,-0.6,0.9,0.3,0.0,0.0,0.0,0.0,64.4,66.2,64.4,66.2,64.4,66.2,66.2,66.2,0.0,0.0,-6.0,254.3,0.0,0.8,-8.0,4.998,0.0,0.0,0.654,0.779,0.0,17.3,0.0,0.0,0.0,0,0.0,0.0,0.0,419.0,True,2026-02-01 00:45:19 - Flight 5
36.06,1,8,2026-02-01 00:45:55,37.08159,-121.59960,331.0,0.0,231.1,-12.6,0.0,0,0.0,0.0,0.0,10.6,-2.2,52.9,0.0,109.0,0.0,-0.04,1.0,0.0,-64.0,21.0,0.0,30.44,851.0,0.0,0.0,241.0,0.0,0.0,0.0,0.0,0.0,0.0,0.0,0.0,0.0,0.0,0.0,0.0,0.0,0.0,0.0,0.0,0.0,0.0,0.0,0.0,0.0,0.0,0.0,0.0,0.0,17.0,0.0,0.0,30.2,0.0,0.0,0.0,0.8,0.0,0.0,37.4,0.0,0.0,-0.6,0.9,0.3,0.0,0.0,0.0,0.0,64.4,66.2,64.4,66.2,64.4,66.2,66.2,66.2,0.0,0.0,-6.0,254.3,0.0,0.8,-8.0,4.998,0.0,0.0,0.654,0.778,0.0,17.3,0.0,0.0,0.0,0,0.0,0.0,0.0,419.0,True,2026-02-01 00:45:19 - Flight 5
37.06,1,8,2026-02-01 00:45:56,37.08159,-121.59960,330.0,0.0,231.1,-12.6,0.0,0,0.0,0.0,0.0,10.7,-2.2,52.9,0.0,107.0,0.0,-0.04,1.0,0.0,-78.0,21.0,0.0,30.44,848.0,0.0,0.0,241.0,0.0,0.0,0.0,0.0,0.0,0.0,0.0,0.0,0.0,0.0,0.0,0.0,0.0,0.0,0.0,0.0,0.0,0.0,0.0,0.0,0.0,0.0,0.0,0.0,0.0,17.0,0.0,0.0,30.2,0.0,0.0,0.0,0.8,0.0,0.0,37.4,0.0,0.0,-0.6,0.9,0.3,0.0,0.0,0.0,0.0,64.4,66.2,64.4,66.2,66.2,66.2,66.2,66.2,0.0,0.0,-6.0,254.3,0.0,0.8,-8.0,4.998,0.0,0.0,0.654,0.778,0.0,17.3,0.0,0.0,0.0,0,0.0,0.0,0.0,419.0,True,2026-02-01 00:45:19 - Flight 5
38.06,1,8,2026-02-01 00:45:57,37.08159,-121.59960,330.0,0.0,231.1,-12.6,0.0,0,0.0,0.0,0.0,10.7,-2.2,53.0,0.0,107.0,0.0,-0.04,1.0,0.0,-43.0,21.0,0.0,30.44,848.0,0.0,0.0,241.0,0.0,0.0,0.0,0.0,0.0,0.0,0.0,0.0,0.0,0.0,0.0,0.0,0.0,0.0,0.0,0.0,0.0,0.0,0.0,0.0,0.0,0.0,0.0,0.0,0.0,17.0,0.0,0.0,30.2,0.0,0.0,0.0,0.8,0.0,0.0,37.4,0.0,0.0,-0.6,0.9,0.3,0.0,0.0,0.0,0.0,64.4,66.2,64.4,66.2,66.2,66.2,66.2,66.2,0.0,0.0,-6.0,254.3,0.0,0.8,-8.0,4.998,0.0,0.0,0.654,0.778,0.0,17.3,0.0,0.0,0.0,0,0.0,0.0,0.0,419.0,True,2026-02-01 00:45:19 - Flight 5
39.06,1,8,2026-02-01 00:45:58,37.08159,-121.59960,330.0,0.0,231.1,-12.6,0.0,0,0.0,0.0,0.0,10.7,-2.3,52.9,0.0,107.0,-0.0,-0.04,1.0,0.0,-35.0,21.0,0.0,30.44,848.0,0.0,0.0,241.0,0.0,0.0,0.0,0.0,0.0,0.0,0.0,0.0,0.0,0.0,0.0,0.0,0.0,0.0,0.0,0.0,0.0,0.0,0.0,0.0,0.0,0.0,0.0,0.0,0.0,17.0,0.0,0.0,30.2,0.0,0.0,0.0,0.8,0.0,0.0,37.4,0.0,0.0,-0.6,0.9,0.3,0.0,0.0,0.0,0.0,64.4,66.2,64.4,66.2,66.2,66.2,66.2,66.2,0.0,0.0,-6.0,254.3,0.0,0.8,-8.0,4.998,0.0,0.0,0.656,0.778,0.0,17.3,0.0,0.0,0.0,0,0.0,0.0,0.0,419.0,True,2026-02-01 00:45:19 - Flight 5
40.06,1,8,2026-02-01 00:45:59,37.08159,-121.59960,329.0,0.0,231.1,-12.6,0.0,0,0.0,0.0,0.0,10.7,-2.2,52.9,0.0,106.0,-0.0,-0.04,1.0,0.0,-21.0,21.0,0.0,30.44,845.0,0.0,0.0,241.0,0.0,0.0,0.0,0.0,0.0,0.0,0.0,0.0,0.0,0.0,0.0,0.0,0.0,0.0,0.0,0.0,0.0,0.0,0.0,0.0,0.0,0.0,0.0,0.0,0.0,17.0,0.0,0.0,30.2,0.0,0.0,0.0,0.8,0.0,0.0,37.4,0.0,0.0,-0.6,0.9,0.3,0.0,0.0,0.0,0.0,64.4,66.2,64.4,66.2,66.2,66.2,66.2,66.2,0.0,0.0,-6.0,254.3,0.0,0.8,-8.0,4.998,0.0,0.0,0.654,0.778,0.0,17.3,0.0,0.0,0.0,0,0.0,0.0,0.0,419.0,True,2026-02-01 00:45:19 - Flight 5
41.06,1,8,2026-02-01 00:46:00,37.08159,-121.59960,328.0,0.1,231.1,-12.6,0.0,0,0.0,0.0,0.0,10.7,-2.2,52.9,0.0,105.0,-0.0,-0.04,1.0,0.0,-47.0,21.0,0.0,30.44,845.0,0.0,0.0,241.0,0.0,0.0,0.0,0.0,0.0,0.0,0.0,0.0,0.0,0.0,0.0,0.0,0.0,0.0,0.0,0.0,0.0,0.0,0.0,0.0,0.0,0.0,0.0,0.0,0.0,17.0,0.0,0.0,30.2,0.0,0.0,0.0,0.8,0.0,0.0,37.4,0.0,0.0,-0.6,0.9,0.3,0.0,0.0,0.0,0.0,64.4,66.2,64.4,66.2,66.2,66.2,66.2,66.2,0.0,0.0,-6.0,254.3,0.0,0.8,-8.0,4.998,0.0,0.0,0.654,0.776,0.0,17.3,0.0,0.0,0.0,0,0.0,0.0,0.0,419.0,True,2026-02-01 00:45:19 - Flight 5
42.06,1,8,2026-02-01 00:46:01,37.08159,-121.59960,328.0,0.0,231.1,-12.6,0.0,0,0.0,0.0,0.0,10.7,-2.2,52.9,0.0,105.0,-0.0,-0.04,1.0,0.0,-35.0,21.0,0.0,30.44,845.0,0.0,0.0,241.0,0.0,0.0,0.0,0.0,0.0,0.0,0.0,0.0,0.0,0.0,0.0,0.0,0.0,0.0,0.0,0.0,0.0,0.0,0.0,0.0,0.0,0.0,0.0,0.0,0.0,17.0,0.0,0.0,30.2,0.0,0.0,0.0,0.8,0.0,0.0,37.4,0.0,0.0,-0.6,0.9,0.3,0.0,0.0,0.0,0.0,64.4,66.2,64.4,66.2,66.2,66.2,66.2,66.2,0.0,0.0,-6.0,242.0,0.0,0.8,-8.0,4.998,0.0,0.0,0.656,0.776,0.0,17.3,0.0,0.0,0.0,0,0.0,0.0,0.0,419.0,True,2026-02-01 00:45:19 - Flight 5
43.06,1,8,2026-02-01 00:46:02,37.08159,-121.59960,327.0,0.0,231.1,-12.6,0.0,0,0.0,0.0,0.0,10.7,-2.2,52.9,0.0,105.0,0.0,-0.04,1.0,0.0,-20.0,21.0,0.0,30.44,844.0,0.0,0.0,241.0,0.0,0.0,0.0,0.0,0.0,0.0,0.0,0.0,0.0,0.0,0.0,0.0,0.0,0.0,0.0,0.0,0.0,0.0,0.0,0.0,0.0,0.0,0.0,0.0,0.0,17.0,0.0,0.0,30.2,0.0,0.0,0.0,0.8,0.0,0.0,37.4,0.0,0.0,-0.6,0.9,0.3,0.0,0.0,0.0,0.0,64.4,66.2,64.4,66.2,66.2,66.2,66.2,66.2,0.0,0.0,-6.0,188.4,0.0,0.8,-8.0,4.998,0.0,0.0,0.656,0.776,0.0,17.3,0.0,0.0,0.0,0,0.0,0.0,0.0,419.0,True,2026-02-01 00:45:19 - Flight 5
44.06,1,8,2026-02-01 00:46:03,37.08159,-121.59959,327.0,0.0,231.1,-12.6,0.0,0,0.0,0.0,0.0,10.7,-2.2,52.9,0.0,103.0,-0.0,-0.04,1.0,0.0,-55.0,21.0,0.0,30.44,844.0,0.0,0.0,241.0,0.0,0.0,0.0,0.0,0.0,0.0,0.0,0.0,0.0,0.0,0.0,0.0,0.0,0.0,0.0,0.0,0.0,0.0,0.0,0.0,0.0,0.0,0.0,0.0,0.0,17.0,0.0,0.0,30.2,0.0,0.0,0.0,0.8,0.0,0.0,37.4,0.0,0.0,-0.6,0.9,0.3,0.0,0.0,0.0,0.0,64.4,66.2,64.4,66.2,66.2,66.2,66.2,66.2,0.0,0.0,-6.0,146.6,0.0,0.8,-8.0,4.998,0.0,0.0,0.654,0.776,0.0,17.3,0.0,0.0,0.0,0,0.0,0.0,0.0,419.0,True,2026-02-01 00:45:19 - Flight 5
45.06,1,8,2026-02-01 00:46:04,37.08159,-121.59959,326.0,0.0,231.1,-12.6,0.0,0,0.0,0.0,0.0,10.6,-2.2,52.9,0.0,101.0,-0.0,-0.04,1.0,0.0,-83.0,21.0,0.0,30.44,844.0,0.0,0.0,241.0,0.0,0.0,0.0,0.0,0.0,0.0,0.0,0.0,0.0,0.0,0.0,0.0,0.0,0.0,0.0,0.0,0.0,0.0,0.0,0.0,0.0,0.0,0.0,0.0,0.0,17.0,0.0,0.0,30.2,0.0,0.0,0.0,0.8,0.0,0.0,37.4,0.0,0.0,-0.6,0.9,0.3,0.0,0.0,0.0,0.0,64.4,66.2,64.4,66.2,66.2,66.2,66.2,66.2,0.0,0.0,-6.0,114.2,0.0,0.8,-8.0,4.998,0.0,0.0,0.654,0.776,0.0,17.3,0.0,0.0,0.0,0,0.0,0.0,0.0,419.0,True,2026-02-01 00:45:19 - Flight 5
46.06,1,8,2026-02-01 00:46:05,37.08159,-121.59959,325.0,0.0,231.1,-12.6,0.0,0,0.0,0.0,0.0,10.7,-2.2,52.9,0.0,101.0,-0.0,-0.04,1.0,0.0,-20.0,21.0,0.0,30.44,839.0,0.0,0.0,241.0,0.0,0.0,0.0,0.0,0.0,0.0,0.0,0.0,0.0,0.0,0.0,0.0,0.0,0.0,0.0,0.0,0.0,0.0,0.0,0.0,0.0,0.0,0.0,0.0,0.0,17.0,0.0,0.0,30.2,0.0,0.0,0.0,0.8,0.0,0.0,37.4,0.0,0.0,-0.6,0.9,0.3,0.0,0.0,0.0,0.0,64.4,66.2,64.4,66.2,66.2,66.2,66.2,66.2,0.0,0.0,-6.0,89.0,0.0,0.8,-8.0,4.998,0.0,0.0,0.654,0.775,0.0,17.3,0.0,0.0,0.0,0,0.0,0.0,0.0,419.0,True,2026-02-01 00:45:19 - Flight 5
47.06,1,8,2026-02-01 00:46:06,37.08159,-121.59959,324.0,0.0,231.1,-12.6,0.0,0,0.0,0.0,0.0,10.7,-2.2,52.8,0.0,101.0,0.0,-0.04,1.0,0.0,-29.0,21.0,0.0,30.44,839.0,0.0,0.0,241.0,0.0,0.0,0.0,0.0,0.0,0.0,0.0,0.0,0.0,0.0,0.0,0.0,0.0,0.0,0.0,0.0,0.0,0.0,0.0,0.0,0.0,0.0,0.0,0.0,0.0,17.0,0.0,0.0,30.2,0.0,0.0,0.0,0.8,0.0,0.0,37.4,0.0,0.0,-0.6,0.9,0.3,0.0,0.0,0.0,0.0,64.4,66.2,64.4,66.2,66.2,66.2,66.2,66.2,0.0,0.0,-6.0,69.4,0.0,0.8,-8.0,4.998,0.0,0.0,0.654,0.774,0.0,17.3,0.0,0.0,0.0,0,0.0,0.0,0.0,419.0,True,2026-02-01 00:45:19 - Flight 5
48.06,1,8,2026-02-01 00:46:07,37.0816,-121.59959,323.0,0.0,231.1,-12.6,0.0,0,0.0,0.0,0.0,10.7,-2.2,52.8,0.0,101.0,0.0,-0.04,1.0,0.0,12.0,21.0,0.0,30.44,839.0,0.0,0.0,241.0,0.0,0.0,0.0,0.0,0.0,0.0,0.0,0.0,0.0,0.0,0.0,0.0,0.0,0.0,0.0,0.0,0.0,0.0,0.0,0.0,0.0,0.0,0.0,0.0,0.0,17.0,0.0,0.0,30.2,0.0,0.0,0.0,0.7,0.0,0.0,37.4,0.0,0.0,-0.6,0.9,0.3,0.0,0.0,0.0,0.0,64.4,66.2,64.4,66.2,66.2,66.2,66.2,66.2,0.0,0.0,-6.0,54.1,0.0,0.7,-8.0,4.998,0.0,0.0,0.654,0.774,0.0,17.3,0.0,0.0,0.0,0,0.0,0.0,0.0,419.0,True,2026-02-01 00:45:19 - Flight 5
49.06,1,8,2026-02-01 00:46:08,37.0816,-121.59959,323.0,0.0,231.1,-12.6,0.0,0,0.0,0.0,0.0,10.7,-2.2,52.8,0.0,101.0,0.0,-0.04,1.0,0.0,3.0,21.0,0.0,30.44,839.0,0.0,0.0,241.0,0.0,0.0,0.0,0.0,0.0,0.0,0.0,0.0,0.0,0.0,0.0,0.0,0.0,0.0,0.0,0.0,0.0,0.0,0.0,0.0,0.0,0.0,0.0,0.0,0.0,17.0,0.0,0.0,30.2,0.0,0.0,0.0,0.6,0.0,0.0,37.4,0.0,0.0,-0.7,0.9,0.3,0.0,0.0,0.0,0.0,64.4,66.2,64.4,66.2,66.2,66.2,66.2,66.2,0.0,0.0,-6.0,42.3,0.0,0.6,-8.0,4.998,0.0,0.0,0.654,0.774,0.0,17.3,0.0,0.0,0.0,0,0.0,0.0,0.0,419.0,True,2026-02-01 00:45:19 - Flight 5
50.06,1,8,2026-02-01 00:46:09,37.0816,-121.59959,322.0,0.0,231.1,-12.6,0.0,0,0.0,0.0,0.0,10.7,-2.2,52.8,0.0,101.0,0.0,-0.04,1.0,0.0,21.0,21.0,0.0,30.44,839.0,0.0,0.0,241.0,0.0,0.0,0.0,0.0,0.0,0.0,0.0,0.0,0.0,0.0,0.0,0.0,0.0,0.0,0.0,0.0,0.0,0.0,0.0,0.0,0.0,0.0,0.0,0.0,0.0,17.0,0.0,0.0,30.2,0.0,0.0,0.0,0.5,0.0,0.0,37.4,0.0,0.0,-0.7,0.9,0.3,0.0,0.0,0.0,0.0,64.4,66.2,64.4,66.2,66.2,66.2,66.2,66.2,0.0,0.0,-6.0,33.1,0.0,0.5,-8.0,4.998,0.0,0.0,0.654,0.774,0.0,17.3,0.0,0.0,0.0,0,0.0,0.0,0.0,419.0,True,2026-02-01 00:45:19 - Flight 5
51.06,1,8,2026-02-01 00:46:10,37.0816,-121.59959,322.0,0.0,231.1,-12.6,0.0,0,0.0,0.0,0.0,10.8,-2.2,52.8,0.0,101.0,-0.0,-0.04,1.0,0.0,37.0,21.0,0.0,30.44,839.0,0.0,0.0,241.0,0.0,0.0,0.0,0.0,0.0,0.0,0.0,0.0,0.0,0.0,0.0,0.0,0.0,0.0,0.0,0.0,0.0,0.0,0.0,0.0,0.0,0.0,0.0,0.0,0.0,17.0,0.0,0.0,30.2,0.0,0.0,0.0,0.4,0.0,0.0,37.4,0.0,0.0,-0.7,0.9,0.3,0.0,0.0,0.0,0.0,64.4,66.2,64.4,66.2,66.2,66.2,66.2,66.2,0.0,0.0,-6.0,25.9,0.0,0.4,-8.0,4.998,0.0,0.0,0.654,0.774,0.0,17.3,0.0,0.0,0.0,0,0.0,0.0,0.0,419.0,True,2026-02-01 00:45:19 - Flight 5
52.06,1,8,2026-02-01 00:46:11,37.0816,-121.59959,321.0,0.0,231.1,-12.6,0.0,0,0.0,0.0,0.0,10.7,-2.2,52.8,0.0,101.0,-0.0,-0.04,1.0,0.0,17.0,21.0,0.0,30.44,839.0,0.0,0.0,241.0,0.0,0.0,0.0,0.0,0.0,0.0,0.0,0.0,0.0,0.0,0.0,0.0,0.0,0.0,0.0,0.0,0.0,0.0,0.0,0.0,0.0,0.0,0.0,0.0,0.0,17.0,0.0,0.0,30.2,0.0,0.0,0.0,0.3,0.0,0.0,37.4,0.0,0.0,-0.7,0.9,0.3,0.0,0.0,0.0,0.0,64.4,66.2,64.4,66.2,66.2,66.2,66.2,66.2,0.0,0.0,-6.0,20.4,0.0,0.3,-8.0,4.998,0.0,0.0,0.654,0.773,0.0,17.3,0.0,0.0,0.0,0,0.0,0.0,0.0,419.0,True,2026-02-01 00:45:19 - Flight 5
53.06,1,8,2026-02-01 00:46:12,37.0816,-121.59959,321.0,0.0,231.1,-12.6,0.0,0,0.0,0.0,0.0,10.7,-2.2,52.8,0.0,101.0,-0.0,-0.04,1.0,0.0,42.0,21.0,0.0,30.44,839.0,0.0,0.0,241.0,0.0,0.0,0.0,0.0,0.0,0.0,0.0,0.0,0.0,0.0,0.0,0.0,0.0,0.0,0.0,0.0,0.0,0.0,0.0,0.0,0.0,0.0,0.0,0.0,0.0,17.0,0.0,0.0,30.2,0.0,0.0,0.0,0.2,0.0,0.0,37.4,0.0,0.0,-0.7,0.9,0.3,0.0,0.0,0.0,0.0,64.4,66.2,64.4,66.2,66.2,66.2,66.2,66.2,0.0,0.0,-6.0,16.0,0.0,0.2,-8.0,4.998,0.0,0.0,0.654,0.774,0.0,17.3,0.0,0.0,0.0,0,0.0,0.0,0.0,419.0,True,2026-02-01 00:45:19 - Flight 5
54.06,1,8,2026-02-01 00:46:13,37.0816,-121.59959,321.0,0.0,231.1,-12.6,0.0,0,0.0,0.0,0.0,10.7,-2.2,52.8,0.0,101.0,-0.0,-0.04,1.0,0.0,39.0,21.0,0.0,30.44,839.0,0.0,0.0,241.0,0.0,0.0,0.0,0.0,0.0,0.0,0.0,0.0,0.0,0.0,0.0,0.0,0.0,0.0,0.0,0.0,0.0,0.0,0.0,0.0,0.0,0.0,0.0,0.0,0.0,17.0,0.0,0.0,30.2,0.0,0.0,0.0,0.0,0.0,0.0,37.4,0.0,0.0,-0.7,0.9,0.3,0.0,0.0,0.0,0.0,64.4,66.2,64.4,66.2,66.2,66.2,66.2,66.2,0.0,0.0,-6.0,12.7,0.0,0.0,-8.0,4.998,0.0,0.0,0.654,0.774,0.0,17.3,0.0,0.0,0.0,0,0.0,0.0,0.0,419.0,True,2026-02-01 00:45:19 - Flight 5
55.06,1,8,2026-02-01 00:46:14,37.0816,-121.59959,320.0,0.0,231.1,-12.6,0.0,0,0.0,0.0,0.0,10.7,-2.2,52.9,0.0,101.0,0.0,-0.04,1.0,0.0,-10.0,21.0,0.0,30.44,839.0,0.0,0.0,241.0,0.0,0.0,0.0,0.0,0.0,0.0,0.0,0.0,0.0,0.0,0.0,0.0,0.0,0.0,0.0,0.0,0.0,0.0,0.0,0.0,0.0,0.0,0.0,0.0,0.0,17.0,0.0,0.0,30.2,0.0,0.0,0.0,0.0,0.0,0.0,37.4,0.0,0.0,-0.7,0.9,0.3,0.0,0.0,0.0,0.0,64.4,66.2,64.4,66.2,66.2,66.2,66.2,66.2,0.0,0.0,-6.0,10.1,0.0,0.0,-8.0,4.998,0.0,0.0,0.654,0.773,0.0,17.3,0.0,0.0,0.0,0,0.0,0.0,0.0,419.0,True,2026-02-01 00:45:19 - Flight 5
56.06,1,8,2026-02-01 00:46:15,37.0816,-121.59959,320.0,0.0,231.1,-12.6,0.0,0,0.0,0.0,0.0,10.7,-2.2,52.8,0.0,101.0,0.0,-0.04,1.0,0.0,-24.0,21.0,0.0,30.44,848.0,0.0,0.0,241.0,0.0,0.0,0.0,0.0,0.0,0.0,0.0,0.0,0.0,0.0,0.0,0.0,0.0,0.0,0.0,0.0,0.0,0.0,0.0,0.0,0.0,0.0,0.0,0.0,0.0,17.0,0.0,0.0,30.2,0.0,0.0,0.0,0.0,0.0,0.0,37.4,0.0,0.0,-0.7,0.9,0.3,0.0,0.0,0.0,0.0,64.4,66.2,64.4,66.2,66.2,66.2,66.2,66.2,0.0,0.0,-6.0,8.0,0.0,0.0,-8.0,4.998,0.0,0.0,0.656,0.773,0.0,17.3,0.0,0.0,0.0,0,0.0,0.0,0.0,419.0,True,2026-02-01 00:45:19 - Flight 5
57.06,1,8,2026-02-01 00:46:16,37.0816,-121.59959,320.0,0.0,231.1,-12.6,0.0,0,0.0,0.0,0.0,10.7,-2.2,52.8,0.0,101.0,-0.0,-0.04,1.0,0.0,-12.0,21.0,0.0,30.44,848.0,0.0,0.0,241.0,0.0,0.0,0.0,0.0,0.0,0.0,0.0,0.0,0.0,0.0,0.0,0.0,0.0,0.0,0.0,0.0,0.0,0.0,0.0,0.0,0.0,0.0,0.0,0.0,0.0,17.0,0.0,0.0,30.2,0.0,0.0,0.0,0.0,0.0,0.0,37.4,0.0,0.0,-0.7,0.9,0.3,0.0,0.0,0.0,0.0,64.4,66.2,64.4,66.2,66.2,66.2,66.2,66.2,0.0,0.0,-6.0,6.5,0.0,0.0,-8.0,4.998,0.0,0.0,0.656,0.773,0.0,17.3,0.0,0.0,0.0,0,0.0,0.0,0.0,419.0,True,2026-02-01 00:45:19 - Flight 5
58.06,1,8,2026-02-01 00:46:17,37.08159,-121.59959,319.0,0.0,231.1,-12.6,0.0,0,0.0,0.0,0.0,10.7,-2.3,52.8,0.0,101.0,-0.0,-0.04,1.0,0.0,-13.0,21.0,0.0,30.44,848.0,0.0,0.0,241.0,0.0,0.0,0.0,0.0,0.0,0.0,0.0,0.0,0.0,0.0,0.0,0.0,0.0,0.0,0.0,0.0,0.0,0.0,0.0,0.0,0.0,0.0,0.0,0.0,0.0,17.0,0.0,0.0,30.2,0.0,0.0,0.0,0.0,0.0,0.0,37.4,0.0,0.0,-0.7,0.9,0.3,0.0,0.0,0.0,0.0,64.4,66.2,64.4,66.2,66.2,66.2,66.2,66.2,0.0,0.0,-6.0,5.2,0.0,0.0,-8.0,4.998,0.0,0.0,0.654,0.773,0.0,17.3,0.0,0.0,0.0,0,0.0,0.0,0.0,419.0,True,2026-02-01 00:45:19 - Flight 5
59.06,1,8,2026-02-01 00:46:18,37.08159,-121.59959,319.0,0.0,231.1,-12.6,0.0,0,0.0,0.0,0.0,10.7,-2.3,52.9,0.0,101.0,0.0,-0.04,1.0,0.0,-15.0,21.0,0.0,30.44,849.0,0.0,0.0,241.0,0.0,0.0,0.0,0.0,0.0,0.0,0.0,0.0,0.0,0.0,0.0,0.0,0.0,0.0,0.0,0.0,0.0,0.0,0.0,0.0,0.0,0.0,0.0,0.0,0.0,17.0,0.0,0.0,30.2,0.0,0.0,0.0,0.0,0.0,0.0,37.4,0.0,0.0,-0.7,0.9,0.3,0.0,0.0,0.0,0.0,64.4,66.2,64.4,66.2,66.2,66.2,66.2,66.2,0.0,0.0,-6.0,4.3,0.0,0.0,-8.0,4.998,0.0,0.0,0.656,0.773,0.0,17.3,0.0,0.0,0.0,0,0.0,0.0,0.0,419.0,True,2026-02-01 00:45:19 - Flight 5
60.06,1,8,2026-02-01 00:46:19,37.0816,-121.59958,305.0,0.0,231.1,-12.6,0.0,0,0.0,0.0,0.0,10.7,-2.3,52.8,0.0,101.0,-0.0,-0.04,1.0,0.0,5.0,21.0,0.0,30.44,848.0,0.0,0.0,241.0,0.0,0.0,0.0,0.0,0.0,0.0,0.0,0.0,0.0,0.0,0.0,0.0,0.0,0.0,0.0,0.0,0.0,0.0,0.0,0.0,0.0,0.0,0.0,0.0,0.0,17.0,0.0,0.0,30.2,0.0,0.0,0.0,0.0,0.0,0.0,37.4,0.0,0.0,-0.7,0.9,0.3,0.0,0.0,0.0,0.0,64.4,66.2,64.4,66.2,66.2,66.2,66.2,66.2,0.0,0.0,-6.0,3.5,0.0,0.0,-8.0,4.998,0.0,0.0,0.656,0.773,0.0,17.3,0.0,0.0,0.0,0,0.0,0.0,0.0,419.0,True,2026-02-01 00:45:19 - Flight 5
61.06,1,8,2026-02-01 00:46:20,37.0816,-121.59958,305.0,0.0,231.1,-12.6,0.0,0,0.0,0.0,0.0,10.7,-2.3,52.8,0.0,101.0,-0.0,-0.04,1.0,0.0,8.0,21.0,0.0,30.44,848.0,0.0,0.0,241.0,0.0,0.0,0.0,0.0,0.0,0.0,0.0,0.0,0.0,0.0,0.0,0.0,0.0,0.0,0.0,0.0,0.0,0.0,0.0,0.0,0.0,0.0,0.0,0.0,0.0,17.0,0.0,0.0,30.2,0.0,0.0,0.0,0.0,0.0,0.0,37.4,0.0,0.0,-0.7,0.9,0.3,0.0,0.0,0.0,0.0,64.4,66.2,64.4,66.2,66.2,66.2,66.2,66.2,0.0,0.0,-6.0,3.0,0.0,0.0,-8.0,4.998,0.0,0.0,0.656,0.773,0.0,17.3,0.0,0.0,0.0,0,0.0,0.0,0.0,419.0,True,2026-02-01 00:45:19 - Flight 5
62.06,1,8,2026-02-01 00:46:21,37.0816,-121.59958,304.0,0.0,231.1,-12.6,0.0,0,0.0,0.0,0.0,10.7,-2.3,52.8,0.0,101.0,-0.0,-0.04,1.0,0.0,14.0,21.0,0.0,30.44,848.0,0.0,0.0,241.0,0.0,0.0,0.0,0.0,0.0,0.0,0.0,0.0,0.0,0.0,0.0,0.0,0.0,0.0,0.0,0.0,0.0,0.0,0.0,0.0,0.0,0.0,0.0,0.0,0.0,17.0,0.0,0.0,30.2,0.0,0.0,0.0,0.0,0.0,0.0,37.4,0.0,0.0,-0.7,0.9,0.3,0.0,0.0,0.0,0.0,64.4,66.2,64.4,66.2,66.2,66.2,66.2,66.2,0.0,0.0,-6.0,2.5,0.0,0.0,-8.0,4.998,0.0,0.0,0.656,0.774,0.0,17.3,0.0,0.0,0.0,0,0.0,0.0,0.0,419.0,True,2026-02-01 00:45:19 - Flight 5
63.06,1,8,2026-02-01 00:46:22,37.08159,-121.59958,304.0,0.0,231.1,-12.6,0.0,0,0.0,0.0,0.0,10.7,-2.2,52.8,0.0,101.0,-0.0,-0.04,1.0,0.0,-2.0,21.0,0.0,30.44,849.0,0.0,0.0,241.0,0.0,0.0,0.0,0.0,0.0,0.0,0.0,0.0,0.0,0.0,0.0,0.0,0.0,0.0,0.0,0.0,0.0,0.0,0.0,0.0,0.0,0.0,0.0,0.0,0.0,17.0,0.0,0.0,30.2,0.0,0.0,0.0,0.0,0.0,0.0,37.4,0.0,0.0,-0.7,0.9,0.3,0.0,0.0,0.0,0.0,64.4,66.2,64.4,66.2,66.2,66.2,66.2,66.2,0.0,0.0,-6.0,2.2,0.0,0.0,-8.0,4.998,0.0,0.0,0.656,0.774,0.0,17.3,0.0,0.0,0.0,0,0.0,0.0,0.0,419.0,True,2026-02-01 00:45:19 - Flight 5
64.06,1,8,2026-02-01 00:46:23,37.08159,-121.59958,304.0,0.0,231.1,-12.6,0.0,0,0.0,0.0,0.0,10.7,-2.2,52.8,0.0,101.0,-0.0,-0.04,1.0,0.0,-27.0,21.0,0.0,30.44,848.0,0.0,0.0,241.0,0.0,0.0,0.0,0.0,0.0,0.0,0.0,0.0,0.0,0.0,0.0,0.0,0.0,0.0,0.0,0.0,0.0,0.0,0.0,0.0,0.0,0.0,0.0,0.0,0.0,17.0,0.0,0.0,30.2,0.0,0.0,0.0,0.0,0.0,0.0,37.4,0.0,0.0,-0.7,0.9,0.3,0.0,0.0,0.0,0.0,64.4,66.2,64.4,66.2,66.2,66.2,66.2,66.2,0.0,0.0,-6.0,1.9,0.0,0.0,-8.0,4.998,0.0,0.0,0.656,0.774,0.0,17.3,0.0,0.0,0.0,0,0.0,0.0,0.0,419.0,True,2026-02-01 00:45:19 - Flight 5
65.06,1,8,2026-02-01 00:46:24,37.08159,-121.59957,304.0,0.0,231.1,-12.6,0.0,0,0.0,0.0,0.0,10.7,-2.2,52.8,0.0,101.0,0.0,-0.04,1.0,0.0,15.0,21.0,0.0,30.44,848.0,0.0,0.0,241.0,0.0,0.0,0.0,0.0,0.0,0.0,0.0,0.0,0.0,0.0,0.0,0.0,0.0,0.0,0.0,0.0,0.0,0.0,0.0,0.0,0.0,0.0,0.0,0.0,0.0,17.0,0.0,0.0,30.2,0.0,0.0,0.0,0.0,0.0,0.0,37.4,0.0,0.0,-0.7,0.9,0.3,0.0,0.0,0.0,0.0,64.4,66.2,64.4,66.2,66.2,66.2,66.2,66.2,0.0,0.0,-6.0,1.7,0.0,0.0,-8.0,4.998,0.0,0.0,0.654,0.774,0.0,17.3,0.0,0.0,0.0,0,0.0,0.0,0.0,419.0,True,2026-02-01 00:45:19 - Flight 5
66.06,1,8,2026-02-01 00:46:25,37.08159,-121.59957,305.0,0.0,231.1,-12.6,0.0,0,0.0,0.0,0.0,10.7,-2.3,52.8,0.0,101.0,0.0,-0.04,1.0,0.0,-12.0,21.0,0.0,30.44,848.0,0.0,0.0,241.0,0.0,0.0,0.0,0.0,0.0,0.0,0.0,0.0,0.0,0.0,0.0,0.0,0.0,0.0,0.0,0.0,0.0,0.0,0.0,0.0,0.0,0.0,0.0,0.0,0.0,17.0,0.0,0.0,30.2,0.0,0.0,0.0,0.0,0.0,0.0,37.4,0.0,0.0,-0.7,0.9,0.3,0.0,0.0,0.0,0.0,64.4,66.2,64.4,66.2,66.2,66.2,66.2,66.2,0.0,0.0,-6.0,1.6,0.0,0.0,-8.0,4.998,0.0,0.0,0.656,0.774,0.0,17.3,0.0,0.0,0.0,0,0.0,0.0,0.0,419.0,True,2026-02-01 00:45:19 - Flight 5
67.06,1,8,2026-02-01 00:46:26,37.08159,-121.59957,305.0,0.0,231.1,-12.6,0.0,0,0.0,0.0,0.0,10.7,-2.3,52.8,0.0,101.0,-0.0,-0.04,1.0,0.0,-12.0,21.0,0.0,30.44,849.0,0.0,0.0,241.0,0.0,0.0,0.0,0.0,0.0,0.0,0.0,0.0,0.0,0.0,0.0,0.0,0.0,0.0,0.0,0.0,0.0,0.0,0.0,0.0,0.0,0.0,0.0,0.0,0.0,17.0,0.0,0.0,30.2,0.0,0.0,0.0,0.0,0.0,0.0,37.4,0.0,0.0,-0.7,0.9,0.3,0.0,0.0,0.0,0.0,64.4,66.2,64.4,66.2,66.2,66.2,66.2,66.2,0.0,0.0,-6.0,1.4,0.0,0.0,-8.0,4.998,0.0,0.0,0.656,0.775,0.0,17.3,0.0,0.0,0.0,0,0.0,0.0,0.0,419.0,True,2026-02-01 00:45:19 - Flight 5
68.06,1,8,2026-02-01 00:46:27,37.08159,-121.59957,305.0,0.0,231.1,-12.6,0.0,0,0.0,0.0,0.0,10.7,-2.3,52.8,0.0,101.0,-0.0,-0.04,1.0,0.0,-31.0,21.0,0.0,30.44,849.0,0.0,0.0,241.0,0.0,0.0,0.0,0.0,0.0,0.0,0.0,0.0,0.0,0.0,0.0,0.0,0.0,0.0,0.0,0.0,0.0,0.0,0.0,0.0,0.0,0.0,0.0,0.0,0.0,17.0,0.0,0.0,30.2,0.0,0.0,0.0,0.0,0.0,0.0,37.4,0.0,0.0,-0.7,0.9,0.3,0.0,0.0,0.0,0.0,64.4,66.2,64.4,66.2,66.2,66.2,66.2,66.2,0.0,0.0,-6.0,1.3,0.0,0.0,-8.0,4.998,0.0,0.0,0.656,0.775,0.0,17.3,0.0,0.0,0.0,0,0.0,0.0,0.0,419.0,True,2026-02-01 00:45:19 - Flight 5
69.06,1,8,2026-02-01 00:46:28,37.08159,-121.59957,305.0,0.0,231.1,-12.6,0.0,0,0.0,0.0,0.0,10.7,-2.3,52.8,0.0,101.0,-0.0,-0.04,1.0,0.0,-24.0,21.0,0.0,30.44,849.0,0.0,0.0,241.0,0.0,0.0,0.0,0.0,0.0,0.0,0.0,0.0,0.0,0.0,0.0,0.0,0.0,0.0,0.0,0.0,0.0,0.0,0.0,0.0,0.0,0.0,0.0,0.0,0.0,17.0,0.0,0.0,30.2,0.0,0.0,0.0,0.0,0.0,0.0,37.4,0.0,0.0,-0.7,0.9,0.3,0.0,0.0,0.0,0.0,64.4,66.2,64.4,66.2,66.2,66.2,66.2,66.2,0.0,0.0,-6.0,1.2,0.0,0.0,-8.0,4.998,0.0,0.0,0.654,0.776,0.0,17.3,0.0,0.0,0.0,0,0.0,0.0,0.0,419.0,True,2026-02-01 00:45:19 - Flight 5
70.06,1,8,2026-02-01 00:46:29,37.08159,-121.59957,305.0,0.0,231.1,-12.6,0.0,0,0.0,0.0,0.0,10.7,-2.3,52.8,0.0,101.0,-0.0,-0.04,1.0,0.0,-32.0,21.0,0.0,30.44,849.0,0.0,0.0,241.0,0.0,0.0,0.0,0.0,0.0,0.0,0.0,0.0,0.0,0.0,0.0,0.0,0.0,0.0,0.0,0.0,0.0,0.0,0.0,0.0,0.0,0.0,0.0,0.0,0.0,17.0,0.0,0.0,30.2,0.0,0.0,0.0,0.0,0.0,0.0,37.4,0.0,0.0,-0.7,0.9,0.3,0.0,0.0,0.0,0.0,64.4,66.2,64.4,66.2,66.2,66.2,66.2,66.2,0.0,0.0,-6.0,1.2,0.0,0.0,-8.0,4.998,0.0,0.0,0.654,0.776,0.0,17.3,0.0,0.0,0.0,0,0.0,0.0,0.0,419.0,True,2026-02-01 00:45:19 - Flight 5
71.06,1,8,2026-02-01 00:46:30,37.08159,-121.59957,305.0,0.0,231.1,-12.6,0.0,0,0.0,0.0,0.0,10.7,-2.2,52.8,0.0,100.0,-0.0,-0.04,1.0,0.0,-65.0,21.0,0.0,30.44,849.0,0.0,0.0,241.0,0.0,0.0,0.0,0.0,0.0,0.0,0.0,0.0,0.0,0.0,0.0,0.0,0.0,0.0,0.0,0.0,0.0,0.0,0.0,0.0,0.0,0.0,0.0,0.0,0.0,17.0,0.0,0.0,30.2,0.0,0.0,0.0,0.0,0.0,0.0,37.4,0.0,0.0,-0.7,0.9,0.3,0.0,0.0,0.0,0.0,66.2,66.2,66.2,66.2,66.2,66.2,66.2,66.2,0.0,0.0,-6.0,1.1,0.0,0.0,-8.0,4.998,0.0,0.0,0.654,0.776,0.0,17.3,0.0,0.0,0.0,0,0.0,0.0,0.0,419.0,True,2026-02-01 00:45:19 - Flight 5
72.06,1,8,2026-02-01 00:46:31,37.08159,-121.59957,304.0,0.0,231.1,-12.6,0.0,0,0.0,0.0,0.0,10.7,-2.2,52.8,0.0,99.0,0.0,-0.04,1.0,0.0,-30.0,21.0,0.0,30.44,849.0,0.0,0.0,241.0,0.0,0.0,0.0,0.0,0.0,0.0,0.0,0.0,0.0,0.0,0.0,0.0,0.0,0.0,0.0,0.0,0.0,0.0,0.0,0.0,0.0,0.0,0.0,0.0,0.0,17.0,0.0,0.0,30.2,0.0,0.0,0.0,0.0,0.0,0.0,37.4,0.0,0.0,-0.7,0.9,0.3,0.0,0.0,0.0,0.0,66.2,66.2,66.2,66.2,66.2,66.2,66.2,66.2,0.0,0.0,-6.0,1.1,0.0,0.0,-8.0,4.998,0.0,0.0,0.656,0.779,0.0,17.3,0.0,0.0,0.0,0,0.0,0.0,0.0,419.0,True,2026-02-01 00:45:19 - Flight 5
73.06,1,8,2026-02-01 00:46:32,37.08159,-121.59957,304.0,0.0,231.1,-12.6,0.0,0,0.0,0.0,0.0,10.7,-2.2,52.8,0.0,99.0,-0.0,-0.04,1.0,0.0,-21.0,21.0,0.0,30.44,847.0,0.0,0.0,241.0,0.0,0.0,0.0,0.0,0.0,0.0,0.0,0.0,0.0,0.0,0.0,0.0,0.0,0.0,0.0,0.0,0.0,0.0,0.0,0.0,0.0,0.0,0.0,0.0,0.0,17.0,0.0,0.0,30.2,0.0,0.0,0.0,0.0,0.0,0.0,37.4,0.0,0.0,-0.7,0.9,0.3,0.0,0.0,0.0,0.0,66.2,66.2,66.2,66.2,66.2,66.2,66.2,66.2,0.0,0.0,-6.0,1.1,0.0,0.0,-8.0,4.998,0.0,0.0,0.656,0.778,0.0,17.3,0.0,0.0,0.0,0,0.0,0.0,0.0,419.0,True,2026-02-01 00:45:19 - Flight 5
74.06,1,8,2026-02-01 00:46:33,37.08159,-121.59957,304.0,0.0,231.1,-12.6,0.0,0,0.0,0.0,0.0,10.8,-2.2,52.8,0.0,98.0,-0.0,-0.04,1.0,0.0,-45.0,21.0,0.0,30.44,847.0,0.0,0.0,241.0,0.0,0.0,0.0,0.0,0.0,0.0,0.0,0.0,0.0,0.0,0.0,0.0,0.0,0.0,0.0,0.0,0.0,0.0,0.0,0.0,0.0,0.0,0.0,0.0,0.0,17.0,0.0,0.0,30.2,0.0,0.0,0.0,0.0,0.0,0.0,37.4,0.0,0.0,-0.7,0.9,0.3,0.0,0.0,0.0,0.0,66.2,66.2,66.2,66.2,66.2,66.2,66.2,66.2,0.0,0.0,-6.0,1.0,0.0,0.0,-8.0,4.998,0.0,0.0,0.654,0.779,0.0,17.3,0.0,0.0,0.0,0,0.0,0.0,0.0,419.0,True,2026-02-01 00:45:19 - Flight 5
75.06,1,8,2026-02-01 00:46:34,37.08159,-121.59957,304.0,0.0,231.1,-12.6,0.0,0,0.0,0.0,0.0,10.7,-2.2,52.8,0.0,96.0,-0.0,-0.04,1.0,0.0,-81.0,21.0,0.0,30.44,847.0,0.0,0.0,241.0,0.0,0.0,0.0,0.0,0.0,0.0,0.0,0.0,0.0,0.0,0.0,0.0,0.0,0.0,0.0,0.0,0.0,0.0,0.0,0.0,0.0,0.0,0.0,0.0,0.0,17.0,0.0,0.0,30.2,0.0,0.0,0.0,0.0,0.0,0.0,37.4,0.0,0.0,-0.7,0.9,0.3,0.0,0.0,0.0,0.0,66.2,66.2,66.2,66.2,66.2,66.2,66.2,66.2,0.0,0.0,-6.0,1.0,0.0,0.0,-8.0,4.998,0.0,0.0,0.656,0.782,0.0,17.3,0.0,0.0,0.0,0,0.0,0.0,0.0,419.0,True,2026-02-01 00:45:19 - Flight 5
76.06,1,8,2026-02-01 00:46:35,37.08159,-121.59957,304.0,0.0,231.1,-12.6,0.0,0,0.0,0.0,0.0,10.7,-2.2,52.8,0.0,96.0,0.0,-0.04,1.0,0.0,-31.0,21.0,0.0,30.44,843.0,0.0,0.0,241.0,0.0,0.0,0.0,0.0,0.0,0.0,0.0,0.0,0.0,0.0,0.0,0.0,0.0,0.0,0.0,0.0,0.0,0.0,0.0,0.0,0.0,0.0,0.0,0.0,0.0,17.0,0.0,0.0,30.2,0.0,0.0,0.0,0.0,0.0,0.0,37.4,0.0,0.0,-0.7,0.9,0.3,0.0,0.0,0.0,0.0,66.2,66.2,66.2,66.2,66.2,66.2,66.2,66.2,0.0,0.0,-6.0,1.0,0.0,0.0,-8.0,4.998,0.0,0.0,0.654,0.781,0.0,17.3,0.0,0.0,0.0,0,0.0,0.0,0.0,419.0,True,2026-02-01 00:45:19 - Flight 5
77.06,1,8,2026-02-01 00:46:36,37.08159,-121.59957,304.0,0.0,231.1,-12.6,0.0,0,0.0,0.0,0.0,10.7,-2.2,52.8,0.0,96.0,0.0,-0.04,1.0,0.0,-1.0,21.0,0.0,30.44,843.0,0.0,0.0,241.0,0.0,0.0,0.0,0.0,0.0,0.0,0.0,0.0,0.0,0.0,0.0,0.0,0.0,0.0,0.0,0.0,0.0,0.0,0.0,0.0,0.0,0.0,0.0,0.0,0.0,17.0,0.0,0.0,30.2,0.0,0.0,0.0,0.0,0.0,0.0,37.4,0.0,0.0,-0.7,0.9,0.3,0.0,0.0,0.0,0.0,66.2,66.2,66.2,66.2,66.2,66.2,66.2,66.2,0.0,0.0,-6.0,1.0,0.0,0.0,-8.0,4.998,0.0,0.0,0.654,0.781,0.0,17.3,0.0,0.0,0.0,0,0.0,0.0,0.0,419.0,True,2026-02-01 00:45:19 - Flight 5
78.06,1,8,2026-02-01 00:46:37,37.08159,-121.59957,304.0,0.0,231.1,-12.6,0.0,0,0.0,0.0,0.0,10.7,-2.2,52.8,0.0,96.0,-0.0,-0.04,1.0,0.0,-42.0,21.0,0.0,30.44,843.0,0.0,0.0,241.0,0.0,0.0,0.0,0.0,0.0,0.0,0.0,0.0,0.0,0.0,0.0,0.0,0.0,0.0,0.0,0.0,0.0,0.0,0.0,0.0,0.0,0.0,0.0,0.0,0.0,17.0,0.0,0.0,30.2,0.0,0.0,0.0,0.0,0.0,0.0,37.4,0.0,0.0,-0.7,0.9,0.3,0.0,0.0,0.0,0.0,66.2,66.2,66.2,66.2,66.2,66.2,66.2,66.2,0.0,0.0,-6.0,1.0,0.0,0.0,-8.0,4.998,0.0,0.0,0.654,0.781,0.0,17.3,0.0,0.0,0.0,0,0.0,0.0,0.0,419.0,True,2026-02-01 00:45:19 - Flight 5
79.06,1,8,2026-02-01 00:46:38,37.08159,-121.59957,304.0,0.0,231.1,-12.6,0.0,0,0.0,0.0,0.0,10.7,-2.3,52.8,0.0,96.0,0.0,-0.04,1.0,0.0,5.0,21.0,0.0,30.44,843.0,0.0,0.0,241.0,0.0,0.0,0.0,0.0,0.0,0.0,0.0,0.0,0.0,0.0,0.0,0.0,0.0,0.0,0.0,0.0,0.0,0.0,0.0,0.0,0.0,0.0,0.0,0.0,0.0,17.0,0.0,0.0,30.2,0.0,0.0,0.0,0.0,0.0,0.0,37.4,0.0,0.0,-0.7,0.9,0.3,0.0,0.0,0.0,0.0,66.2,66.2,66.2,66.2,66.2,66.2,66.2,66.2,0.0,0.0,-6.0,1.0,0.0,0.0,-8.0,4.998,0.0,0.0,0.656,0.781,0.0,17.3,0.0,0.0,0.0,0,0.0,0.0,0.0,419.0,True,2026-02-01 00:45:19 - Flight 5
80.06,1,8,2026-02-01 00:46:39,37.08159,-121.59957,304.0,0.0,231.1,-12.6,0.0,0,0.0,0.0,0.0,10.7,-2.3,52.8,0.0,96.0,-0.0,-0.04,1.0,0.0,23.0,21.0,0.0,30.44,843.0,0.0,0.0,241.0,0.0,0.0,0.0,0.0,0.0,0.0,0.0,0.0,0.0,0.0,0.0,0.0,0.0,0.0,0.0,0.0,0.0,0.0,0.0,0.0,0.0,0.0,0.0,0.0,0.0,17.0,0.0,0.0,30.2,0.0,0.0,0.0,0.0,0.0,0.0,37.4,0.0,0.0,-0.7,0.9,0.3,0.0,0.0,0.0,0.0,66.2,66.2,66.2,66.2,66.2,66.2,66.2,66.2,0.0,0.0,-6.0,1.0,0.0,0.0,-8.0,4.998,0.0,0.0,0.654,0.781,0.0,17.3,0.0,0.0,0.0,0,0.0,0.0,0.0,419.0,True,2026-02-01 00:45:19 - Flight 5
81.06,1,8,2026-02-01 00:46:40,37.08159,-121.59957,304.0,0.0,231.1,-12.6,0.0,0,0.0,0.0,0.0,10.7,-2.2,52.8,0.0,96.0,0.0,-0.04,1.0,0.0,18.0,21.0,0.0,30.44,843.0,0.0,0.0,241.0,0.0,0.0,0.0,0.0,0.0,0.0,0.0,0.0,0.0,0.0,0.0,0.0,0.0,0.0,0.0,0.0,0.0,0.0,0.0,0.0,0.0,0.0,0.0,0.0,0.0,17.0,0.0,0.0,30.2,0.0,0.0,0.0,0.0,0.0,0.0,37.4,0.0,0.0,-0.7,0.9,0.3,0.0,0.0,0.0,0.0,66.2,66.2,66.2,66.2,66.2,66.2,66.2,66.2,0.0,0.0,-6.0,1.0,0.0,0.0,-8.0,4.998,0.0,0.0,0.654,0.781,0.0,17.3,0.0,0.0,0.0,0,0.0,0.0,0.0,419.0,True,2026-02-01 00:45:19 - Flight 5
82.06,1,8,2026-02-01 00:46:41,37.08159,-121.59957,304.0,0.0,231.1,-12.6,0.0,0,0.0,0.0,0.0,10.7,-2.2,52.8,0.0,96.0,-0.0,-0.04,1.0,0.0,-12.0,21.0,0.0,30.44,843.0,0.0,0.0,241.0,0.0,0.0,0.0,0.0,0.0,0.0,0.0,0.0,0.0,0.0,0.0,0.0,0.0,0.0,0.0,0.0,0.0,0.0,0.0,0.0,0.0,0.0,0.0,0.0,0.0,17.0,0.0,0.0,30.2,0.0,0.0,0.0,0.0,0.0,0.0,37.4,0.0,0.0,-0.7,0.9,0.3,0.0,0.0,0.0,0.0,66.2,66.2,66.2,66.2,66.2,66.2,66.2,66.2,0.0,0.0,-6.0,1.0,0.0,0.0,-8.0,4.998,0.0,0.0,0.654,0.782,0.0,17.3,0.0,0.0,0.0,0,0.0,0.0,0.0,419.0,True,2026-02-01 00:45:19 - Flight 5
83.06,1,8,2026-02-01 00:46:42,37.08159,-121.59957,304.0,0.0,231.1,-12.6,0.0,0,0.0,0.0,0.0,10.7,-2.2,52.8,0.0,96.0,-0.0,-0.04,1.0,0.0,51.0,21.0,0.0,30.44,843.0,0.0,0.0,241.0,0.0,0.0,0.0,0.0,0.0,0.0,0.0,0.0,0.0,0.0,0.0,0.0,0.0,0.0,0.0,0.0,0.0,0.0,0.0,0.0,0.0,0.0,0.0,0.0,0.0,17.0,0.0,0.0,30.2,0.0,0.0,0.0,0.0,0.0,0.0,37.4,0.0,0.0,-0.7,0.9,0.3,0.0,0.0,0.0,0.0,66.2,66.2,66.2,66.2,66.2,66.2,66.2,66.2,0.0,0.0,-6.0,1.0,0.0,0.0,-8.0,4.998,0.0,0.0,0.654,0.782,0.0,17.3,0.0,0.0,0.0,0,0.0,0.0,0.0,419.0,True,2026-02-01 00:45:19 - Flight 5
84.06,1,8,2026-02-01 00:46:43,37.08159,-121.59957,305.0,0.0,231.1,-12.6,0.0,0,0.0,0.0,0.0,10.8,-2.2,52.8,0.0,96.0,0.0,-0.04,1.0,0.0,24.0,21.0,0.0,30.44,843.0,0.0,0.0,241.0,0.0,0.0,0.0,0.0,0.0,0.0,0.0,0.0,0.0,0.0,0.0,0.0,0.0,0.0,0.0,0.0,0.0,0.0,0.0,0.0,0.0,0.0,0.0,0.0,0.0,17.0,0.0,0.0,30.2,0.0,0.0,0.0,0.0,0.0,0.0,37.4,0.0,0.0,-0.7,0.9,0.3,0.0,0.0,0.0,0.0,66.2,66.2,66.2,66.2,66.2,66.2,66.2,66.2,0.0,0.0,-6.0,1.0,0.0,0.0,-8.0,4.998,0.0,0.0,0.656,0.782,0.0,17.3,0.0,0.0,0.0,0,0.0,0.0,0.0,419.0,True,2026-02-01 00:45:19 - Flight 5
85.06,1,8,2026-02-01 00:46:44,37.08159,-121.59957,305.0,0.0,231.1,-12.6,0.0,0,0.0,0.0,0.0,10.7,-2.2,52.9,0.0,96.0,0.0,-0.04,1.0,0.0,3.0,21.0,0.0,30.44,843.0,0.0,0.0,241.0,0.0,0.0,0.0,0.0,0.0,0.0,0.0,0.0,0.0,0.0,0.0,0.0,0.0,0.0,0.0,0.0,0.0,0.0,0.0,0.0,0.0,0.0,0.0,0.0,0.0,17.0,0.0,0.0,30.2,0.0,0.0,0.0,0.0,0.0,0.0,37.4,0.0,0.0,-0.7,0.9,0.3,0.0,0.0,0.0,0.0,66.2,66.2,66.2,66.2,66.2,66.2,66.2,66.2,0.0,0.0,-6.0,1.0,0.0,0.0,-8.0,4.998,0.0,0.0,0.656,0.781,0.0,17.3,0.0,0.0,0.0,0,0.0,0.0,0.0,419.0,True,2026-02-01 00:45:19 - Flight 5
86.06,1,8,2026-02-01 00:46:45,37.08158,-121.59958,305.0,0.0,231.1,-12.6,0.0,0,0.0,0.0,0.0,10.7,-2.2,52.9,0.0,96.0,0.0,-0.04,1.0,0.0,2.0,21.0,0.0,30.44,843.0,0.0,0.0,241.0,0.0,0.0,0.0,0.0,0.0,0.0,0.0,0.0,0.0,0.0,0.0,0.0,0.0,0.0,0.0,0.0,0.0,0.0,0.0,0.0,0.0,0.0,0.0,0.0,0.0,17.0,0.0,0.0,30.2,0.0,0.0,0.0,0.0,0.0,0.0,37.4,0.0,0.0,-0.7,0.9,0.3,0.0,0.0,0.0,0.0,66.2,66.2,66.2,66.2,66.2,66.2,66.2,66.2,0.0,0.0,-6.0,1.0,0.0,0.0,-8.0,4.998,0.0,0.0,0.654,0.782,0.0,17.3,0.0,0.0,0.0,0,0.0,0.0,0.0,419.0,True,2026-02-01 00:45:19 - Flight 5
87.06,2,8,2026-02-01 00:46:46,37.08158,-121.59958,307.0,0.0,231.1,-12.6,0.0,0,0.0,0.0,0.0,10.7,-2.3,52.8,0.0,96.0,-0.0,-0.04,1.0,0.0,2.0,21.0,0.0,30.44,844.0,0.0,0.0,241.0,0.0,0.0,0.0,0.0,0.0,0.0,0.0,0.0,0.0,0.0,0.0,0.0,0.0,0.0,0.0,0.0,0.0,0.0,0.0,0.0,0.0,0.0,0.0,0.0,0.0,17.0,0.0,0.0,30.2,0.0,0.0,0.0,0.0,0.0,0.0,37.4,0.0,0.0,-0.7,0.9,0.3,0.0,0.0,0.0,0.0,66.2,66.2,66.2,66.2,66.2,66.2,66.2,66.2,0.0,0.0,-6.0,0.0,0.0,0.0,-8.0,4.998,0.0,0.0,0.654,0.781,0.0,17.3,0.0,0.0,0.0,0,0.0,0.0,0.0,419.0,True,2026-02-01 00:45:19 - Flight 5
88.06,2,8,2026-02-01 00:46:47,37.08158,-121.59958,307.0,0.0,231.1,-12.6,0.0,0,0.0,0.0,0.0,10.7,-2.2,52.8,0.0,96.0,-0.0,-0.04,1.0,0.0,11.0,21.0,0.0,30.44,844.0,0.0,0.0,241.0,0.0,0.0,0.0,0.0,0.0,0.0,0.0,0.0,0.0,0.0,0.0,0.0,0.0,0.0,0.0,0.0,0.0,0.0,0.0,0.0,0.0,0.0,0.0,0.0,0.0,17.0,0.0,0.0,30.2,0.0,0.0,0.0,0.0,0.0,0.0,37.4,0.0,0.0,-0.7,0.9,0.3,0.0,0.0,0.0,0.0,66.2,66.2,66.2,66.2,66.2,66.2,66.2,66.2,0.0,0.0,-6.0,0.0,0.0,0.0,-8.0,4.998,0.0,0.0,0.654,0.781,0.0,17.3,0.0,0.0,0.0,0,0.0,0.0,0.0,419.0,True,2026-02-01 00:45:19 - Flight 5
89.06,2,8,2026-02-01 00:46:48,37.08157,-121.59958,308.0,0.0,231.1,-12.6,0.0,0,0.0,0.0,0.0,10.7,-2.2,52.8,0.0,96.0,-0.0,-0.04,1.0,0.0,35.0,21.0,0.0,30.44,844.0,0.0,0.0,241.0,0.0,0.0,0.0,0.0,0.0,0.0,0.0,0.0,0.0,0.0,0.0,0.0,0.0,0.0,0.0,0.0,0.0,0.0,0.0,0.0,0.0,0.0,0.0,0.0,0.0,17.0,0.0,0.0,30.2,0.0,0.0,0.0,0.0,0.0,0.0,37.4,0.0,0.0,-0.7,0.9,0.3,0.0,0.0,0.0,0.0,66.2,66.2,66.2,66.2,66.2,66.2,66.2,66.2,0.0,0.0,-6.0,0.0,0.0,0.0,-8.0,4.998,0.0,0.0,0.654,0.781,0.0,17.3,0.0,0.0,0.0,0,0.0,0.0,0.0,419.0,True,2026-02-01 00:45:19 - Flight 5
90.06,2,8,2026-02-01 00:46:49,37.08157,-121.59958,309.0,0.0,231.1,-12.6,0.0,0,0.0,0.0,0.0,10.7,-2.2,52.8,0.0,96.0,-0.0,-0.04,1.0,0.0,18.0,21.0,0.0,30.44,844.0,0.0,0.0,241.0,0.0,0.0,0.0,0.0,0.0,0.0,0.0,0.0,0.0,0.0,0.0,0.0,0.0,0.0,0.0,0.0,0.0,0.0,0.0,0.0,0.0,0.0,0.0,0.0,0.0,17.0,0.0,0.0,30.2,0.0,0.0,0.0,0.0,0.0,0.0,37.4,0.0,0.0,-0.7,0.9,0.3,0.0,0.0,0.0,0.0,66.2,66.2,66.2,66.2,66.2,66.2,66.2,68.0,0.0,0.0,-6.0,0.0,0.0,0.0,-8.0,4.998,0.0,0.0,0.654,0.781,0.0,17.3,0.0,0.0,0.0,0,0.0,0.0,0.0,419.0,True,2026-02-01 00:45:19 - Flight 5
91.06,2,8,2026-02-01 00:46:50,37.08157,-121.59958,310.0,0.0,231.1,-12.6,0.0,0,0.0,0.0,0.0,10.7,-2.3,52.8,0.0,96.0,-0.0,-0.04,1.0,0.0,26.0,21.0,0.0,30.44,844.0,0.0,0.0,241.0,0.0,0.0,0.0,0.0,0.0,0.0,0.0,0.0,0.0,0.0,0.0,0.0,0.0,0.0,0.0,0.0,0.0,0.0,0.0,0.0,0.0,0.0,0.0,0.0,0.0,17.0,0.0,0.0,30.2,0.0,0.0,0.0,0.0,0.0,0.0,37.4,0.0,0.0,-0.7,0.9,0.3,0.0,0.0,0.0,0.0,66.2,66.2,66.2,66.2,66.2,66.2,66.2,68.0,0.0,0.0,-6.0,0.0,0.0,0.0,-8.0,4.998,0.0,0.0,0.654,0.782,0.0,17.3,0.0,0.0,0.0,0,0.0,0.0,0.0,419.0,True,2026-02-01 00:45:19 - Flight 5
92.06,2,8,2026-02-01 00:46:51,37.08157,-121.59958,311.0,0.0,231.1,-12.6,0.0,0,0.0,0.0,0.0,10.7,-2.3,52.8,0.0,96.0,-0.0,-0.04,1.0,0.0,36.0,21.0,0.0,30.44,844.0,0.0,0.0,241.0,0.0,0.0,0.0,0.0,0.0,0.0,0.0,0.0,0.0,0.0,0.0,0.0,0.0,0.0,0.0,0.0,0.0,0.0,0.0,0.0,0.0,0.0,0.0,0.0,0.0,17.0,0.0,0.0,30.2,0.0,0.0,0.0,0.0,0.0,0.0,37.4,0.0,0.0,-0.7,0.9,0.3,0.0,0.0,0.0,0.0,66.2,66.2,66.2,66.2,66.2,66.2,66.2,66.2,0.0,0.0,-6.0,0.0,0.0,0.0,-8.0,4.998,0.0,0.0,0.656,0.784,0.0,17.3,0.0,0.0,0.0,0,0.0,0.0,0.0,419.0,True,2026-02-01 00:45:19 - Flight 5
93.06,2,8,2026-02-01 00:46:52,37.08157,-121.59958,309.0,0.0,231.1,-12.6,0.0,0,0.0,0.0,0.0,10.7,-2.3,52.8,0.0,96.0,-0.0,-0.04,1.0,0.0,25.0,21.0,0.0,30.44,853.0,0.0,0.0,241.0,0.0,0.0,0.0,0.0,0.0,0.0,0.0,0.0,0.0,0.0,0.0,0.0,0.0,0.0,0.0,0.0,0.0,0.0,0.0,0.0,0.0,0.0,0.0,0.0,0.0,17.0,0.0,0.0,30.2,0.0,0.0,0.0,0.0,0.0,0.0,37.4,0.0,0.0,-0.7,0.9,0.3,0.0,0.0,0.0,0.0,66.2,66.2,66.2,66.2,66.2,66.2,66.2,68.0,0.0,0.0,-6.0,0.0,0.0,0.0,-8.0,4.998,0.0,0.0,0.656,0.785,0.0,17.3,0.0,0.0,0.0,0,0.0,0.0,0.0,419.0,True,2026-02-01 00:45:19 - Flight 5
94.06,2,8,2026-02-01 00:46:53,37.08157,-121.59958,310.0,0.0,231.1,-12.6,0.0,0,0.0,0.0,0.0,10.7,-2.3,52.7,0.0,96.0,-0.0,-0.04,1.0,0.0,39.0,21.0,0.0,30.44,853.0,0.0,0.0,241.0,0.0,0.0,0.0,0.0,0.0,0.0,0.0,0.0,0.0,0.0,0.0,0.0,0.0,0.0,0.0,0.0,0.0,0.0,0.0,0.0,0.0,0.0,0.0,0.0,0.0,17.0,0.0,0.0,30.2,0.0,0.0,0.0,0.0,0.0,0.0,37.4,0.0,0.0,-0.7,0.9,0.3,0.0,0.0,0.0,0.0,66.2,66.2,66.2,66.2,66.2,66.2,66.2,68.0,0.0,0.0,-6.0,0.0,0.0,0.0,-8.0,4.998,0.0,0.0,0.654,0.787,0.0,17.3,0.0,0.0,0.0,0,0.0,0.0,0.0,419.0,True,2026-02-01 00:45:19 - Flight 5
95.06,2,8,2026-02-01 00:46:54,37.08157,-121.59959,310.0,0.0,231.1,-12.6,0.0,0,0.0,0.0,0.0,10.7,-2.3,52.7,0.0,96.0,-0.0,-0.04,1.0,0.0,55.0,21.0,0.0,30.44,853.0,0.0,0.0,241.0,0.0,0.0,0.0,0.0,0.0,0.0,0.0,0.0,0.0,0.0,0.0,0.0,0.0,0.0,0.0,0.0,0.0,0.0,0.0,0.0,0.0,0.0,0.0,0.0,0.0,17.0,0.0,0.0,30.2,0.0,0.0,0.0,0.0,0.0,0.0,37.4,0.0,0.0,-0.7,0.9,0.3,0.0,0.0,0.0,0.0,66.2,66.2,66.2,66.2,66.2,66.2,66.2,68.0,0.0,0.0,-6.0,0.0,0.0,0.0,-8.0,4.998,0.0,0.0,0.654,0.787,0.0,17.3,0.0,0.0,0.0,0,0.0,0.0,0.0,419.0,True,2026-02-01 00:45:19 - Flight 5
96.06,2,8,2026-02-01 00:46:55,37.08158,-121.59958,311.0,0.0,231.1,-12.6,0.0,0,0.0,0.0,0.0,10.7,-2.3,52.8,0.0,96.0,-0.0,-0.04,1.0,0.0,42.0,21.0,0.0,30.44,853.0,0.0,0.0,241.0,0.0,0.0,0.0,0.0,0.0,0.0,0.0,0.0,0.0,0.0,0.0,0.0,0.0,0.0,0.0,0.0,0.0,0.0,0.0,0.0,0.0,0.0,0.0,0.0,0.0,17.0,0.0,0.0,30.2,0.0,0.0,0.0,0.0,0.0,0.0,37.4,0.0,0.0,-0.7,0.9,0.3,0.0,0.0,0.0,0.0,66.2,66.2,66.2,66.2,66.2,66.2,66.2,68.0,0.0,0.0,-6.0,0.0,0.0,0.0,-8.0,4.998,0.0,0.0,0.654,0.795,0.0,17.3,0.0,0.0,0.0,0,0.0,0.0,0.0,419.0,True,2026-02-01 00:45:19 - Flight 5
97.06,2,8,2026-02-01 00:46:56,37.08158,-121.59958,311.0,0.0,231.1,-12.6,0.0,0,0.0,0.0,0.0,10.7,-2.3,52.8,0.0,96.0,0.0,-0.04,1.0,0.0,58.0,21.0,0.0,30.44,853.0,0.0,0.0,241.0,0.0,0.0,0.0,0.0,0.0,0.0,0.0,0.0,0.0,0.0,0.0,0.0,0.0,0.0,0.0,0.0,0.0,0.0,0.0,0.0,0.0,0.0,0.0,0.0,0.0,17.0,0.0,0.0,30.2,0.0,0.0,0.0,0.0,0.0,0.0,37.4,0.0,0.0,-0.7,0.9,0.3,0.0,0.0,0.0,0.0,66.2,66.2,66.2,66.2,66.2,66.2,66.2,68.0,0.0,0.0,-6.0,0.0,0.0,0.0,-8.0,4.998,0.0,0.0,0.656,0.807,0.0,17.3,0.0,0.0,0.0,0,0.0,0.0,0.0,419.0,True,2026-02-01 00:45:19 - Flight 5
98.06,2,8,2026-02-01 00:46:57,37.08158,-121.59958,311.0,0.0,231.1,-12.6,0.0,0,0.0,0.0,0.0,10.7,-2.3,52.8,0.0,98.0,-0.0,-0.04,1.0,0.0,47.0,21.0,0.0,30.44,853.0,0.0,0.0,241.0,0.0,0.0,0.0,0.0,0.0,0.0,0.0,0.0,0.0,0.0,0.0,0.0,0.0,0.0,0.0,0.0,0.0,0.0,0.0,0.0,0.0,0.0,0.0,0.0,0.0,17.0,0.0,0.0,30.2,0.0,0.0,0.0,0.0,0.0,0.0,37.4,0.0,0.0,-0.7,0.9,0.3,0.0,0.0,0.0,0.0,66.2,66.2,66.2,66.2,66.2,66.2,66.2,66.2,0.0,0.0,-6.0,0.0,0.0,0.0,-8.0,4.998,0.0,0.0,0.656,0.82,0.0,17.3,0.0,0.0,0.0,0,0.0,0.0,0.0,419.0,True,2026-02-01 00:45:19 - Flight 5
99.06,2,8,2026-02-01 00:46:58,37.08158,-121.59958,311.0,0.0,231.1,-12.6,0.0,0,0.0,0.0,0.0,10.7,-2.3,52.8,0.0,98.0,0.0,-0.04,1.0,0.0,57.0,21.0,0.0,30.44,857.0,0.0,0.0,241.0,0.0,0.0,0.0,0.0,0.0,0.0,0.0,0.0,0.0,0.0,0.0,0.0,0.0,0.0,0.0,0.0,0.0,0.0,0.0,0.0,0.0,0.0,0.0,0.0,0.0,17.0,0.0,0.0,30.2,0.0,0.0,0.0,0.0,0.0,0.0,37.4,0.0,0.0,-0.7,0.9,0.3,0.0,0.0,0.0,0.0,66.2,66.2,66.2,66.2,66.2,66.2,66.2,68.0,0.0,0.0,-6.0,0.0,0.0,0.0,-8.0,4.998,0.0,0.0,0.656,0.804,0.0,17.3,0.0,0.0,0.0,0,0.0,0.0,0.0,419.0,True,2026-02-01 00:45:19 - Flight 5
100.06,2,8,2026-02-01 00:46:59,37.08158,-121.59958,311.0,0.0,231.1,-12.6,0.0,0,0.0,0.0,0.0,10.7,-2.2,52.8,0.0,99.0,0.0,-0.04,1.0,0.0,33.0,21.0,0.0,30.44,856.0,0.0,0.0,241.0,0.0,0.0,0.0,0.0,0.0,0.0,0.0,0.0,0.0,0.0,0.0,0.0,0.0,0.0,0.0,0.0,0.0,0.0,0.0,0.0,0.0,0.0,0.0,0.0,0.0,17.0,0.0,0.0,30.2,0.0,0.0,0.0,0.0,0.0,0.0,37.4,0.0,0.0,-0.7,0.9,0.3,0.0,0.0,0.0,0.0,66.2,66.2,66.2,66.2,66.2,66.2,66.2,68.0,0.0,0.0,-6.0,0.0,0.0,0.0,-8.0,4.998,0.0,0.0,0.656,0.795,0.0,17.3,0.0,0.0,0.0,0,0.0,0.0,0.0,419.0,True,2026-02-01 00:45:19 - Flight 5
101.06,2,8,2026-02-01 00:47:00,37.08158,-121.59958,312.0,0.0,231.1,-12.6,0.0,0,0.0,0.0,0.0,10.7,-2.2,52.9,0.0,100.0,0.0,-0.04,1.0,0.0,68.0,21.0,0.0,30.44,856.0,0.0,0.0,241.0,0.0,0.0,0.0,0.0,0.0,0.0,0.0,0.0,0.0,0.0,0.0,0.0,0.0,0.0,0.0,0.0,0.0,0.0,0.0,0.0,0.0,0.0,0.0,0.0,0.0,17.0,0.0,0.0,30.2,0.0,0.0,0.0,0.0,0.0,0.0,37.4,0.0,0.0,-0.7,0.9,0.3,0.0,0.0,0.0,0.0,66.2,66.2,66.2,66.2,66.2,66.2,66.2,68.0,0.0,0.0,-6.0,0.0,0.0,0.0,-8.0,4.998,0.0,0.0,0.656,0.793,0.0,17.3,0.0,0.0,0.0,0,0.0,0.0,0.0,419.0,True,2026-02-01 00:45:19 - Flight 5
102.06,2,8,2026-02-01 00:47:01,37.08158,-121.59959,312.0,0.1,231.1,-12.6,0.0,0,0.0,0.0,0.0,10.8,-2.2,52.8,0.0,101.0,0.0,-0.04,1.0,0.0,34.0,21.0,0.0,30.44,856.0,0.0,0.0,241.0,0.0,0.0,0.0,0.0,0.0,0.0,0.0,0.0,0.0,0.0,0.0,0.0,0.0,0.0,0.0,0.0,0.0,0.0,0.0,0.0,0.0,0.0,0.0,0.0,0.0,17.0,0.0,0.0,30.2,0.0,0.0,0.0,0.0,0.0,0.0,37.4,0.0,0.0,-0.7,0.9,0.3,0.0,0.0,0.0,0.0,66.2,66.2,66.2,66.2,66.2,66.2,66.2,68.0,0.0,0.0,-6.0,0.0,0.0,0.0,-8.0,4.998,0.0,0.0,0.654,0.795,0.0,17.3,0.0,0.0,0.0,0,0.0,0.0,0.0,419.0,True,2026-02-01 00:45:19 - Flight 5
103.06,2,8,2026-02-01 00:47:02,37.08158,-121.59959,312.0,0.1,231.1,-12.6,0.0,0,0.0,0.0,0.0,10.8,-2.3,52.8,0.0,101.0,-0.0,-0.04,1.0,0.0,7.0,21.0,0.0,30.44,860.0,0.0,0.0,241.0,0.0,0.0,0.0,0.0,0.0,0.0,0.0,0.0,0.0,0.0,0.0,0.0,0.0,0.0,0.0,0.0,0.0,0.0,0.0,0.0,0.0,0.0,0.0,0.0,0.0,17.0,0.0,0.0,30.2,0.0,0.0,0.0,0.0,0.0,0.0,37.4,0.0,0.0,-0.7,0.9,0.3,0.0,0.0,0.0,0.0,66.2,66.2,66.2,66.2,66.2,66.2,66.2,66.2,0.0,0.0,-6.0,0.0,0.0,0.0,-8.0,4.998,0.0,0.0,0.654,0.795,0.0,17.3,0.0,0.0,0.0,0,0.0,0.0,0.0,419.0,True,2026-02-01 00:45:19 - Flight 5
104.06,2,8,2026-02-01 00:47:03,37.08158,-121.59959,313.0,0.1,231.1,-12.6,0.0,0,0.0,0.0,0.0,10.8,-2.3,52.8,0.0,101.0,-0.0,-0.04,1.0,0.0,18.0,21.0,0.0,30.44,860.0,0.0,0.0,241.0,0.0,0.0,0.0,0.0,0.0,0.0,0.0,0.0,0.0,0.0,0.0,0.0,0.0,0.0,0.0,0.0,0.0,0.0,0.0,0.0,0.0,0.0,0.0,0.0,0.0,17.0,0.0,0.0,30.2,0.0,0.0,0.0,0.0,0.0,0.0,37.4,0.0,0.0,-0.7,0.9,0.3,0.0,0.0,0.0,0.0,66.2,66.2,66.2,66.2,66.2,66.2,66.2,66.2,0.0,0.0,-6.0,0.0,0.0,0.0,-8.0,4.998,0.0,0.0,0.656,0.795,0.0,17.3,0.0,0.0,0.0,0,0.0,0.0,0.0,419.0,True,2026-02-01 00:45:19 - Flight 5
105.06,2,8,2026-02-01 00:47:04,37.08158,-121.59959,314.0,0.1,231.1,-12.6,0.0,0,0.0,0.0,0.0,10.8,-2.3,52.7,0.0,101.0,-0.0,-0.04,1.0,0.0,13.0,21.0,0.0,30.44,859.0,0.0,0.0,241.0,0.0,0.0,0.0,0.0,0.0,0.0,0.0,0.0,0.0,0.0,0.0,0.0,0.0,0.0,0.0,0.0,0.0,0.0,0.0,0.0,0.0,0.0,0.0,0.0,0.0,17.0,0.0,0.0,30.2,0.0,0.0,0.0,0.0,0.0,0.0,37.4,0.0,0.0,-0.7,0.9,0.3,0.0,0.0,0.0,0.0,66.2,66.2,66.2,66.2,66.2,66.2,66.2,66.2,0.0,0.0,-6.0,0.0,0.0,0.0,-8.0,4.998,0.0,0.0,0.656,0.793,0.0,17.3,0.0,0.0,0.0,0,0.0,0.0,0.0,419.0,True,2026-02-01 00:45:19 - Flight 5
106.06,2,8,2026-02-01 00:47:05,37.08158,-121.59959,314.0,0.1,231.1,-12.6,0.0,0,0.0,0.0,0.0,10.8,-2.3,52.7,0.0,101.0,-0.0,-0.04,1.0,0.0,35.0,21.0,0.0,30.44,859.0,0.0,0.0,241.0,0.0,0.0,0.0,0.0,0.0,0.0,0.0,0.0,0.0,0.0,0.0,0.0,0.0,0.0,0.0,0.0,0.0,0.0,0.0,0.0,0.0,0.0,0.0,0.0,0.0,17.0,0.0,0.0,30.2,0.0,0.0,0.0,0.0,0.0,0.0,37.4,0.0,0.0,-0.7,0.9,0.3,0.0,0.0,0.0,0.0,66.2,66.2,66.2,66.2,66.2,66.2,66.2,66.2,0.0,0.0,-6.0,0.0,0.0,0.0,-8.0,4.998,0.0,0.0,0.654,0.793,0.0,17.3,0.0,0.0,0.0,0,0.0,0.0,0.0,419.0,True,2026-02-01 00:45:19 - Flight 5
107.06,2,8,2026-02-01 00:47:06,37.08158,-121.59959,314.0,0.0,231.1,-12.6,0.0,0,0.0,0.0,0.0,10.8,-2.3,52.7,0.0,101.0,-0.0,-0.04,1.0,0.0,32.0,21.0,0.0,30.44,859.0,0.0,0.0,241.0,0.0,0.0,0.0,0.0,0.0,0.0,0.0,0.0,0.0,0.0,0.0,0.0,0.0,0.0,0.0,0.0,0.0,0.0,0.0,0.0,0.0,0.0,0.0,0.0,0.0,17.0,0.0,0.0,30.2,0.0,0.0,0.0,0.0,0.0,0.0,37.4,0.0,0.0,-0.7,0.9,0.3,0.0,0.0,0.0,0.0,66.2,66.2,66.2,66.2,66.2,66.2,66.2,66.2,0.0,0.0,-5.0,0.0,0.0,0.0,-8.0,4.998,0.0,0.0,0.656,0.791,0.0,17.3,0.0,0.0,0.0,0,0.0,0.0,0.0,419.0,True,2026-02-01 00:45:19 - Flight 5
108.06,2,8,2026-02-01 00:47:07,37.08158,-121.59959,315.0,0.1,231.1,-12.6,0.0,0,0.0,0.0,0.0,10.8,-2.3,52.7,0.0,102.0,0.0,-0.04,1.0,0.0,25.0,21.0,0.0,30.44,861.0,0.0,0.0,241.0,0.0,0.0,0.0,0.0,0.0,0.0,0.0,0.0,0.0,0.0,0.0,0.0,0.0,0.0,0.0,0.0,0.0,0.0,0.0,0.0,0.0,0.0,0.0,0.0,0.0,17.0,0.0,0.0,30.2,0.0,0.0,0.0,0.0,0.0,0.0,37.4,0.0,0.0,-0.7,0.9,0.3,0.0,0.0,0.0,0.0,66.2,66.2,64.4,66.2,66.2,66.2,66.2,68.0,0.0,0.0,-5.0,0.0,0.0,0.0,-8.0,4.998,0.0,0.0,0.654,0.791,0.0,17.3,0.0,0.0,0.0,0,0.0,0.0,0.0,419.0,True,2026-02-01 00:45:19 - Flight 5
